%time,field.header.seq,field.header.stamp,field.header.frame_id,field.orientation.x,field.orientation.y,field.orientation.z,field.orientation.w,field.orientation_covariance0,field.orientation_covariance1,field.orientation_covariance2,field.orientation_covariance3,field.orientation_covariance4,field.orientation_covariance5,field.orientation_covariance6,field.orientation_covariance7,field.orientation_covariance8,field.angular_velocity.x,field.angular_velocity.y,field.angular_velocity.z,field.angular_velocity_covariance0,field.angular_velocity_covariance1,field.angular_velocity_covariance2,field.angular_velocity_covariance3,field.angular_velocity_covariance4,field.angular_velocity_covariance5,field.angular_velocity_covariance6,field.angular_velocity_covariance7,field.angular_velocity_covariance8,field.linear_acceleration.x,field.linear_acceleration.y,field.linear_acceleration.z,field.linear_acceleration_covariance0,field.linear_acceleration_covariance1,field.linear_acceleration_covariance2,field.linear_acceleration_covariance3,field.linear_acceleration_covariance4,field.linear_acceleration_covariance5,field.linear_acceleration_covariance6,field.linear_acceleration_covariance7,field.linear_acceleration_covariance8
1509044729623586863,277726,1509044729623323043,base_footprint,0.0,0.0,0.0,0.0,-1.0,0.0,0.0,0.0,0.0,0.0,0.0,0.0,0.0,-0.0036,0.0,0.0014,0.0,0.0,0.0,0.0,0.0,0.0,0.0,0.0,0.0,0.03,0.24,-9.91,0.0,0.0,0.0,0.0,0.0,0.0,0.0,0.0,0.0
1509044729634200285,277727,1509044729633404665,base_footprint,0.0,0.0,0.0,0.0,-1.0,0.0,0.0,0.0,0.0,0.0,0.0,0.0,0.0,-0.0032,0.0,0.002,0.0,0.0,0.0,0.0,0.0,0.0,0.0,0.0,0.0,0.01,0.24,-9.91,0.0,0.0,0.0,0.0,0.0,0.0,0.0,0.0,0.0
1509044729648425593,277728,1509044729643487241,base_footprint,0.0,0.0,0.0,0.0,-1.0,0.0,0.0,0.0,0.0,0.0,0.0,0.0,0.0,-0.0026,0.0,0.0018,0.0,0.0,0.0,0.0,0.0,0.0,0.0,0.0,0.0,0.01,0.25,-9.91,0.0,0.0,0.0,0.0,0.0,0.0,0.0,0.0,0.0
1509044729653933675,277729,1509044729653415847,base_footprint,0.0,0.0,0.0,0.0,-1.0,0.0,0.0,0.0,0.0,0.0,0.0,0.0,0.0,-0.0024,0.0,0.0008,0.0,0.0,0.0,0.0,0.0,0.0,0.0,0.0,0.0,0.01,0.27,-9.91,0.0,0.0,0.0,0.0,0.0,0.0,0.0,0.0,0.0
1509044729664721901,277730,1509044729663431828,base_footprint,0.0,0.0,0.0,0.0,-1.0,0.0,0.0,0.0,0.0,0.0,0.0,0.0,0.0,-0.0028,0.0,-0.0002,0.0,0.0,0.0,0.0,0.0,0.0,0.0,0.0,0.0,0.01,0.29,-9.81,0.0,0.0,0.0,0.0,0.0,0.0,0.0,0.0,0.0
1509044729673552100,277731,1509044729673436908,base_footprint,0.0,0.0,0.0,0.0,-1.0,0.0,0.0,0.0,0.0,0.0,0.0,0.0,0.0,-0.0036,0.0,-0.0006,0.0,0.0,0.0,0.0,0.0,0.0,0.0,0.0,0.0,0.02,0.3,-9.91,0.0,0.0,0.0,0.0,0.0,0.0,0.0,0.0,0.0
1509044729684527540,277732,1509044729684409587,base_footprint,0.0,0.0,0.0,0.0,-1.0,0.0,0.0,0.0,0.0,0.0,0.0,0.0,0.0,-0.004,0.0,0.0,0.0,0.0,0.0,0.0,0.0,0.0,0.0,0.0,0.0,0.03,0.29,-9.81,0.0,0.0,0.0,0.0,0.0,0.0,0.0,0.0,0.0
1509044729693561476,277733,1509044729693421203,base_footprint,0.0,0.0,0.0,0.0,-1.0,0.0,0.0,0.0,0.0,0.0,0.0,0.0,0.0,-0.0038,0.0,0.0006,0.0,0.0,0.0,0.0,0.0,0.0,0.0,0.0,0.0,0.03,0.27,-9.81,0.0,0.0,0.0,0.0,0.0,0.0,0.0,0.0,0.0
1509044729703663498,277734,1509044729703426639,base_footprint,0.0,0.0,0.0,0.0,-1.0,0.0,0.0,0.0,0.0,0.0,0.0,0.0,0.0,-0.0032,0.0,0.0014,0.0,0.0,0.0,0.0,0.0,0.0,0.0,0.0,0.0,0.02,0.27,-10.1,0.0,0.0,0.0,0.0,0.0,0.0,0.0,0.0,0.0
1509044729713553097,277735,1509044729713442483,base_footprint,0.0,0.0,0.0,0.0,-1.0,0.0,0.0,0.0,0.0,0.0,0.0,0.0,0.0,-0.0026,0.0,0.001,0.0,0.0,0.0,0.0,0.0,0.0,0.0,0.0,0.0,0.0,0.27,-9.71,0.0,0.0,0.0,0.0,0.0,0.0,0.0,0.0,0.0
1509044729723536055,277736,1509044729723422215,base_footprint,0.0,0.0,0.0,0.0,-1.0,0.0,0.0,0.0,0.0,0.0,0.0,0.0,0.0,-0.0026,0.0,0.0002,0.0,0.0,0.0,0.0,0.0,0.0,0.0,0.0,0.0,-0.01,0.27,-9.71,0.0,0.0,0.0,0.0,0.0,0.0,0.0,0.0,0.0
1509044729733705390,277737,1509044729733418236,base_footprint,0.0,0.0,0.0,0.0,-1.0,0.0,0.0,0.0,0.0,0.0,0.0,0.0,0.0,-0.0032,0.0,0.0,0.0,0.0,0.0,0.0,0.0,0.0,0.0,0.0,0.0,-0.01,0.28,-10.1,0.0,0.0,0.0,0.0,0.0,0.0,0.0,0.0,0.0
1509044729743758388,277738,1509044729743430620,base_footprint,0.0,0.0,0.0,0.0,-1.0,0.0,0.0,0.0,0.0,0.0,0.0,0.0,0.0,-0.0038,0.0,0.0,0.0,0.0,0.0,0.0,0.0,0.0,0.0,0.0,0.0,-0.01,0.28,-10.01,0.0,0.0,0.0,0.0,0.0,0.0,0.0,0.0,0.0
1509044729754224419,277739,1509044729753422427,base_footprint,0.0,0.0,0.0,0.0,-1.0,0.0,0.0,0.0,0.0,0.0,0.0,0.0,0.0,-0.0042,0.0,0.0004,0.0,0.0,0.0,0.0,0.0,0.0,0.0,0.0,0.0,-0.01,0.28,-9.81,0.0,0.0,0.0,0.0,0.0,0.0,0.0,0.0,0.0
1509044729763871505,277740,1509044729763760591,base_footprint,0.0,0.0,0.0,0.0,-1.0,0.0,0.0,0.0,0.0,0.0,0.0,0.0,0.0,-0.0042,0.0,0.0008,0.0,0.0,0.0,0.0,0.0,0.0,0.0,0.0,0.0,0.0,0.27,-10.01,0.0,0.0,0.0,0.0,0.0,0.0,0.0,0.0,0.0
1509044729773661733,277741,1509044729773424259,base_footprint,0.0,0.0,0.0,0.0,-1.0,0.0,0.0,0.0,0.0,0.0,0.0,0.0,0.0,-0.0036,0.0,0.0006,0.0,0.0,0.0,0.0,0.0,0.0,0.0,0.0,0.0,0.01,0.26,-9.81,0.0,0.0,0.0,0.0,0.0,0.0,0.0,0.0,0.0
1509044729784553229,277742,1509044729784424972,base_footprint,0.0,0.0,0.0,0.0,-1.0,0.0,0.0,0.0,0.0,0.0,0.0,0.0,0.0,-0.0026,0.0,0.0002,0.0,0.0,0.0,0.0,0.0,0.0,0.0,0.0,0.0,0.01,0.26,-9.81,0.0,0.0,0.0,0.0,0.0,0.0,0.0,0.0,0.0
1509044729794019308,277743,1509044729793845055,base_footprint,0.0,0.0,0.0,0.0,-1.0,0.0,0.0,0.0,0.0,0.0,0.0,0.0,0.0,-0.002,0.0,0.0002,0.0,0.0,0.0,0.0,0.0,0.0,0.0,0.0,0.0,0.0,0.27,-10.01,0.0,0.0,0.0,0.0,0.0,0.0,0.0,0.0,0.0
1509044729804115456,277744,1509044729803768107,base_footprint,0.0,0.0,0.0,0.0,-1.0,0.0,0.0,0.0,0.0,0.0,0.0,0.0,0.0,-0.0018,0.0,0.0006,0.0,0.0,0.0,0.0,0.0,0.0,0.0,0.0,0.0,0.01,0.28,-10.1,0.0,0.0,0.0,0.0,0.0,0.0,0.0,0.0,0.0
1509044729813896062,277745,1509044729813771303,base_footprint,0.0,0.0,0.0,0.0,-1.0,0.0,0.0,0.0,0.0,0.0,0.0,0.0,0.0,-0.0014,0.0,0.001,0.0,0.0,0.0,0.0,0.0,0.0,0.0,0.0,0.0,0.01,0.29,-10.01,0.0,0.0,0.0,0.0,0.0,0.0,0.0,0.0,0.0
1509044729824458366,277746,1509044729823770369,base_footprint,0.0,0.0,0.0,0.0,-1.0,0.0,0.0,0.0,0.0,0.0,0.0,0.0,0.0,-0.002,0.0,0.0008,0.0,0.0,0.0,0.0,0.0,0.0,0.0,0.0,0.0,0.02,0.29,-9.91,0.0,0.0,0.0,0.0,0.0,0.0,0.0,0.0,0.0
1509044729834706925,277747,1509044729834359784,base_footprint,0.0,0.0,0.0,0.0,-1.0,0.0,0.0,0.0,0.0,0.0,0.0,0.0,0.0,-0.0032,0.0,0.0004,0.0,0.0,0.0,0.0,0.0,0.0,0.0,0.0,0.0,0.02,0.28,-9.81,0.0,0.0,0.0,0.0,0.0,0.0,0.0,0.0,0.0
1509044729844048558,277748,1509044729843853909,base_footprint,0.0,0.0,0.0,0.0,-1.0,0.0,0.0,0.0,0.0,0.0,0.0,0.0,0.0,-0.0034,0.0,0.0006,0.0,0.0,0.0,0.0,0.0,0.0,0.0,0.0,0.0,0.0,0.26,-9.71,0.0,0.0,0.0,0.0,0.0,0.0,0.0,0.0,0.0
1509044729855208368,277749,1509044729853792519,base_footprint,0.0,0.0,0.0,0.0,-1.0,0.0,0.0,0.0,0.0,0.0,0.0,0.0,0.0,-0.003,0.0,0.0012,0.0,0.0,0.0,0.0,0.0,0.0,0.0,0.0,0.0,-0.01,0.25,-9.91,0.0,0.0,0.0,0.0,0.0,0.0,0.0,0.0,0.0
1509044729863890507,277750,1509044729863776314,base_footprint,0.0,0.0,0.0,0.0,-1.0,0.0,0.0,0.0,0.0,0.0,0.0,0.0,0.0,-0.003,0.0,0.0018,0.0,0.0,0.0,0.0,0.0,0.0,0.0,0.0,0.0,-0.01,0.25,-10.01,0.0,0.0,0.0,0.0,0.0,0.0,0.0,0.0,0.0
1509044729874143395,277751,1509044729873862558,base_footprint,0.0,0.0,0.0,0.0,-1.0,0.0,0.0,0.0,0.0,0.0,0.0,0.0,0.0,-0.0036,0.0,0.0014,0.0,0.0,0.0,0.0,0.0,0.0,0.0,0.0,0.0,0.0,0.26,-9.81,0.0,0.0,0.0,0.0,0.0,0.0,0.0,0.0,0.0
1509044729884682676,277752,1509044729884443942,base_footprint,0.0,0.0,0.0,0.0,-1.0,0.0,0.0,0.0,0.0,0.0,0.0,0.0,0.0,-0.0044,0.0,0.0004,0.0,0.0,0.0,0.0,0.0,0.0,0.0,0.0,0.0,0.01,0.26,-10.01,0.0,0.0,0.0,0.0,0.0,0.0,0.0,0.0,0.0
1509044729894078990,277753,1509044729893784969,base_footprint,0.0,0.0,0.0,0.0,-1.0,0.0,0.0,0.0,0.0,0.0,0.0,0.0,0.0,-0.0046,0.0,0.0,0.0,0.0,0.0,0.0,0.0,0.0,0.0,0.0,0.0,0.02,0.24,-9.81,0.0,0.0,0.0,0.0,0.0,0.0,0.0,0.0,0.0
1509044729905319513,277754,1509044729904454211,base_footprint,0.0,0.0,0.0,0.0,-1.0,0.0,0.0,0.0,0.0,0.0,0.0,0.0,0.0,-0.0036,0.0,0.0002,0.0,0.0,0.0,0.0,0.0,0.0,0.0,0.0,0.0,0.03,0.24,-9.91,0.0,0.0,0.0,0.0,0.0,0.0,0.0,0.0,0.0
1509044729914264023,277755,1509044729913884818,base_footprint,0.0,0.0,0.0,0.0,-1.0,0.0,0.0,0.0,0.0,0.0,0.0,0.0,0.0,-0.0022,0.0,0.0014,0.0,0.0,0.0,0.0,0.0,0.0,0.0,0.0,0.0,0.02,0.25,-9.81,0.0,0.0,0.0,0.0,0.0,0.0,0.0,0.0,0.0
1509044729924183958,277756,1509044729923942207,base_footprint,0.0,0.0,0.0,0.0,-1.0,0.0,0.0,0.0,0.0,0.0,0.0,0.0,0.0,-0.0022,0.0,0.0026,0.0,0.0,0.0,0.0,0.0,0.0,0.0,0.0,0.0,0.02,0.26,-9.91,0.0,0.0,0.0,0.0,0.0,0.0,0.0,0.0,0.0
1509044729936439393,277757,1509044729935817828,base_footprint,0.0,0.0,0.0,0.0,-1.0,0.0,0.0,0.0,0.0,0.0,0.0,0.0,0.0,-0.0036,0.0,0.0028,0.0,0.0,0.0,0.0,0.0,0.0,0.0,0.0,0.0,0.0,0.26,-9.91,0.0,0.0,0.0,0.0,0.0,0.0,0.0,0.0,0.0
1509044729944789831,277758,1509044729944371392,base_footprint,0.0,0.0,0.0,0.0,-1.0,0.0,0.0,0.0,0.0,0.0,0.0,0.0,0.0,-0.0048,0.0,0.002,0.0,0.0,0.0,0.0,0.0,0.0,0.0,0.0,0.0,-0.02,0.26,-10.01,0.0,0.0,0.0,0.0,0.0,0.0,0.0,0.0,0.0
1509044729954287285,277759,1509044729953891413,base_footprint,0.0,0.0,0.0,0.0,-1.0,0.0,0.0,0.0,0.0,0.0,0.0,0.0,0.0,-0.005,0.0,0.001,0.0,0.0,0.0,0.0,0.0,0.0,0.0,0.0,0.0,-0.03,0.26,-9.71,0.0,0.0,0.0,0.0,0.0,0.0,0.0,0.0,0.0
1509044729964611057,277760,1509044729964372646,base_footprint,0.0,0.0,0.0,0.0,-1.0,0.0,0.0,0.0,0.0,0.0,0.0,0.0,0.0,-0.004,0.0,0.0008,0.0,0.0,0.0,0.0,0.0,0.0,0.0,0.0,0.0,-0.04,0.26,-9.81,0.0,0.0,0.0,0.0,0.0,0.0,0.0,0.0,0.0
1509044729975035860,277761,1509044729974479061,base_footprint,0.0,0.0,0.0,0.0,-1.0,0.0,0.0,0.0,0.0,0.0,0.0,0.0,0.0,-0.0028,0.0,0.001,0.0,0.0,0.0,0.0,0.0,0.0,0.0,0.0,0.0,-0.02,0.26,-9.91,0.0,0.0,0.0,0.0,0.0,0.0,0.0,0.0,0.0
1509044729985182764,277762,1509044729985063155,base_footprint,0.0,0.0,0.0,0.0,-1.0,0.0,0.0,0.0,0.0,0.0,0.0,0.0,0.0,-0.0028,0.0,0.0012,0.0,0.0,0.0,0.0,0.0,0.0,0.0,0.0,0.0,0.0,0.25,-10.01,0.0,0.0,0.0,0.0,0.0,0.0,0.0,0.0,0.0
1509044729994530520,277763,1509044729994209762,base_footprint,0.0,0.0,0.0,0.0,-1.0,0.0,0.0,0.0,0.0,0.0,0.0,0.0,0.0,-0.0036,0.0,0.0016,0.0,0.0,0.0,0.0,0.0,0.0,0.0,0.0,0.0,0.0,0.26,-9.81,0.0,0.0,0.0,0.0,0.0,0.0,0.0,0.0,0.0
1509044730006578542,277764,1509044730004455958,base_footprint,0.0,0.0,0.0,0.0,-1.0,0.0,0.0,0.0,0.0,0.0,0.0,0.0,0.0,-0.004,0.0,0.0018,0.0,0.0,0.0,0.0,0.0,0.0,0.0,0.0,0.0,0.01,0.27,-9.81,0.0,0.0,0.0,0.0,0.0,0.0,0.0,0.0,0.0
1509044730014274464,277765,1509044730013956841,base_footprint,0.0,0.0,0.0,0.0,-1.0,0.0,0.0,0.0,0.0,0.0,0.0,0.0,0.0,-0.0036,0.0,0.0018,0.0,0.0,0.0,0.0,0.0,0.0,0.0,0.0,0.0,0.02,0.27,-9.91,0.0,0.0,0.0,0.0,0.0,0.0,0.0,0.0,0.0
1509044730024830795,277766,1509044730024650519,base_footprint,0.0,0.0,0.0,0.0,-1.0,0.0,0.0,0.0,0.0,0.0,0.0,0.0,0.0,-0.0036,0.0,0.0014,0.0,0.0,0.0,0.0,0.0,0.0,0.0,0.0,0.0,0.02,0.27,-9.81,0.0,0.0,0.0,0.0,0.0,0.0,0.0,0.0,0.0
1509044730035579416,277767,1509044730035019090,base_footprint,0.0,0.0,0.0,0.0,-1.0,0.0,0.0,0.0,0.0,0.0,0.0,0.0,0.0,-0.0036,0.0,0.0008,0.0,0.0,0.0,0.0,0.0,0.0,0.0,0.0,0.0,0.01,0.26,-9.71,0.0,0.0,0.0,0.0,0.0,0.0,0.0,0.0,0.0
1509044730046080104,277768,1509044730044783416,base_footprint,0.0,0.0,0.0,0.0,-1.0,0.0,0.0,0.0,0.0,0.0,0.0,0.0,0.0,-0.004,0.0,0.0006,0.0,0.0,0.0,0.0,0.0,0.0,0.0,0.0,0.0,0.0,0.24,-9.91,0.0,0.0,0.0,0.0,0.0,0.0,0.0,0.0,0.0
1509044730054600838,277769,1509044730054460048,base_footprint,0.0,0.0,0.0,0.0,-1.0,0.0,0.0,0.0,0.0,0.0,0.0,0.0,0.0,-0.0044,0.0,0.0006,0.0,0.0,0.0,0.0,0.0,0.0,0.0,0.0,0.0,0.0,0.24,-10.1,0.0,0.0,0.0,0.0,0.0,0.0,0.0,0.0,0.0
1509044730067532684,277770,1509044730064382321,base_footprint,0.0,0.0,0.0,0.0,-1.0,0.0,0.0,0.0,0.0,0.0,0.0,0.0,0.0,-0.0044,0.0,0.0004,0.0,0.0,0.0,0.0,0.0,0.0,0.0,0.0,0.0,0.01,0.26,-9.81,0.0,0.0,0.0,0.0,0.0,0.0,0.0,0.0,0.0
1509044730078747133,277771,1509044730074463062,base_footprint,0.0,0.0,0.0,0.0,-1.0,0.0,0.0,0.0,0.0,0.0,0.0,0.0,0.0,-0.0042,0.0,0.0008,0.0,0.0,0.0,0.0,0.0,0.0,0.0,0.0,0.0,0.02,0.28,-9.71,0.0,0.0,0.0,0.0,0.0,0.0,0.0,0.0,0.0
1509044730085050712,277772,1509044730084884237,base_footprint,0.0,0.0,0.0,0.0,-1.0,0.0,0.0,0.0,0.0,0.0,0.0,0.0,0.0,-0.004,0.0,0.0018,0.0,0.0,0.0,0.0,0.0,0.0,0.0,0.0,0.0,0.01,0.3,-9.91,0.0,0.0,0.0,0.0,0.0,0.0,0.0,0.0,0.0
1509044730094643982,277773,1509044730094478474,base_footprint,0.0,0.0,0.0,0.0,-1.0,0.0,0.0,0.0,0.0,0.0,0.0,0.0,0.0,-0.0036,0.0,0.0018,0.0,0.0,0.0,0.0,0.0,0.0,0.0,0.0,0.0,0.0,0.31,-10.01,0.0,0.0,0.0,0.0,0.0,0.0,0.0,0.0,0.0
1509044730104723901,277774,1509044730104618497,base_footprint,0.0,0.0,0.0,0.0,-1.0,0.0,0.0,0.0,0.0,0.0,0.0,0.0,0.0,-0.003,0.0,0.0016,0.0,0.0,0.0,0.0,0.0,0.0,0.0,0.0,0.0,0.0,0.3,-9.81,0.0,0.0,0.0,0.0,0.0,0.0,0.0,0.0,0.0
1509044730115830326,277775,1509044730114812887,base_footprint,0.0,0.0,0.0,0.0,-1.0,0.0,0.0,0.0,0.0,0.0,0.0,0.0,0.0,-0.0026,0.0,0.002,0.0,0.0,0.0,0.0,0.0,0.0,0.0,0.0,0.0,0.0,0.28,-9.81,0.0,0.0,0.0,0.0,0.0,0.0,0.0,0.0,0.0
1509044730124647209,277776,1509044730124501111,base_footprint,0.0,0.0,0.0,0.0,-1.0,0.0,0.0,0.0,0.0,0.0,0.0,0.0,0.0,-0.0028,0.0,0.0022,0.0,0.0,0.0,0.0,0.0,0.0,0.0,0.0,0.0,0.01,0.26,-10.01,0.0,0.0,0.0,0.0,0.0,0.0,0.0,0.0,0.0
1509044730134628873,277777,1509044730134470091,base_footprint,0.0,0.0,0.0,0.0,-1.0,0.0,0.0,0.0,0.0,0.0,0.0,0.0,0.0,-0.0028,0.0,0.0016,0.0,0.0,0.0,0.0,0.0,0.0,0.0,0.0,0.0,0.01,0.24,-9.91,0.0,0.0,0.0,0.0,0.0,0.0,0.0,0.0,0.0
1509044730145120746,277778,1509044730144927009,base_footprint,0.0,0.0,0.0,0.0,-1.0,0.0,0.0,0.0,0.0,0.0,0.0,0.0,0.0,-0.0028,0.0,0.0006,0.0,0.0,0.0,0.0,0.0,0.0,0.0,0.0,0.0,0.01,0.23,-10.01,0.0,0.0,0.0,0.0,0.0,0.0,0.0,0.0,0.0
1509044730154650472,277779,1509044730154538456,base_footprint,0.0,0.0,0.0,0.0,-1.0,0.0,0.0,0.0,0.0,0.0,0.0,0.0,0.0,-0.0028,0.0,0.0002,0.0,0.0,0.0,0.0,0.0,0.0,0.0,0.0,0.0,0.0,0.24,-9.71,0.0,0.0,0.0,0.0,0.0,0.0,0.0,0.0,0.0
1509044730164870196,277780,1509044730164765604,base_footprint,0.0,0.0,0.0,0.0,-1.0,0.0,0.0,0.0,0.0,0.0,0.0,0.0,0.0,-0.0036,0.0,0.0004,0.0,0.0,0.0,0.0,0.0,0.0,0.0,0.0,0.0,0.0,0.25,-10.01,0.0,0.0,0.0,0.0,0.0,0.0,0.0,0.0,0.0
1509044730174592740,277781,1509044730174502142,base_footprint,0.0,0.0,0.0,0.0,-1.0,0.0,0.0,0.0,0.0,0.0,0.0,0.0,0.0,-0.0044,0.0,0.0008,0.0,0.0,0.0,0.0,0.0,0.0,0.0,0.0,0.0,0.0,0.27,-9.91,0.0,0.0,0.0,0.0,0.0,0.0,0.0,0.0,0.0
1509044730185679471,277782,1509044730185397676,base_footprint,0.0,0.0,0.0,0.0,-1.0,0.0,0.0,0.0,0.0,0.0,0.0,0.0,0.0,-0.0042,0.0,0.001,0.0,0.0,0.0,0.0,0.0,0.0,0.0,0.0,0.0,0.01,0.27,-9.71,0.0,0.0,0.0,0.0,0.0,0.0,0.0,0.0,0.0
1509044730194764997,277783,1509044730194584457,base_footprint,0.0,0.0,0.0,0.0,-1.0,0.0,0.0,0.0,0.0,0.0,0.0,0.0,0.0,-0.0036,0.0,0.001,0.0,0.0,0.0,0.0,0.0,0.0,0.0,0.0,0.0,0.01,0.26,-9.81,0.0,0.0,0.0,0.0,0.0,0.0,0.0,0.0,0.0
1509044730205021766,277784,1509044730204896526,base_footprint,0.0,0.0,0.0,0.0,-1.0,0.0,0.0,0.0,0.0,0.0,0.0,0.0,0.0,-0.0032,0.0,0.0004,0.0,0.0,0.0,0.0,0.0,0.0,0.0,0.0,0.0,0.02,0.26,-9.61,0.0,0.0,0.0,0.0,0.0,0.0,0.0,0.0,0.0
1509044730214645622,277785,1509044730214490448,base_footprint,0.0,0.0,0.0,0.0,-1.0,0.0,0.0,0.0,0.0,0.0,0.0,0.0,0.0,-0.0034,0.0,0.0,0.0,0.0,0.0,0.0,0.0,0.0,0.0,0.0,0.0,0.04,0.26,-9.71,0.0,0.0,0.0,0.0,0.0,0.0,0.0,0.0,0.0
1509044730224679023,277786,1509044730224489237,base_footprint,0.0,0.0,0.0,0.0,-1.0,0.0,0.0,0.0,0.0,0.0,0.0,0.0,0.0,-0.004,0.0,0.0,0.0,0.0,0.0,0.0,0.0,0.0,0.0,0.0,0.0,0.05,0.26,-10.01,0.0,0.0,0.0,0.0,0.0,0.0,0.0,0.0,0.0
1509044730235077056,277787,1509044730234485101,base_footprint,0.0,0.0,0.0,0.0,-1.0,0.0,0.0,0.0,0.0,0.0,0.0,0.0,0.0,-0.0042,0.0,0.0,0.0,0.0,0.0,0.0,0.0,0.0,0.0,0.0,0.0,0.05,0.26,-9.81,0.0,0.0,0.0,0.0,0.0,0.0,0.0,0.0,0.0
1509044730244754991,277788,1509044730244640146,base_footprint,0.0,0.0,0.0,0.0,-1.0,0.0,0.0,0.0,0.0,0.0,0.0,0.0,0.0,-0.0044,0.0,0.0002,0.0,0.0,0.0,0.0,0.0,0.0,0.0,0.0,0.0,0.02,0.25,-9.71,0.0,0.0,0.0,0.0,0.0,0.0,0.0,0.0,0.0
1509044730254787892,277789,1509044730254658341,base_footprint,0.0,0.0,0.0,0.0,-1.0,0.0,0.0,0.0,0.0,0.0,0.0,0.0,0.0,-0.0044,0.0,0.0006,0.0,0.0,0.0,0.0,0.0,0.0,0.0,0.0,0.0,0.0,0.26,-9.81,0.0,0.0,0.0,0.0,0.0,0.0,0.0,0.0,0.0
1509044730265056340,277790,1509044730264908561,base_footprint,0.0,0.0,0.0,0.0,-1.0,0.0,0.0,0.0,0.0,0.0,0.0,0.0,0.0,-0.004,0.0,0.0008,0.0,0.0,0.0,0.0,0.0,0.0,0.0,0.0,0.0,-0.01,0.26,-9.91,0.0,0.0,0.0,0.0,0.0,0.0,0.0,0.0,0.0
1509044730274938771,277791,1509044730274832960,base_footprint,0.0,0.0,0.0,0.0,-1.0,0.0,0.0,0.0,0.0,0.0,0.0,0.0,0.0,-0.0032,0.0,0.0008,0.0,0.0,0.0,0.0,0.0,0.0,0.0,0.0,0.0,-0.02,0.26,-9.71,0.0,0.0,0.0,0.0,0.0,0.0,0.0,0.0,0.0
1509044730285980975,277792,1509044730285830577,base_footprint,0.0,0.0,0.0,0.0,-1.0,0.0,0.0,0.0,0.0,0.0,0.0,0.0,0.0,-0.0022,0.0,0.0008,0.0,0.0,0.0,0.0,0.0,0.0,0.0,0.0,0.0,-0.01,0.26,-9.81,0.0,0.0,0.0,0.0,0.0,0.0,0.0,0.0,0.0
1509044730294949199,277793,1509044730294832486,base_footprint,0.0,0.0,0.0,0.0,-1.0,0.0,0.0,0.0,0.0,0.0,0.0,0.0,0.0,-0.0016,0.0,0.0008,0.0,0.0,0.0,0.0,0.0,0.0,0.0,0.0,0.0,0.0,0.26,-9.71,0.0,0.0,0.0,0.0,0.0,0.0,0.0,0.0,0.0
1509044730305089368,277794,1509044730304915531,base_footprint,0.0,0.0,0.0,0.0,-1.0,0.0,0.0,0.0,0.0,0.0,0.0,0.0,0.0,-0.0024,0.0,0.0008,0.0,0.0,0.0,0.0,0.0,0.0,0.0,0.0,0.0,0.0,0.27,-9.81,0.0,0.0,0.0,0.0,0.0,0.0,0.0,0.0,0.0
1509044730315018975,277795,1509044730314835917,base_footprint,0.0,0.0,0.0,0.0,-1.0,0.0,0.0,0.0,0.0,0.0,0.0,0.0,0.0,-0.0036,0.0,0.0008,0.0,0.0,0.0,0.0,0.0,0.0,0.0,0.0,0.0,0.02,0.28,-9.81,0.0,0.0,0.0,0.0,0.0,0.0,0.0,0.0,0.0
1509044730325004967,277796,1509044730324833555,base_footprint,0.0,0.0,0.0,0.0,-1.0,0.0,0.0,0.0,0.0,0.0,0.0,0.0,0.0,-0.0042,0.0,0.0006,0.0,0.0,0.0,0.0,0.0,0.0,0.0,0.0,0.0,0.02,0.27,-10.01,0.0,0.0,0.0,0.0,0.0,0.0,0.0,0.0,0.0
1509044730335228432,277797,1509044730334919699,base_footprint,0.0,0.0,0.0,0.0,-1.0,0.0,0.0,0.0,0.0,0.0,0.0,0.0,0.0,-0.0038,0.0,0.0002,0.0,0.0,0.0,0.0,0.0,0.0,0.0,0.0,0.0,0.02,0.27,-10.01,0.0,0.0,0.0,0.0,0.0,0.0,0.0,0.0,0.0
1509044730345048307,277798,1509044730344921716,base_footprint,0.0,0.0,0.0,0.0,-1.0,0.0,0.0,0.0,0.0,0.0,0.0,0.0,0.0,-0.0036,0.0,0.0,0.0,0.0,0.0,0.0,0.0,0.0,0.0,0.0,0.0,0.0,0.27,-9.81,0.0,0.0,0.0,0.0,0.0,0.0,0.0,0.0,0.0
1509044730355032554,277799,1509044730354919172,base_footprint,0.0,0.0,0.0,0.0,-1.0,0.0,0.0,0.0,0.0,0.0,0.0,0.0,0.0,-0.0032,0.0,0.0,0.0,0.0,0.0,0.0,0.0,0.0,0.0,0.0,0.0,0.0,0.27,-9.91,0.0,0.0,0.0,0.0,0.0,0.0,0.0,0.0,0.0
1509044730365046637,277800,1509044730364930984,base_footprint,0.0,0.0,0.0,0.0,-1.0,0.0,0.0,0.0,0.0,0.0,0.0,0.0,0.0,-0.0028,0.0,0.0004,0.0,0.0,0.0,0.0,0.0,0.0,0.0,0.0,0.0,0.0,0.27,-9.71,0.0,0.0,0.0,0.0,0.0,0.0,0.0,0.0,0.0
1509044730375653741,277801,1509044730375436017,base_footprint,0.0,0.0,0.0,0.0,-1.0,0.0,0.0,0.0,0.0,0.0,0.0,0.0,0.0,-0.0022,0.0,0.0004,0.0,0.0,0.0,0.0,0.0,0.0,0.0,0.0,0.0,0.0,0.28,-9.91,0.0,0.0,0.0,0.0,0.0,0.0,0.0,0.0,0.0
1509044730386095745,277802,1509044730385927526,base_footprint,0.0,0.0,0.0,0.0,-1.0,0.0,0.0,0.0,0.0,0.0,0.0,0.0,0.0,-0.0022,0.0,0.0004,0.0,0.0,0.0,0.0,0.0,0.0,0.0,0.0,0.0,0.0,0.28,-9.61,0.0,0.0,0.0,0.0,0.0,0.0,0.0,0.0,0.0
1509044730395133136,277803,1509044730395007702,base_footprint,0.0,0.0,0.0,0.0,-1.0,0.0,0.0,0.0,0.0,0.0,0.0,0.0,0.0,-0.0026,0.0,0.0004,0.0,0.0,0.0,0.0,0.0,0.0,0.0,0.0,0.0,0.0,0.27,-9.81,0.0,0.0,0.0,0.0,0.0,0.0,0.0,0.0,0.0
1509044730405585660,277804,1509044730405424691,base_footprint,0.0,0.0,0.0,0.0,-1.0,0.0,0.0,0.0,0.0,0.0,0.0,0.0,0.0,-0.0026,0.0,0.0008,0.0,0.0,0.0,0.0,0.0,0.0,0.0,0.0,0.0,0.0,0.27,-9.91,0.0,0.0,0.0,0.0,0.0,0.0,0.0,0.0,0.0
1509044730415005826,277805,1509044730414928979,base_footprint,0.0,0.0,0.0,0.0,-1.0,0.0,0.0,0.0,0.0,0.0,0.0,0.0,0.0,-0.0026,0.0,0.0016,0.0,0.0,0.0,0.0,0.0,0.0,0.0,0.0,0.0,0.0,0.26,-9.91,0.0,0.0,0.0,0.0,0.0,0.0,0.0,0.0,0.0
1509044730425026934,277806,1509044730424928814,base_footprint,0.0,0.0,0.0,0.0,-1.0,0.0,0.0,0.0,0.0,0.0,0.0,0.0,0.0,-0.0028,0.0,0.0022,0.0,0.0,0.0,0.0,0.0,0.0,0.0,0.0,0.0,-0.01,0.26,-10.1,0.0,0.0,0.0,0.0,0.0,0.0,0.0,0.0,0.0
1509044730435066365,277807,1509044730434961770,base_footprint,0.0,0.0,0.0,0.0,-1.0,0.0,0.0,0.0,0.0,0.0,0.0,0.0,0.0,-0.0032,0.0,0.0018,0.0,0.0,0.0,0.0,0.0,0.0,0.0,0.0,0.0,-0.01,0.28,-10.01,0.0,0.0,0.0,0.0,0.0,0.0,0.0,0.0,0.0
1509044730446016681,277808,1509044730445855003,base_footprint,0.0,0.0,0.0,0.0,-1.0,0.0,0.0,0.0,0.0,0.0,0.0,0.0,0.0,-0.0038,0.0,0.001,0.0,0.0,0.0,0.0,0.0,0.0,0.0,0.0,0.0,0.0,0.29,-10.01,0.0,0.0,0.0,0.0,0.0,0.0,0.0,0.0,0.0
1509044730455582119,277809,1509044730455437717,base_footprint,0.0,0.0,0.0,0.0,-1.0,0.0,0.0,0.0,0.0,0.0,0.0,0.0,0.0,-0.0042,0.0,0.0002,0.0,0.0,0.0,0.0,0.0,0.0,0.0,0.0,0.0,-0.01,0.28,-9.81,0.0,0.0,0.0,0.0,0.0,0.0,0.0,0.0,0.0
1509044730465576940,277810,1509044730465439353,base_footprint,0.0,0.0,0.0,0.0,-1.0,0.0,0.0,0.0,0.0,0.0,0.0,0.0,0.0,-0.0042,0.0,0.0,0.0,0.0,0.0,0.0,0.0,0.0,0.0,0.0,0.0,0.0,0.27,-9.81,0.0,0.0,0.0,0.0,0.0,0.0,0.0,0.0,0.0
1509044730475959508,277811,1509044730475804202,base_footprint,0.0,0.0,0.0,0.0,-1.0,0.0,0.0,0.0,0.0,0.0,0.0,0.0,0.0,-0.004,0.0,0.0002,0.0,0.0,0.0,0.0,0.0,0.0,0.0,0.0,0.0,0.0,0.26,-9.81,0.0,0.0,0.0,0.0,0.0,0.0,0.0,0.0,0.0
1509044730486595409,277812,1509044730486442674,base_footprint,0.0,0.0,0.0,0.0,-1.0,0.0,0.0,0.0,0.0,0.0,0.0,0.0,0.0,-0.0036,0.0,0.0012,0.0,0.0,0.0,0.0,0.0,0.0,0.0,0.0,0.0,0.0,0.26,-10.01,0.0,0.0,0.0,0.0,0.0,0.0,0.0,0.0,0.0
1509044730495539978,277813,1509044730495437829,base_footprint,0.0,0.0,0.0,0.0,-1.0,0.0,0.0,0.0,0.0,0.0,0.0,0.0,0.0,-0.0028,0.0,0.0018,0.0,0.0,0.0,0.0,0.0,0.0,0.0,0.0,0.0,0.0,0.26,-9.81,0.0,0.0,0.0,0.0,0.0,0.0,0.0,0.0,0.0
1509044730505522611,277814,1509044730505439888,base_footprint,0.0,0.0,0.0,0.0,-1.0,0.0,0.0,0.0,0.0,0.0,0.0,0.0,0.0,-0.0024,0.0,0.0018,0.0,0.0,0.0,0.0,0.0,0.0,0.0,0.0,0.0,0.0,0.26,-10.1,0.0,0.0,0.0,0.0,0.0,0.0,0.0,0.0,0.0
1509044730515638931,277815,1509044730515456377,base_footprint,0.0,0.0,0.0,0.0,-1.0,0.0,0.0,0.0,0.0,0.0,0.0,0.0,0.0,-0.0022,0.0,0.0012,0.0,0.0,0.0,0.0,0.0,0.0,0.0,0.0,0.0,0.0,0.26,-10.01,0.0,0.0,0.0,0.0,0.0,0.0,0.0,0.0,0.0
1509044730525638956,277816,1509044730525554650,base_footprint,0.0,0.0,0.0,0.0,-1.0,0.0,0.0,0.0,0.0,0.0,0.0,0.0,0.0,-0.0022,0.0,0.0004,0.0,0.0,0.0,0.0,0.0,0.0,0.0,0.0,0.0,0.0,0.27,-9.81,0.0,0.0,0.0,0.0,0.0,0.0,0.0,0.0,0.0
1509044730535599128,277817,1509044730535466499,base_footprint,0.0,0.0,0.0,0.0,-1.0,0.0,0.0,0.0,0.0,0.0,0.0,0.0,0.0,-0.0018,0.0,0.0004,0.0,0.0,0.0,0.0,0.0,0.0,0.0,0.0,0.0,0.0,0.28,-10.01,0.0,0.0,0.0,0.0,0.0,0.0,0.0,0.0,0.0
1509044730545537329,277818,1509044730545441781,base_footprint,0.0,0.0,0.0,0.0,-1.0,0.0,0.0,0.0,0.0,0.0,0.0,0.0,0.0,-0.0014,0.0,0.0006,0.0,0.0,0.0,0.0,0.0,0.0,0.0,0.0,0.0,0.0,0.28,-9.71,0.0,0.0,0.0,0.0,0.0,0.0,0.0,0.0,0.0
1509044730555594929,277819,1509044730555523085,base_footprint,0.0,0.0,0.0,0.0,-1.0,0.0,0.0,0.0,0.0,0.0,0.0,0.0,0.0,-0.0018,0.0,0.001,0.0,0.0,0.0,0.0,0.0,0.0,0.0,0.0,0.0,0.0,0.25,-9.71,0.0,0.0,0.0,0.0,0.0,0.0,0.0,0.0,0.0
1509044730565605249,277820,1509044730565527544,base_footprint,0.0,0.0,0.0,0.0,-1.0,0.0,0.0,0.0,0.0,0.0,0.0,0.0,0.0,-0.0024,0.0,0.001,0.0,0.0,0.0,0.0,0.0,0.0,0.0,0.0,0.0,0.0,0.23,-9.81,0.0,0.0,0.0,0.0,0.0,0.0,0.0,0.0,0.0
1509044730575652049,277821,1509044730575530800,base_footprint,0.0,0.0,0.0,0.0,-1.0,0.0,0.0,0.0,0.0,0.0,0.0,0.0,0.0,-0.004,0.0,0.0004,0.0,0.0,0.0,0.0,0.0,0.0,0.0,0.0,0.0,0.0,0.21,-10.01,0.0,0.0,0.0,0.0,0.0,0.0,0.0,0.0,0.0
1509044730586679843,277822,1509044730586560641,base_footprint,0.0,0.0,0.0,0.0,-1.0,0.0,0.0,0.0,0.0,0.0,0.0,0.0,0.0,-0.0048,0.0,0.0,0.0,0.0,0.0,0.0,0.0,0.0,0.0,0.0,0.0,0.0,0.21,-9.81,0.0,0.0,0.0,0.0,0.0,0.0,0.0,0.0,0.0
1509044730595637959,277823,1509044730595535165,base_footprint,0.0,0.0,0.0,0.0,-1.0,0.0,0.0,0.0,0.0,0.0,0.0,0.0,0.0,-0.004,0.0,0.0002,0.0,0.0,0.0,0.0,0.0,0.0,0.0,0.0,0.0,0.0,0.22,-9.81,0.0,0.0,0.0,0.0,0.0,0.0,0.0,0.0,0.0
1509044730605665452,277824,1509044730605546818,base_footprint,0.0,0.0,0.0,0.0,-1.0,0.0,0.0,0.0,0.0,0.0,0.0,0.0,0.0,-0.003,0.0,0.001,0.0,0.0,0.0,0.0,0.0,0.0,0.0,0.0,0.0,0.0,0.25,-9.81,0.0,0.0,0.0,0.0,0.0,0.0,0.0,0.0,0.0
1509044730615808925,277825,1509044730615632563,base_footprint,0.0,0.0,0.0,0.0,-1.0,0.0,0.0,0.0,0.0,0.0,0.0,0.0,0.0,-0.0028,0.0,0.001,0.0,0.0,0.0,0.0,0.0,0.0,0.0,0.0,0.0,0.0,0.26,-9.91,0.0,0.0,0.0,0.0,0.0,0.0,0.0,0.0,0.0
1509044730625796146,277826,1509044730625628731,base_footprint,0.0,0.0,0.0,0.0,-1.0,0.0,0.0,0.0,0.0,0.0,0.0,0.0,0.0,-0.0036,0.0,0.0004,0.0,0.0,0.0,0.0,0.0,0.0,0.0,0.0,0.0,0.0,0.26,-9.91,0.0,0.0,0.0,0.0,0.0,0.0,0.0,0.0,0.0
1509044730635670881,277827,1509044730635554636,base_footprint,0.0,0.0,0.0,0.0,-1.0,0.0,0.0,0.0,0.0,0.0,0.0,0.0,0.0,-0.0044,0.0,0.0,0.0,0.0,0.0,0.0,0.0,0.0,0.0,0.0,0.0,0.0,0.27,-9.81,0.0,0.0,0.0,0.0,0.0,0.0,0.0,0.0,0.0
1509044730645867378,277828,1509044730645760447,base_footprint,0.0,0.0,0.0,0.0,-1.0,0.0,0.0,0.0,0.0,0.0,0.0,0.0,0.0,-0.0044,0.0,-0.0002,0.0,0.0,0.0,0.0,0.0,0.0,0.0,0.0,0.0,0.0,0.27,-9.91,0.0,0.0,0.0,0.0,0.0,0.0,0.0,0.0,0.0
1509044730655683806,277829,1509044730655556929,base_footprint,0.0,0.0,0.0,0.0,-1.0,0.0,0.0,0.0,0.0,0.0,0.0,0.0,0.0,-0.004,0.0,-0.0002,0.0,0.0,0.0,0.0,0.0,0.0,0.0,0.0,0.0,0.0,0.26,-9.81,0.0,0.0,0.0,0.0,0.0,0.0,0.0,0.0,0.0
1509044730666022549,277830,1509044730665724956,base_footprint,0.0,0.0,0.0,0.0,-1.0,0.0,0.0,0.0,0.0,0.0,0.0,0.0,0.0,-0.0044,0.0,0.0,0.0,0.0,0.0,0.0,0.0,0.0,0.0,0.0,0.0,0.0,0.25,-9.81,0.0,0.0,0.0,0.0,0.0,0.0,0.0,0.0,0.0
1509044730675710588,277831,1509044730675546064,base_footprint,0.0,0.0,0.0,0.0,-1.0,0.0,0.0,0.0,0.0,0.0,0.0,0.0,0.0,-0.0052,0.0,0.0002,0.0,0.0,0.0,0.0,0.0,0.0,0.0,0.0,0.0,0.0,0.24,-9.81,0.0,0.0,0.0,0.0,0.0,0.0,0.0,0.0,0.0
1509044730686703160,277832,1509044730686547560,base_footprint,0.0,0.0,0.0,0.0,-1.0,0.0,0.0,0.0,0.0,0.0,0.0,0.0,0.0,-0.005,0.0,0.0002,0.0,0.0,0.0,0.0,0.0,0.0,0.0,0.0,0.0,0.0,0.24,-9.91,0.0,0.0,0.0,0.0,0.0,0.0,0.0,0.0,0.0
1509044730695738055,277833,1509044730695558935,base_footprint,0.0,0.0,0.0,0.0,-1.0,0.0,0.0,0.0,0.0,0.0,0.0,0.0,0.0,-0.0048,0.0,0.0,0.0,0.0,0.0,0.0,0.0,0.0,0.0,0.0,0.0,0.0,0.25,-10.01,0.0,0.0,0.0,0.0,0.0,0.0,0.0,0.0,0.0
1509044730705648949,277834,1509044730705558323,base_footprint,0.0,0.0,0.0,0.0,-1.0,0.0,0.0,0.0,0.0,0.0,0.0,0.0,0.0,-0.0046,0.0,0.0,0.0,0.0,0.0,0.0,0.0,0.0,0.0,0.0,0.0,0.01,0.27,-9.71,0.0,0.0,0.0,0.0,0.0,0.0,0.0,0.0,0.0
1509044730715720414,277835,1509044730715550138,base_footprint,0.0,0.0,0.0,0.0,-1.0,0.0,0.0,0.0,0.0,0.0,0.0,0.0,0.0,-0.0044,0.0,0.0004,0.0,0.0,0.0,0.0,0.0,0.0,0.0,0.0,0.0,0.0,0.29,-10.01,0.0,0.0,0.0,0.0,0.0,0.0,0.0,0.0,0.0
1509044730726116778,277836,1509044730726008332,base_footprint,0.0,0.0,0.0,0.0,-1.0,0.0,0.0,0.0,0.0,0.0,0.0,0.0,0.0,-0.0038,0.0,0.0008,0.0,0.0,0.0,0.0,0.0,0.0,0.0,0.0,0.0,0.0,0.3,-10.01,0.0,0.0,0.0,0.0,0.0,0.0,0.0,0.0,0.0
1509044730736060528,277837,1509044730735916216,base_footprint,0.0,0.0,0.0,0.0,-1.0,0.0,0.0,0.0,0.0,0.0,0.0,0.0,0.0,-0.003,0.0,0.001,0.0,0.0,0.0,0.0,0.0,0.0,0.0,0.0,0.0,-0.01,0.3,-10.01,0.0,0.0,0.0,0.0,0.0,0.0,0.0,0.0,0.0
1509044730746040841,277838,1509044730745888768,base_footprint,0.0,0.0,0.0,0.0,-1.0,0.0,0.0,0.0,0.0,0.0,0.0,0.0,0.0,-0.0028,0.0,0.0012,0.0,0.0,0.0,0.0,0.0,0.0,0.0,0.0,0.0,-0.02,0.29,-9.91,0.0,0.0,0.0,0.0,0.0,0.0,0.0,0.0,0.0
1509044730755845201,277839,1509044730755724174,base_footprint,0.0,0.0,0.0,0.0,-1.0,0.0,0.0,0.0,0.0,0.0,0.0,0.0,0.0,-0.0026,0.0,0.0006,0.0,0.0,0.0,0.0,0.0,0.0,0.0,0.0,0.0,-0.02,0.28,-9.91,0.0,0.0,0.0,0.0,0.0,0.0,0.0,0.0,0.0
1509044730766198962,277840,1509044730766019234,base_footprint,0.0,0.0,0.0,0.0,-1.0,0.0,0.0,0.0,0.0,0.0,0.0,0.0,0.0,-0.0028,0.0,0.0,0.0,0.0,0.0,0.0,0.0,0.0,0.0,0.0,0.0,-0.01,0.28,-10.1,0.0,0.0,0.0,0.0,0.0,0.0,0.0,0.0,0.0
1509044730776060339,277841,1509044730775923522,base_footprint,0.0,0.0,0.0,0.0,-1.0,0.0,0.0,0.0,0.0,0.0,0.0,0.0,0.0,-0.0034,0.0,0.0,0.0,0.0,0.0,0.0,0.0,0.0,0.0,0.0,0.0,0.0,0.3,-9.81,0.0,0.0,0.0,0.0,0.0,0.0,0.0,0.0,0.0
1509044730786747582,277842,1509044730786562028,base_footprint,0.0,0.0,0.0,0.0,-1.0,0.0,0.0,0.0,0.0,0.0,0.0,0.0,0.0,-0.0032,0.0,0.0,0.0,0.0,0.0,0.0,0.0,0.0,0.0,0.0,0.0,0.01,0.31,-9.71,0.0,0.0,0.0,0.0,0.0,0.0,0.0,0.0,0.0
1509044730796228775,277843,1509044730795896768,base_footprint,0.0,0.0,0.0,0.0,-1.0,0.0,0.0,0.0,0.0,0.0,0.0,0.0,0.0,-0.0028,0.0,0.0004,0.0,0.0,0.0,0.0,0.0,0.0,0.0,0.0,0.0,0.02,0.32,-9.81,0.0,0.0,0.0,0.0,0.0,0.0,0.0,0.0,0.0
1509044730806043847,277844,1509044730805900197,base_footprint,0.0,0.0,0.0,0.0,-1.0,0.0,0.0,0.0,0.0,0.0,0.0,0.0,0.0,-0.0036,0.0,0.0006,0.0,0.0,0.0,0.0,0.0,0.0,0.0,0.0,0.0,0.02,0.31,-9.81,0.0,0.0,0.0,0.0,0.0,0.0,0.0,0.0,0.0
1509044730816241176,277845,1509044730816058847,base_footprint,0.0,0.0,0.0,0.0,-1.0,0.0,0.0,0.0,0.0,0.0,0.0,0.0,0.0,-0.0046,0.0,0.0002,0.0,0.0,0.0,0.0,0.0,0.0,0.0,0.0,0.0,0.01,0.28,-9.91,0.0,0.0,0.0,0.0,0.0,0.0,0.0,0.0,0.0
1509044730826591165,277846,1509044730826481272,base_footprint,0.0,0.0,0.0,0.0,-1.0,0.0,0.0,0.0,0.0,0.0,0.0,0.0,0.0,-0.0048,0.0,0.0,0.0,0.0,0.0,0.0,0.0,0.0,0.0,0.0,0.0,0.0,0.26,-9.71,0.0,0.0,0.0,0.0,0.0,0.0,0.0,0.0,0.0
1509044730836817408,277847,1509044730836607797,base_footprint,0.0,0.0,0.0,0.0,-1.0,0.0,0.0,0.0,0.0,0.0,0.0,0.0,0.0,-0.0042,0.0,0.0,0.0,0.0,0.0,0.0,0.0,0.0,0.0,0.0,0.0,0.0,0.27,-10.1,0.0,0.0,0.0,0.0,0.0,0.0,0.0,0.0,0.0
1509044730846091269,277848,1509044730846009652,base_footprint,0.0,0.0,0.0,0.0,-1.0,0.0,0.0,0.0,0.0,0.0,0.0,0.0,0.0,-0.004,0.0,0.0,0.0,0.0,0.0,0.0,0.0,0.0,0.0,0.0,0.0,0.0,0.28,-10.01,0.0,0.0,0.0,0.0,0.0,0.0,0.0,0.0,0.0
1509044730856105655,277849,1509044730856012682,base_footprint,0.0,0.0,0.0,0.0,-1.0,0.0,0.0,0.0,0.0,0.0,0.0,0.0,0.0,-0.004,0.0,0.0,0.0,0.0,0.0,0.0,0.0,0.0,0.0,0.0,0.0,0.0,0.29,-9.91,0.0,0.0,0.0,0.0,0.0,0.0,0.0,0.0,0.0
1509044730866071594,277850,1509044730865986777,base_footprint,0.0,0.0,0.0,0.0,-1.0,0.0,0.0,0.0,0.0,0.0,0.0,0.0,0.0,-0.004,0.0,0.0,0.0,0.0,0.0,0.0,0.0,0.0,0.0,0.0,0.0,-0.01,0.28,-9.91,0.0,0.0,0.0,0.0,0.0,0.0,0.0,0.0,0.0
1509044730876069046,277851,1509044730875987459,base_footprint,0.0,0.0,0.0,0.0,-1.0,0.0,0.0,0.0,0.0,0.0,0.0,0.0,0.0,-0.0034,0.0,0.0,0.0,0.0,0.0,0.0,0.0,0.0,0.0,0.0,0.0,0.0,0.27,-10.01,0.0,0.0,0.0,0.0,0.0,0.0,0.0,0.0,0.0
1509044730887082869,277852,1509044730886934066,base_footprint,0.0,0.0,0.0,0.0,-1.0,0.0,0.0,0.0,0.0,0.0,0.0,0.0,0.0,-0.0026,0.0,0.0002,0.0,0.0,0.0,0.0,0.0,0.0,0.0,0.0,0.0,0.0,0.26,-9.91,0.0,0.0,0.0,0.0,0.0,0.0,0.0,0.0,0.0
1509044730896097485,277853,1509044730895991009,base_footprint,0.0,0.0,0.0,0.0,-1.0,0.0,0.0,0.0,0.0,0.0,0.0,0.0,0.0,-0.0022,0.0,0.0004,0.0,0.0,0.0,0.0,0.0,0.0,0.0,0.0,0.0,0.0,0.26,-10.01,0.0,0.0,0.0,0.0,0.0,0.0,0.0,0.0,0.0
1509044730906572518,277854,1509044730906491740,base_footprint,0.0,0.0,0.0,0.0,-1.0,0.0,0.0,0.0,0.0,0.0,0.0,0.0,0.0,-0.0022,0.0,0.0004,0.0,0.0,0.0,0.0,0.0,0.0,0.0,0.0,0.0,0.0,0.26,-9.71,0.0,0.0,0.0,0.0,0.0,0.0,0.0,0.0,0.0
1509044730916679144,277855,1509044730916548071,base_footprint,0.0,0.0,0.0,0.0,-1.0,0.0,0.0,0.0,0.0,0.0,0.0,0.0,0.0,-0.0028,0.0,0.0004,0.0,0.0,0.0,0.0,0.0,0.0,0.0,0.0,0.0,0.0,0.26,-10.01,0.0,0.0,0.0,0.0,0.0,0.0,0.0,0.0,0.0
1509044730926639428,277856,1509044730926493299,base_footprint,0.0,0.0,0.0,0.0,-1.0,0.0,0.0,0.0,0.0,0.0,0.0,0.0,0.0,-0.004,0.0,0.0008,0.0,0.0,0.0,0.0,0.0,0.0,0.0,0.0,0.0,0.0,0.26,-9.91,0.0,0.0,0.0,0.0,0.0,0.0,0.0,0.0,0.0
1509044730936258099,277857,1509044730936104089,base_footprint,0.0,0.0,0.0,0.0,-1.0,0.0,0.0,0.0,0.0,0.0,0.0,0.0,0.0,-0.0048,0.0,0.001,0.0,0.0,0.0,0.0,0.0,0.0,0.0,0.0,0.0,0.01,0.26,-9.81,0.0,0.0,0.0,0.0,0.0,0.0,0.0,0.0,0.0
1509044730946618033,277858,1509044730946522332,base_footprint,0.0,0.0,0.0,0.0,-1.0,0.0,0.0,0.0,0.0,0.0,0.0,0.0,0.0,-0.004,0.0,0.0012,0.0,0.0,0.0,0.0,0.0,0.0,0.0,0.0,0.0,0.0,0.26,-10.01,0.0,0.0,0.0,0.0,0.0,0.0,0.0,0.0,0.0
1509044730956691681,277859,1509044730956591468,base_footprint,0.0,0.0,0.0,0.0,-1.0,0.0,0.0,0.0,0.0,0.0,0.0,0.0,0.0,-0.0028,0.0,0.001,0.0,0.0,0.0,0.0,0.0,0.0,0.0,0.0,0.0,0.0,0.27,-9.91,0.0,0.0,0.0,0.0,0.0,0.0,0.0,0.0,0.0
1509044730966614088,277860,1509044730966499586,base_footprint,0.0,0.0,0.0,0.0,-1.0,0.0,0.0,0.0,0.0,0.0,0.0,0.0,0.0,-0.0024,0.0,0.0008,0.0,0.0,0.0,0.0,0.0,0.0,0.0,0.0,0.0,0.0,0.27,-10.2,0.0,0.0,0.0,0.0,0.0,0.0,0.0,0.0,0.0
1509044730977362878,277861,1509044730977153961,base_footprint,0.0,0.0,0.0,0.0,-1.0,0.0,0.0,0.0,0.0,0.0,0.0,0.0,0.0,-0.0022,0.0,0.0006,0.0,0.0,0.0,0.0,0.0,0.0,0.0,0.0,0.0,0.0,0.27,-9.81,0.0,0.0,0.0,0.0,0.0,0.0,0.0,0.0,0.0
1509044730987121822,277862,1509044730987022474,base_footprint,0.0,0.0,0.0,0.0,-1.0,0.0,0.0,0.0,0.0,0.0,0.0,0.0,0.0,-0.0032,0.0,0.0006,0.0,0.0,0.0,0.0,0.0,0.0,0.0,0.0,0.0,0.01,0.26,-10.01,0.0,0.0,0.0,0.0,0.0,0.0,0.0,0.0,0.0
1509044730996703280,277863,1509044730996597911,base_footprint,0.0,0.0,0.0,0.0,-1.0,0.0,0.0,0.0,0.0,0.0,0.0,0.0,0.0,-0.004,0.0,0.0006,0.0,0.0,0.0,0.0,0.0,0.0,0.0,0.0,0.0,0.01,0.27,-10.01,0.0,0.0,0.0,0.0,0.0,0.0,0.0,0.0,0.0
1509044731006670538,277864,1509044731006584598,base_footprint,0.0,0.0,0.0,0.0,-1.0,0.0,0.0,0.0,0.0,0.0,0.0,0.0,0.0,-0.0036,0.0,0.0004,0.0,0.0,0.0,0.0,0.0,0.0,0.0,0.0,0.0,0.0,0.27,-9.61,0.0,0.0,0.0,0.0,0.0,0.0,0.0,0.0,0.0
1509044731016699331,277865,1509044731016599444,base_footprint,0.0,0.0,0.0,0.0,-1.0,0.0,0.0,0.0,0.0,0.0,0.0,0.0,0.0,-0.0032,0.0,0.0,0.0,0.0,0.0,0.0,0.0,0.0,0.0,0.0,0.0,-0.02,0.27,-9.71,0.0,0.0,0.0,0.0,0.0,0.0,0.0,0.0,0.0
1509044731027015004,277866,1509044731026925267,base_footprint,0.0,0.0,0.0,0.0,-1.0,0.0,0.0,0.0,0.0,0.0,0.0,0.0,0.0,-0.0034,0.0,0.0,0.0,0.0,0.0,0.0,0.0,0.0,0.0,0.0,0.0,-0.03,0.26,-10.01,0.0,0.0,0.0,0.0,0.0,0.0,0.0,0.0,0.0
1509044731036726301,277867,1509044731036606725,base_footprint,0.0,0.0,0.0,0.0,-1.0,0.0,0.0,0.0,0.0,0.0,0.0,0.0,0.0,-0.0036,0.0,0.0,0.0,0.0,0.0,0.0,0.0,0.0,0.0,0.0,0.0,-0.02,0.26,-9.71,0.0,0.0,0.0,0.0,0.0,0.0,0.0,0.0,0.0
1509044731046675603,277868,1509044731046589928,base_footprint,0.0,0.0,0.0,0.0,-1.0,0.0,0.0,0.0,0.0,0.0,0.0,0.0,0.0,-0.0032,0.0,0.0004,0.0,0.0,0.0,0.0,0.0,0.0,0.0,0.0,0.0,-0.02,0.26,-10.2,0.0,0.0,0.0,0.0,0.0,0.0,0.0,0.0,0.0
1509044731057036677,277869,1509044731056930921,base_footprint,0.0,0.0,0.0,0.0,-1.0,0.0,0.0,0.0,0.0,0.0,0.0,0.0,0.0,-0.0034,0.0,0.0006,0.0,0.0,0.0,0.0,0.0,0.0,0.0,0.0,0.0,-0.01,0.26,-9.61,0.0,0.0,0.0,0.0,0.0,0.0,0.0,0.0,0.0
1509044731066698136,277870,1509044731066593685,base_footprint,0.0,0.0,0.0,0.0,-1.0,0.0,0.0,0.0,0.0,0.0,0.0,0.0,0.0,-0.004,0.0,0.0004,0.0,0.0,0.0,0.0,0.0,0.0,0.0,0.0,0.0,0.0,0.27,-10.1,0.0,0.0,0.0,0.0,0.0,0.0,0.0,0.0,0.0
1509044731076857018,277871,1509044731076766201,base_footprint,0.0,0.0,0.0,0.0,-1.0,0.0,0.0,0.0,0.0,0.0,0.0,0.0,0.0,-0.0036,0.0,0.0,0.0,0.0,0.0,0.0,0.0,0.0,0.0,0.0,0.0,0.02,0.27,-10.01,0.0,0.0,0.0,0.0,0.0,0.0,0.0,0.0,0.0
1509044731087668919,277872,1509044731087541738,base_footprint,0.0,0.0,0.0,0.0,-1.0,0.0,0.0,0.0,0.0,0.0,0.0,0.0,0.0,-0.0028,0.0,0.0,0.0,0.0,0.0,0.0,0.0,0.0,0.0,0.0,0.0,0.02,0.28,-10.01,0.0,0.0,0.0,0.0,0.0,0.0,0.0,0.0,0.0
1509044731096759151,277873,1509044731096680106,base_footprint,0.0,0.0,0.0,0.0,-1.0,0.0,0.0,0.0,0.0,0.0,0.0,0.0,0.0,-0.002,0.0,0.0002,0.0,0.0,0.0,0.0,0.0,0.0,0.0,0.0,0.0,0.01,0.28,-9.71,0.0,0.0,0.0,0.0,0.0,0.0,0.0,0.0,0.0
1509044731106696492,277874,1509044731106613403,base_footprint,0.0,0.0,0.0,0.0,-1.0,0.0,0.0,0.0,0.0,0.0,0.0,0.0,0.0,-0.0024,0.0,0.0008,0.0,0.0,0.0,0.0,0.0,0.0,0.0,0.0,0.0,0.0,0.28,-9.71,0.0,0.0,0.0,0.0,0.0,0.0,0.0,0.0,0.0
1509044731116759502,277875,1509044731116613830,base_footprint,0.0,0.0,0.0,0.0,-1.0,0.0,0.0,0.0,0.0,0.0,0.0,0.0,0.0,-0.0032,0.0,0.0016,0.0,0.0,0.0,0.0,0.0,0.0,0.0,0.0,0.0,0.0,0.27,-9.81,0.0,0.0,0.0,0.0,0.0,0.0,0.0,0.0,0.0
1509044731126890710,277876,1509044731126603894,base_footprint,0.0,0.0,0.0,0.0,-1.0,0.0,0.0,0.0,0.0,0.0,0.0,0.0,0.0,-0.0034,0.0,0.0014,0.0,0.0,0.0,0.0,0.0,0.0,0.0,0.0,0.0,0.0,0.28,-10.3,0.0,0.0,0.0,0.0,0.0,0.0,0.0,0.0,0.0
1509044731136720098,277877,1509044731136617496,base_footprint,0.0,0.0,0.0,0.0,-1.0,0.0,0.0,0.0,0.0,0.0,0.0,0.0,0.0,-0.0036,0.0,0.001,0.0,0.0,0.0,0.0,0.0,0.0,0.0,0.0,0.0,0.0,0.3,-9.91,0.0,0.0,0.0,0.0,0.0,0.0,0.0,0.0,0.0
1509044731146689903,277878,1509044731146603254,base_footprint,0.0,0.0,0.0,0.0,-1.0,0.0,0.0,0.0,0.0,0.0,0.0,0.0,0.0,-0.0044,0.0,0.0006,0.0,0.0,0.0,0.0,0.0,0.0,0.0,0.0,0.0,0.0,0.3,-9.81,0.0,0.0,0.0,0.0,0.0,0.0,0.0,0.0,0.0
1509044731157021385,277879,1509044731156943193,base_footprint,0.0,0.0,0.0,0.0,-1.0,0.0,0.0,0.0,0.0,0.0,0.0,0.0,0.0,-0.0048,0.0,0.0,0.0,0.0,0.0,0.0,0.0,0.0,0.0,0.0,0.0,0.0,0.28,-10.01,0.0,0.0,0.0,0.0,0.0,0.0,0.0,0.0,0.0
1509044731167070023,277880,1509044731166945878,base_footprint,0.0,0.0,0.0,0.0,-1.0,0.0,0.0,0.0,0.0,0.0,0.0,0.0,0.0,-0.0048,0.0,0.0,0.0,0.0,0.0,0.0,0.0,0.0,0.0,0.0,0.0,0.01,0.25,-9.81,0.0,0.0,0.0,0.0,0.0,0.0,0.0,0.0,0.0
1509044731177523943,277881,1509044731176692881,base_footprint,0.0,0.0,0.0,0.0,-1.0,0.0,0.0,0.0,0.0,0.0,0.0,0.0,0.0,-0.0052,0.0,0.0004,0.0,0.0,0.0,0.0,0.0,0.0,0.0,0.0,0.0,0.02,0.24,-10.01,0.0,0.0,0.0,0.0,0.0,0.0,0.0,0.0,0.0
1509044731189516604,277882,1509044731187612289,base_footprint,0.0,0.0,0.0,0.0,-1.0,0.0,0.0,0.0,0.0,0.0,0.0,0.0,0.0,-0.0058,0.0,0.0004,0.0,0.0,0.0,0.0,0.0,0.0,0.0,0.0,0.0,0.05,0.26,-9.81,0.0,0.0,0.0,0.0,0.0,0.0,0.0,0.0,0.0
1509044731196782561,277883,1509044731196692807,base_footprint,0.0,0.0,0.0,0.0,-1.0,0.0,0.0,0.0,0.0,0.0,0.0,0.0,0.0,-0.0058,0.0,0.0002,0.0,0.0,0.0,0.0,0.0,0.0,0.0,0.0,0.0,0.08,0.27,-9.81,0.0,0.0,0.0,0.0,0.0,0.0,0.0,0.0,0.0
1509044731207040607,277884,1509044731206953311,base_footprint,0.0,0.0,0.0,0.0,-1.0,0.0,0.0,0.0,0.0,0.0,0.0,0.0,0.0,-0.0054,0.0,0.0002,0.0,0.0,0.0,0.0,0.0,0.0,0.0,0.0,0.0,0.12,0.27,-9.91,0.0,0.0,0.0,0.0,0.0,0.0,0.0,0.0,0.0
1509044731216837637,277885,1509044731216757300,base_footprint,0.0,0.0,0.0,0.0,-1.0,0.0,0.0,0.0,0.0,0.0,0.0,0.0,0.0,-0.0048,0.0,0.0002,0.0,0.0,0.0,0.0,0.0,0.0,0.0,0.0,0.0,0.14,0.27,-9.91,0.0,0.0,0.0,0.0,0.0,0.0,0.0,0.0,0.0
1509044731227077685,277886,1509044731226981035,base_footprint,0.0,0.0,0.0,0.0,-1.0,0.0,0.0,0.0,0.0,0.0,0.0,0.0,0.0,-0.0034,0.0,0.0006,0.0,0.0,0.0,0.0,0.0,0.0,0.0,0.0,0.0,0.15,0.28,-9.81,0.0,0.0,0.0,0.0,0.0,0.0,0.0,0.0,0.0
1509044731236910209,277887,1509044731236760481,base_footprint,0.0,0.0,0.0,0.0,-1.0,0.0,0.0,0.0,0.0,0.0,0.0,0.0,0.0,-0.0026,0.0,0.0008,0.0,0.0,0.0,0.0,0.0,0.0,0.0,0.0,0.0,0.15,0.29,-9.81,0.0,0.0,0.0,0.0,0.0,0.0,0.0,0.0,0.0
1509044731247118769,277888,1509044731246980174,base_footprint,0.0,0.0,0.0,0.0,-1.0,0.0,0.0,0.0,0.0,0.0,0.0,0.0,0.0,-0.0032,0.0,0.0004,0.0,0.0,0.0,0.0,0.0,0.0,0.0,0.0,0.0,0.14,0.29,-9.91,0.0,0.0,0.0,0.0,0.0,0.0,0.0,0.0,0.0
1509044731257838432,277889,1509044731256961774,base_footprint,0.0,0.0,0.0,0.0,-1.0,0.0,0.0,0.0,0.0,0.0,0.0,0.0,0.0,-0.0044,0.0,0.0,0.0,0.0,0.0,0.0,0.0,0.0,0.0,0.0,0.0,0.13,0.3,-10.01,0.0,0.0,0.0,0.0,0.0,0.0,0.0,0.0,0.0
1509044731267205088,277890,1509044731267076615,base_footprint,0.0,0.0,0.0,0.0,-1.0,0.0,0.0,0.0,0.0,0.0,0.0,0.0,0.0,-0.0052,0.0,0.0,0.0,0.0,0.0,0.0,0.0,0.0,0.0,0.0,0.0,0.14,0.31,-9.71,0.0,0.0,0.0,0.0,0.0,0.0,0.0,0.0,0.0
1509044731277651312,277891,1509044731277542499,base_footprint,0.0,0.0,0.0,0.0,-1.0,0.0,0.0,0.0,0.0,0.0,0.0,0.0,0.0,-0.0054,0.0,0.0002,0.0,0.0,0.0,0.0,0.0,0.0,0.0,0.0,0.0,0.16,0.3,-10.2,0.0,0.0,0.0,0.0,0.0,0.0,0.0,0.0,0.0
1509044731288673513,277892,1509044731288541961,base_footprint,0.0,0.0,0.0,0.0,-1.0,0.0,0.0,0.0,0.0,0.0,0.0,0.0,0.0,-0.0048,0.0,0.0014,0.0,0.0,0.0,0.0,0.0,0.0,0.0,0.0,0.0,0.17,0.27,-9.81,0.0,0.0,0.0,0.0,0.0,0.0,0.0,0.0,0.0
1509044731297711183,277893,1509044731297626884,base_footprint,0.0,0.0,0.0,0.0,-1.0,0.0,0.0,0.0,0.0,0.0,0.0,0.0,0.0,-0.0042,0.0,0.0026,0.0,0.0,0.0,0.0,0.0,0.0,0.0,0.0,0.0,0.18,0.25,-9.81,0.0,0.0,0.0,0.0,0.0,0.0,0.0,0.0,0.0
1509044731307680037,277894,1509044731307570803,base_footprint,0.0,0.0,0.0,0.0,-1.0,0.0,0.0,0.0,0.0,0.0,0.0,0.0,0.0,-0.004,0.0,0.0032,0.0,0.0,0.0,0.0,0.0,0.0,0.0,0.0,0.0,0.18,0.25,-10.1,0.0,0.0,0.0,0.0,0.0,0.0,0.0,0.0,0.0
1509044731317700554,277895,1509044731317544788,base_footprint,0.0,0.0,0.0,0.0,-1.0,0.0,0.0,0.0,0.0,0.0,0.0,0.0,0.0,-0.0042,0.0,0.003,0.0,0.0,0.0,0.0,0.0,0.0,0.0,0.0,0.0,0.2,0.27,-9.71,0.0,0.0,0.0,0.0,0.0,0.0,0.0,0.0,0.0
1509044731327785732,277896,1509044731327573467,base_footprint,0.0,0.0,0.0,0.0,-1.0,0.0,0.0,0.0,0.0,0.0,0.0,0.0,0.0,-0.0042,0.0,0.0022,0.0,0.0,0.0,0.0,0.0,0.0,0.0,0.0,0.0,0.2,0.29,-10.01,0.0,0.0,0.0,0.0,0.0,0.0,0.0,0.0,0.0
1509044731337748067,277897,1509044731337577870,base_footprint,0.0,0.0,0.0,0.0,-1.0,0.0,0.0,0.0,0.0,0.0,0.0,0.0,0.0,-0.0046,0.0,0.0016,0.0,0.0,0.0,0.0,0.0,0.0,0.0,0.0,0.0,0.2,0.3,-9.91,0.0,0.0,0.0,0.0,0.0,0.0,0.0,0.0,0.0
1509044731347780811,277898,1509044731347603323,base_footprint,0.0,0.0,0.0,0.0,-1.0,0.0,0.0,0.0,0.0,0.0,0.0,0.0,0.0,-0.0048,0.0,0.0016,0.0,0.0,0.0,0.0,0.0,0.0,0.0,0.0,0.0,0.21,0.29,-9.71,0.0,0.0,0.0,0.0,0.0,0.0,0.0,0.0,0.0
1509044731357668145,277899,1509044731357549867,base_footprint,0.0,0.0,0.0,0.0,-1.0,0.0,0.0,0.0,0.0,0.0,0.0,0.0,0.0,-0.0046,0.0,0.0016,0.0,0.0,0.0,0.0,0.0,0.0,0.0,0.0,0.0,0.22,0.28,-9.91,0.0,0.0,0.0,0.0,0.0,0.0,0.0,0.0,0.0
1509044731368239011,277900,1509044731367998010,base_footprint,0.0,0.0,0.0,0.0,-1.0,0.0,0.0,0.0,0.0,0.0,0.0,0.0,0.0,-0.0044,0.0,0.001,0.0,0.0,0.0,0.0,0.0,0.0,0.0,0.0,0.0,0.24,0.28,-9.71,0.0,0.0,0.0,0.0,0.0,0.0,0.0,0.0,0.0
1509044731377780799,277901,1509044731377558724,base_footprint,0.0,0.0,0.0,0.0,-1.0,0.0,0.0,0.0,0.0,0.0,0.0,0.0,0.0,-0.004,0.0,0.0004,0.0,0.0,0.0,0.0,0.0,0.0,0.0,0.0,0.0,0.25,0.28,-9.91,0.0,0.0,0.0,0.0,0.0,0.0,0.0,0.0,0.0
1509044731388929490,277902,1509044731388648671,base_footprint,0.0,0.0,0.0,0.0,-1.0,0.0,0.0,0.0,0.0,0.0,0.0,0.0,0.0,-0.0032,0.0,0.0002,0.0,0.0,0.0,0.0,0.0,0.0,0.0,0.0,0.0,0.25,0.27,-9.81,0.0,0.0,0.0,0.0,0.0,0.0,0.0,0.0,0.0
1509044731397746081,277903,1509044731397636776,base_footprint,0.0,0.0,0.0,0.0,-1.0,0.0,0.0,0.0,0.0,0.0,0.0,0.0,0.0,-0.0028,0.0,0.0008,0.0,0.0,0.0,0.0,0.0,0.0,0.0,0.0,0.0,0.24,0.26,-9.91,0.0,0.0,0.0,0.0,0.0,0.0,0.0,0.0,0.0
1509044731407729538,277904,1509044731407640762,base_footprint,0.0,0.0,0.0,0.0,-1.0,0.0,0.0,0.0,0.0,0.0,0.0,0.0,0.0,-0.0034,0.0,0.0014,0.0,0.0,0.0,0.0,0.0,0.0,0.0,0.0,0.0,0.25,0.25,-9.81,0.0,0.0,0.0,0.0,0.0,0.0,0.0,0.0,0.0
1509044731417776102,277905,1509044731417641326,base_footprint,0.0,0.0,0.0,0.0,-1.0,0.0,0.0,0.0,0.0,0.0,0.0,0.0,0.0,-0.0044,0.0,0.0018,0.0,0.0,0.0,0.0,0.0,0.0,0.0,0.0,0.0,0.26,0.26,-9.71,0.0,0.0,0.0,0.0,0.0,0.0,0.0,0.0,0.0
1509044731427716928,277906,1509044731427643949,base_footprint,0.0,0.0,0.0,0.0,-1.0,0.0,0.0,0.0,0.0,0.0,0.0,0.0,0.0,-0.0054,0.0,0.002,0.0,0.0,0.0,0.0,0.0,0.0,0.0,0.0,0.0,0.26,0.28,-9.81,0.0,0.0,0.0,0.0,0.0,0.0,0.0,0.0,0.0
1509044731437714097,277907,1509044731437644533,base_footprint,0.0,0.0,0.0,0.0,-1.0,0.0,0.0,0.0,0.0,0.0,0.0,0.0,0.0,-0.0054,0.0,0.0022,0.0,0.0,0.0,0.0,0.0,0.0,0.0,0.0,0.0,0.26,0.3,-9.71,0.0,0.0,0.0,0.0,0.0,0.0,0.0,0.0,0.0
1509044731447767281,277908,1509044731447646757,base_footprint,0.0,0.0,0.0,0.0,-1.0,0.0,0.0,0.0,0.0,0.0,0.0,0.0,0.0,-0.0054,0.0,0.0018,0.0,0.0,0.0,0.0,0.0,0.0,0.0,0.0,0.0,0.28,0.3,-9.91,0.0,0.0,0.0,0.0,0.0,0.0,0.0,0.0,0.0
1509044731457750459,277909,1509044731457648685,base_footprint,0.0,0.0,0.0,0.0,-1.0,0.0,0.0,0.0,0.0,0.0,0.0,0.0,0.0,-0.0052,0.0,0.0012,0.0,0.0,0.0,0.0,0.0,0.0,0.0,0.0,0.0,0.28,0.28,-10.01,0.0,0.0,0.0,0.0,0.0,0.0,0.0,0.0,0.0
1509044731467832638,277910,1509044731467680994,base_footprint,0.0,0.0,0.0,0.0,-1.0,0.0,0.0,0.0,0.0,0.0,0.0,0.0,0.0,-0.0046,0.0,0.0008,0.0,0.0,0.0,0.0,0.0,0.0,0.0,0.0,0.0,0.28,0.26,-9.61,0.0,0.0,0.0,0.0,0.0,0.0,0.0,0.0,0.0
1509044731477722945,277911,1509044731477652209,base_footprint,0.0,0.0,0.0,0.0,-1.0,0.0,0.0,0.0,0.0,0.0,0.0,0.0,0.0,-0.0032,0.0,0.0002,0.0,0.0,0.0,0.0,0.0,0.0,0.0,0.0,0.0,0.28,0.26,-9.91,0.0,0.0,0.0,0.0,0.0,0.0,0.0,0.0,0.0
1509044731488729235,277912,1509044731488654413,base_footprint,0.0,0.0,0.0,0.0,-1.0,0.0,0.0,0.0,0.0,0.0,0.0,0.0,0.0,-0.0018,0.0,0.0,0.0,0.0,0.0,0.0,0.0,0.0,0.0,0.0,0.0,0.27,0.27,-9.81,0.0,0.0,0.0,0.0,0.0,0.0,0.0,0.0,0.0
1509044731497729854,277913,1509044731497655153,base_footprint,0.0,0.0,0.0,0.0,-1.0,0.0,0.0,0.0,0.0,0.0,0.0,0.0,0.0,-0.002,0.0,-0.0002,0.0,0.0,0.0,0.0,0.0,0.0,0.0,0.0,0.0,0.27,0.27,-10.01,0.0,0.0,0.0,0.0,0.0,0.0,0.0,0.0,0.0
1509044731507777812,277914,1509044731507655384,base_footprint,0.0,0.0,0.0,0.0,-1.0,0.0,0.0,0.0,0.0,0.0,0.0,0.0,0.0,-0.0032,0.0,-0.0002,0.0,0.0,0.0,0.0,0.0,0.0,0.0,0.0,0.0,0.27,0.27,-9.91,0.0,0.0,0.0,0.0,0.0,0.0,0.0,0.0,0.0
1509044731517789684,277915,1509044731517657960,base_footprint,0.0,0.0,0.0,0.0,-1.0,0.0,0.0,0.0,0.0,0.0,0.0,0.0,0.0,-0.0038,0.0,0.0,0.0,0.0,0.0,0.0,0.0,0.0,0.0,0.0,0.0,0.28,0.27,-10.01,0.0,0.0,0.0,0.0,0.0,0.0,0.0,0.0,0.0
1509044731528122312,277916,1509044731528000805,base_footprint,0.0,0.0,0.0,0.0,-1.0,0.0,0.0,0.0,0.0,0.0,0.0,0.0,0.0,-0.0034,0.0,0.0,0.0,0.0,0.0,0.0,0.0,0.0,0.0,0.0,0.0,0.29,0.28,-9.71,0.0,0.0,0.0,0.0,0.0,0.0,0.0,0.0,0.0
1509044731537766634,277917,1509044731537655244,base_footprint,0.0,0.0,0.0,0.0,-1.0,0.0,0.0,0.0,0.0,0.0,0.0,0.0,0.0,-0.003,0.0,0.0,0.0,0.0,0.0,0.0,0.0,0.0,0.0,0.0,0.0,0.3,0.27,-9.91,0.0,0.0,0.0,0.0,0.0,0.0,0.0,0.0,0.0
1509044731547843479,277918,1509044731547688498,base_footprint,0.0,0.0,0.0,0.0,-1.0,0.0,0.0,0.0,0.0,0.0,0.0,0.0,0.0,-0.0028,0.0,0.0,0.0,0.0,0.0,0.0,0.0,0.0,0.0,0.0,0.0,0.32,0.27,-9.91,0.0,0.0,0.0,0.0,0.0,0.0,0.0,0.0,0.0
1509044731558434479,277919,1509044731557660564,base_footprint,0.0,0.0,0.0,0.0,-1.0,0.0,0.0,0.0,0.0,0.0,0.0,0.0,0.0,-0.0026,0.0,0.0,0.0,0.0,0.0,0.0,0.0,0.0,0.0,0.0,0.0,0.33,0.27,-9.81,0.0,0.0,0.0,0.0,0.0,0.0,0.0,0.0,0.0
1509044731568130670,277920,1509044731568029354,base_footprint,0.0,0.0,0.0,0.0,-1.0,0.0,0.0,0.0,0.0,0.0,0.0,0.0,0.0,-0.0022,0.0,0.0,0.0,0.0,0.0,0.0,0.0,0.0,0.0,0.0,0.0,0.33,0.27,-10.01,0.0,0.0,0.0,0.0,0.0,0.0,0.0,0.0,0.0
1509044731578281044,277921,1509044731577662422,base_footprint,0.0,0.0,0.0,0.0,-1.0,0.0,0.0,0.0,0.0,0.0,0.0,0.0,0.0,-0.002,0.0,0.0002,0.0,0.0,0.0,0.0,0.0,0.0,0.0,0.0,0.0,0.33,0.26,-9.81,0.0,0.0,0.0,0.0,0.0,0.0,0.0,0.0,0.0
1509044731588803881,277922,1509044731588666533,base_footprint,0.0,0.0,0.0,0.0,-1.0,0.0,0.0,0.0,0.0,0.0,0.0,0.0,0.0,-0.0022,0.0,0.001,0.0,0.0,0.0,0.0,0.0,0.0,0.0,0.0,0.0,0.31,0.27,-9.81,0.0,0.0,0.0,0.0,0.0,0.0,0.0,0.0,0.0
1509044731598133810,277923,1509044731598006009,base_footprint,0.0,0.0,0.0,0.0,-1.0,0.0,0.0,0.0,0.0,0.0,0.0,0.0,0.0,-0.003,0.0,0.0018,0.0,0.0,0.0,0.0,0.0,0.0,0.0,0.0,0.0,0.3,0.3,-10.01,0.0,0.0,0.0,0.0,0.0,0.0,0.0,0.0,0.0
1509044731607846068,277924,1509044731607666074,base_footprint,0.0,0.0,0.0,0.0,-1.0,0.0,0.0,0.0,0.0,0.0,0.0,0.0,0.0,-0.004,0.0,0.0018,0.0,0.0,0.0,0.0,0.0,0.0,0.0,0.0,0.0,0.31,0.3,-9.81,0.0,0.0,0.0,0.0,0.0,0.0,0.0,0.0,0.0
1509044731617805197,277925,1509044731617669535,base_footprint,0.0,0.0,0.0,0.0,-1.0,0.0,0.0,0.0,0.0,0.0,0.0,0.0,0.0,-0.0042,0.0,0.001,0.0,0.0,0.0,0.0,0.0,0.0,0.0,0.0,0.0,0.33,0.31,-9.91,0.0,0.0,0.0,0.0,0.0,0.0,0.0,0.0,0.0
1509044731628276721,277926,1509044731628011746,base_footprint,0.0,0.0,0.0,0.0,-1.0,0.0,0.0,0.0,0.0,0.0,0.0,0.0,0.0,-0.004,0.0,0.0002,0.0,0.0,0.0,0.0,0.0,0.0,0.0,0.0,0.0,0.35,0.28,-9.71,0.0,0.0,0.0,0.0,0.0,0.0,0.0,0.0,0.0
1509044731638163108,277927,1509044731638032650,base_footprint,0.0,0.0,0.0,0.0,-1.0,0.0,0.0,0.0,0.0,0.0,0.0,0.0,0.0,-0.004,0.0,0.0002,0.0,0.0,0.0,0.0,0.0,0.0,0.0,0.0,0.0,0.37,0.24,-9.71,0.0,0.0,0.0,0.0,0.0,0.0,0.0,0.0,0.0
1509044731648171040,277928,1509044731648013329,base_footprint,0.0,0.0,0.0,0.0,-1.0,0.0,0.0,0.0,0.0,0.0,0.0,0.0,0.0,-0.004,0.0,0.0008,0.0,0.0,0.0,0.0,0.0,0.0,0.0,0.0,0.0,0.37,0.22,-9.61,0.0,0.0,0.0,0.0,0.0,0.0,0.0,0.0,0.0
1509044731658141507,277929,1509044731658015422,base_footprint,0.0,0.0,0.0,0.0,-1.0,0.0,0.0,0.0,0.0,0.0,0.0,0.0,0.0,-0.0036,0.0,0.0016,0.0,0.0,0.0,0.0,0.0,0.0,0.0,0.0,0.0,0.37,0.23,-9.81,0.0,0.0,0.0,0.0,0.0,0.0,0.0,0.0,0.0
1509044731668277729,277930,1509044731668017515,base_footprint,0.0,0.0,0.0,0.0,-1.0,0.0,0.0,0.0,0.0,0.0,0.0,0.0,0.0,-0.0028,0.0,0.0022,0.0,0.0,0.0,0.0,0.0,0.0,0.0,0.0,0.0,0.36,0.24,-9.91,0.0,0.0,0.0,0.0,0.0,0.0,0.0,0.0,0.0
1509044731678303972,277931,1509044731678017746,base_footprint,0.0,0.0,0.0,0.0,-1.0,0.0,0.0,0.0,0.0,0.0,0.0,0.0,0.0,-0.0028,0.0,0.0022,0.0,0.0,0.0,0.0,0.0,0.0,0.0,0.0,0.0,0.36,0.25,-9.71,0.0,0.0,0.0,0.0,0.0,0.0,0.0,0.0,0.0
1509044731688836322,277932,1509044731688682004,base_footprint,0.0,0.0,0.0,0.0,-1.0,0.0,0.0,0.0,0.0,0.0,0.0,0.0,0.0,-0.0036,0.0,0.002,0.0,0.0,0.0,0.0,0.0,0.0,0.0,0.0,0.0,0.35,0.25,-10.01,0.0,0.0,0.0,0.0,0.0,0.0,0.0,0.0,0.0
1509044731698158732,277933,1509044731698017570,base_footprint,0.0,0.0,0.0,0.0,-1.0,0.0,0.0,0.0,0.0,0.0,0.0,0.0,0.0,-0.0044,0.0,0.0014,0.0,0.0,0.0,0.0,0.0,0.0,0.0,0.0,0.0,0.34,0.25,-9.81,0.0,0.0,0.0,0.0,0.0,0.0,0.0,0.0,0.0
1509044731708377139,277934,1509044731708105655,base_footprint,0.0,0.0,0.0,0.0,-1.0,0.0,0.0,0.0,0.0,0.0,0.0,0.0,0.0,-0.0042,0.0,0.0008,0.0,0.0,0.0,0.0,0.0,0.0,0.0,0.0,0.0,0.35,0.26,-9.81,0.0,0.0,0.0,0.0,0.0,0.0,0.0,0.0,0.0
1509044731718233763,277935,1509044731718106761,base_footprint,0.0,0.0,0.0,0.0,-1.0,0.0,0.0,0.0,0.0,0.0,0.0,0.0,0.0,-0.0034,0.0,0.0002,0.0,0.0,0.0,0.0,0.0,0.0,0.0,0.0,0.0,0.37,0.28,-9.91,0.0,0.0,0.0,0.0,0.0,0.0,0.0,0.0,0.0
1509044731728214557,277936,1509044731728104199,base_footprint,0.0,0.0,0.0,0.0,-1.0,0.0,0.0,0.0,0.0,0.0,0.0,0.0,0.0,-0.0028,0.0,0.0,0.0,0.0,0.0,0.0,0.0,0.0,0.0,0.0,0.0,0.39,0.31,-9.91,0.0,0.0,0.0,0.0,0.0,0.0,0.0,0.0,0.0
1509044731738208973,277937,1509044731738104193,base_footprint,0.0,0.0,0.0,0.0,-1.0,0.0,0.0,0.0,0.0,0.0,0.0,0.0,0.0,-0.003,0.0,0.0002,0.0,0.0,0.0,0.0,0.0,0.0,0.0,0.0,0.0,0.39,0.31,-9.71,0.0,0.0,0.0,0.0,0.0,0.0,0.0,0.0,0.0
1509044731748199026,277938,1509044731748103454,base_footprint,0.0,0.0,0.0,0.0,-1.0,0.0,0.0,0.0,0.0,0.0,0.0,0.0,0.0,-0.0036,0.0,0.0002,0.0,0.0,0.0,0.0,0.0,0.0,0.0,0.0,0.0,0.38,0.3,-9.81,0.0,0.0,0.0,0.0,0.0,0.0,0.0,0.0,0.0
1509044731758291043,277939,1509044731758133373,base_footprint,0.0,0.0,0.0,0.0,-1.0,0.0,0.0,0.0,0.0,0.0,0.0,0.0,0.0,-0.0042,0.0,0.0004,0.0,0.0,0.0,0.0,0.0,0.0,0.0,0.0,0.0,0.38,0.27,-9.71,0.0,0.0,0.0,0.0,0.0,0.0,0.0,0.0,0.0
1509044731768236045,277940,1509044731768136465,base_footprint,0.0,0.0,0.0,0.0,-1.0,0.0,0.0,0.0,0.0,0.0,0.0,0.0,0.0,-0.0048,0.0,0.0006,0.0,0.0,0.0,0.0,0.0,0.0,0.0,0.0,0.0,0.39,0.25,-9.71,0.0,0.0,0.0,0.0,0.0,0.0,0.0,0.0,0.0
1509044731778258952,277941,1509044731778138441,base_footprint,0.0,0.0,0.0,0.0,-1.0,0.0,0.0,0.0,0.0,0.0,0.0,0.0,0.0,-0.0054,0.0,0.0006,0.0,0.0,0.0,0.0,0.0,0.0,0.0,0.0,0.0,0.41,0.25,-9.81,0.0,0.0,0.0,0.0,0.0,0.0,0.0,0.0,0.0
1509044731789213885,277942,1509044731789032286,base_footprint,0.0,0.0,0.0,0.0,-1.0,0.0,0.0,0.0,0.0,0.0,0.0,0.0,0.0,-0.0058,0.0,0.0006,0.0,0.0,0.0,0.0,0.0,0.0,0.0,0.0,0.0,0.43,0.25,-9.91,0.0,0.0,0.0,0.0,0.0,0.0,0.0,0.0,0.0
1509044731798293029,277943,1509044731798114687,base_footprint,0.0,0.0,0.0,0.0,-1.0,0.0,0.0,0.0,0.0,0.0,0.0,0.0,0.0,-0.0058,0.0,0.0002,0.0,0.0,0.0,0.0,0.0,0.0,0.0,0.0,0.0,0.47,0.25,-10.01,0.0,0.0,0.0,0.0,0.0,0.0,0.0,0.0,0.0
1509044731808767731,277944,1509044731808615582,base_footprint,0.0,0.0,0.0,0.0,-1.0,0.0,0.0,0.0,0.0,0.0,0.0,0.0,0.0,-0.006,0.0,0.0,0.0,0.0,0.0,0.0,0.0,0.0,0.0,0.0,0.0,0.54,0.27,-9.71,0.0,0.0,0.0,0.0,0.0,0.0,0.0,0.0,0.0
1509044731818742064,277945,1509044731818618664,base_footprint,0.0,0.0,0.0,0.0,-1.0,0.0,0.0,0.0,0.0,0.0,0.0,0.0,0.0,-0.0066,0.0,0.0,0.0,0.0,0.0,0.0,0.0,0.0,0.0,0.0,0.0,0.63,0.28,-10.1,0.0,0.0,0.0,0.0,0.0,0.0,0.0,0.0,0.0
1509044731828744716,277946,1509044731828618426,base_footprint,0.0,0.0,0.0,0.0,-1.0,0.0,0.0,0.0,0.0,0.0,0.0,0.0,0.0,-0.0062,0.0,0.0002,0.0,0.0,0.0,0.0,0.0,0.0,0.0,0.0,0.0,0.72,0.3,-9.81,0.0,0.0,0.0,0.0,0.0,0.0,0.0,0.0,0.0
1509044731838810571,277947,1509044731838620021,base_footprint,0.0,0.0,0.0,0.0,-1.0,0.0,0.0,0.0,0.0,0.0,0.0,0.0,0.0,-0.0048,0.0,0.0004,0.0,0.0,0.0,0.0,0.0,0.0,0.0,0.0,0.0,0.84,0.29,-9.81,0.0,0.0,0.0,0.0,0.0,0.0,0.0,0.0,0.0
1509044731850074097,277948,1509044731849936938,base_footprint,0.0,0.0,0.0,0.0,-1.0,0.0,0.0,0.0,0.0,0.0,0.0,0.0,0.0,-0.0036,0.0,0.0002,0.0,0.0,0.0,0.0,0.0,0.0,0.0,0.0,0.0,0.99,0.28,-10.01,0.0,0.0,0.0,0.0,0.0,0.0,0.0,0.0,0.0
1509044731858828928,277949,1509044731858622725,base_footprint,0.0,0.0,0.0,0.0,-1.0,0.0,0.0,0.0,0.0,0.0,0.0,0.0,0.0,-0.0034,0.0,0.0,0.0,0.0,0.0,0.0,0.0,0.0,0.0,0.0,0.0,1.2,0.27,-9.81,0.0,0.0,0.0,0.0,0.0,0.0,0.0,0.0,0.0
1509044731868832805,277950,1509044731868643027,base_footprint,0.0,0.0,0.0,0.0,-1.0,0.0,0.0,0.0,0.0,0.0,0.0,0.0,0.0,-0.0032,0.0,0.0,0.0,0.0,0.0,0.0,0.0,0.0,0.0,0.0,0.0,1.41,0.27,-9.71,0.0,0.0,0.0,0.0,0.0,0.0,0.0,0.0,0.0
1509044731878907740,277951,1509044731878736070,base_footprint,0.0,0.0,0.0,0.0,-1.0,0.0,0.0,0.0,0.0,0.0,0.0,0.0,0.0,-0.003,0.0,0.0008,0.0,0.0,0.0,0.0,0.0,0.0,0.0,0.0,0.0,1.56,0.28,-9.71,0.0,0.0,0.0,0.0,0.0,0.0,0.0,0.0,0.0
1509044731889251209,277952,1509044731889125870,base_footprint,0.0,0.0,0.0,0.0,-1.0,0.0,0.0,0.0,0.0,0.0,0.0,0.0,0.0,-0.0032,0.0,0.002,0.0,0.0,0.0,0.0,0.0,0.0,0.0,0.0,0.0,1.61,0.28,-10.01,0.0,0.0,0.0,0.0,0.0,0.0,0.0,0.0,0.0
1509044731898875582,277953,1509044731898627999,base_footprint,0.0,0.0,0.0,0.0,-1.0,0.0,0.0,0.0,0.0,0.0,0.0,0.0,0.0,-0.0038,0.0,0.0024,0.0,0.0,0.0,0.0,0.0,0.0,0.0,0.0,0.0,1.64,0.27,-10.01,0.0,0.0,0.0,0.0,0.0,0.0,0.0,0.0,0.0
1509044731908817570,277954,1509044731908712163,base_footprint,0.0,0.0,0.0,0.0,-1.0,0.0,0.0,0.0,0.0,0.0,0.0,0.0,0.0,-0.0038,0.0,0.0024,0.0,0.0,0.0,0.0,0.0,0.0,0.0,0.0,0.0,1.8,0.26,-9.71,0.0,0.0,0.0,0.0,0.0,0.0,0.0,0.0,0.0
1509044731918832768,277955,1509044731918712290,base_footprint,0.0,0.0,0.0,0.0,-1.0,0.0,0.0,0.0,0.0,0.0,0.0,0.0,0.0,-0.0036,0.0,0.0024,0.0,0.0,0.0,0.0,0.0,0.0,0.0,0.0,0.0,2.08,0.27,-9.71,0.0,0.0,0.0,0.0,0.0,0.0,0.0,0.0,0.0
1509044731928803348,277956,1509044731928712795,base_footprint,0.0,0.0,0.0,0.0,-1.0,0.0,0.0,0.0,0.0,0.0,0.0,0.0,0.0,-0.0036,0.0,0.0028,0.0,0.0,0.0,0.0,0.0,0.0,0.0,0.0,0.0,2.36,0.32,-9.71,0.0,0.0,0.0,0.0,0.0,0.0,0.0,0.0,0.0
1509044731938862156,277957,1509044731938714322,base_footprint,0.0,0.0,0.0,0.0,-1.0,0.0,0.0,0.0,0.0,0.0,0.0,0.0,0.0,-0.0038,0.0,0.0022,0.0,0.0,0.0,0.0,0.0,0.0,0.0,0.0,0.0,2.58,0.36,-9.91,0.0,0.0,0.0,0.0,0.0,0.0,0.0,0.0,0.0
1509044731948832545,277958,1509044731948713155,base_footprint,0.0,0.0,0.0,0.0,-1.0,0.0,0.0,0.0,0.0,0.0,0.0,0.0,0.0,-0.0046,0.0,0.001,0.0,0.0,0.0,0.0,0.0,0.0,0.0,0.0,0.0,2.74,0.34,-9.81,0.0,0.0,0.0,0.0,0.0,0.0,0.0,0.0,0.0
1509044731958835395,277959,1509044731958715367,base_footprint,0.0,0.0,0.0,0.0,-1.0,0.0,0.0,0.0,0.0,0.0,0.0,0.0,0.0,-0.0058,0.0,0.0002,0.0,0.0,0.0,0.0,0.0,0.0,0.0,0.0,0.0,2.83,0.29,-9.71,0.0,0.0,0.0,0.0,0.0,0.0,0.0,0.0,0.0
1509044731968815853,277960,1509044731968717254,base_footprint,0.0,0.0,0.0,0.0,-1.0,0.0,0.0,0.0,0.0,0.0,0.0,0.0,0.0,-0.007,0.0,0.0004,0.0,0.0,0.0,0.0,0.0,0.0,0.0,0.0,0.0,2.83,0.25,-9.81,0.0,0.0,0.0,0.0,0.0,0.0,0.0,0.0,0.0
1509044731979249177,277961,1509044731979164186,base_footprint,0.0,0.0,0.0,0.0,-1.0,0.0,0.0,0.0,0.0,0.0,0.0,0.0,0.0,-0.0074,0.0,0.0008,0.0,0.0,0.0,0.0,0.0,0.0,0.0,0.0,0.0,2.84,0.28,-9.71,0.0,0.0,0.0,0.0,0.0,0.0,0.0,0.0,0.0
1509044731989746533,277962,1509044731989641124,base_footprint,0.0,0.0,0.0,0.0,-1.0,0.0,0.0,0.0,0.0,0.0,0.0,0.0,0.0,-0.007,0.0,0.0006,0.0,0.0,0.0,0.0,0.0,0.0,0.0,0.0,0.0,2.91,0.33,-9.52,0.0,0.0,0.0,0.0,0.0,0.0,0.0,0.0,0.0
1509044731998836944,277963,1509044731998741811,base_footprint,0.0,0.0,0.0,0.0,-1.0,0.0,0.0,0.0,0.0,0.0,0.0,0.0,0.0,-0.0062,0.0,0.0004,0.0,0.0,0.0,0.0,0.0,0.0,0.0,0.0,0.0,3.02,0.36,-9.81,0.0,0.0,0.0,0.0,0.0,0.0,0.0,0.0,0.0
1509044732008978718,277964,1509044732008746352,base_footprint,0.0,0.0,0.0,0.0,-1.0,0.0,0.0,0.0,0.0,0.0,0.0,0.0,0.0,-0.0062,0.0,0.0002,0.0,0.0,0.0,0.0,0.0,0.0,0.0,0.0,0.0,3.12,0.35,-9.61,0.0,0.0,0.0,0.0,0.0,0.0,0.0,0.0,0.0
1509044732018828550,277965,1509044732018720347,base_footprint,0.0,0.0,0.0,0.0,-1.0,0.0,0.0,0.0,0.0,0.0,0.0,0.0,0.0,-0.006,0.0,0.0,0.0,0.0,0.0,0.0,0.0,0.0,0.0,0.0,0.0,3.2,0.32,-9.71,0.0,0.0,0.0,0.0,0.0,0.0,0.0,0.0,0.0
1509044732028838055,277966,1509044732028721075,base_footprint,0.0,0.0,0.0,0.0,-1.0,0.0,0.0,0.0,0.0,0.0,0.0,0.0,0.0,-0.0054,0.0,0.0,0.0,0.0,0.0,0.0,0.0,0.0,0.0,0.0,0.0,3.25,0.31,-9.81,0.0,0.0,0.0,0.0,0.0,0.0,0.0,0.0,0.0
1509044732038879886,277967,1509044732038730892,base_footprint,0.0,0.0,0.0,0.0,-1.0,0.0,0.0,0.0,0.0,0.0,0.0,0.0,0.0,-0.005,0.0,0.0,0.0,0.0,0.0,0.0,0.0,0.0,0.0,0.0,0.0,3.29,0.33,-10.01,0.0,0.0,0.0,0.0,0.0,0.0,0.0,0.0,0.0
1509044732048849241,277968,1509044732048726065,base_footprint,0.0,0.0,0.0,0.0,-1.0,0.0,0.0,0.0,0.0,0.0,0.0,0.0,0.0,-0.005,0.0,-0.0002,0.0,0.0,0.0,0.0,0.0,0.0,0.0,0.0,0.0,3.32,0.35,-9.91,0.0,0.0,0.0,0.0,0.0,0.0,0.0,0.0,0.0
1509044732058865582,277969,1509044732058742273,base_footprint,0.0,0.0,0.0,0.0,-1.0,0.0,0.0,0.0,0.0,0.0,0.0,0.0,0.0,-0.0048,0.0,-0.0004,0.0,0.0,0.0,0.0,0.0,0.0,0.0,0.0,0.0,3.34,0.34,-9.61,0.0,0.0,0.0,0.0,0.0,0.0,0.0,0.0,0.0
1509044732068887291,277970,1509044732068757082,base_footprint,0.0,0.0,0.0,0.0,-1.0,0.0,0.0,0.0,0.0,0.0,0.0,0.0,0.0,-0.0042,0.0,-0.0004,0.0,0.0,0.0,0.0,0.0,0.0,0.0,0.0,0.0,3.32,0.31,-9.91,0.0,0.0,0.0,0.0,0.0,0.0,0.0,0.0,0.0
1509044732079219061,277971,1509044732079069864,base_footprint,0.0,0.0,0.0,0.0,-1.0,0.0,0.0,0.0,0.0,0.0,0.0,0.0,0.0,-0.0032,0.0,-0.0006,0.0,0.0,0.0,0.0,0.0,0.0,0.0,0.0,0.0,3.28,0.27,-9.81,0.0,0.0,0.0,0.0,0.0,0.0,0.0,0.0,0.0
1509044732090946164,277972,1509044732090767921,base_footprint,0.0,0.0,0.0,0.0,-1.0,0.0,0.0,0.0,0.0,0.0,0.0,0.0,0.0,-0.0024,0.0,-0.0012,0.0,0.0,0.0,0.0,0.0,0.0,0.0,0.0,0.0,3.27,0.29,-10.01,0.0,0.0,0.0,0.0,0.0,0.0,0.0,0.0,0.0
1509044732099273438,277973,1509044732099105029,base_footprint,0.0,0.0,0.0,0.0,-1.0,0.0,0.0,0.0,0.0,0.0,0.0,0.0,0.0,-0.001,0.0,-0.0026,0.0,0.0,0.0,0.0,0.0,0.0,0.0,0.0,0.0,3.31,0.37,-9.71,0.0,0.0,0.0,0.0,0.0,0.0,0.0,0.0,0.0
1509044732109236692,277974,1509044732109079801,base_footprint,0.0,0.0,0.0,0.0,-1.0,0.0,0.0,0.0,0.0,0.0,0.0,0.0,0.0,0.0,0.0,-0.0046,0.0,0.0,0.0,0.0,0.0,0.0,0.0,0.0,0.0,3.31,0.42,-10.1,0.0,0.0,0.0,0.0,0.0,0.0,0.0,0.0,0.0
1509044732119269159,277975,1509044732119099920,base_footprint,0.0,0.0,0.0,0.0,-1.0,0.0,0.0,0.0,0.0,0.0,0.0,0.0,0.0,0.0,0.0,-0.006,0.0,0.0,0.0,0.0,0.0,0.0,0.0,0.0,0.0,3.26,0.38,-9.81,0.0,0.0,0.0,0.0,0.0,0.0,0.0,0.0,0.0
1509044732129310729,277976,1509044732129199199,base_footprint,0.0,0.0,0.0,0.0,-1.0,0.0,0.0,0.0,0.0,0.0,0.0,0.0,0.0,-0.001,0.0,-0.0054,0.0,0.0,0.0,0.0,0.0,0.0,0.0,0.0,0.0,3.22,0.34,-10.01,0.0,0.0,0.0,0.0,0.0,0.0,0.0,0.0,0.0
1509044732139241768,277977,1509044732139083516,base_footprint,0.0,0.0,0.0,0.0,-1.0,0.0,0.0,0.0,0.0,0.0,0.0,0.0,0.0,-0.0018,0.0,-0.004,0.0,0.0,0.0,0.0,0.0,0.0,0.0,0.0,0.0,3.25,0.37,-9.91,0.0,0.0,0.0,0.0,0.0,0.0,0.0,0.0,0.0
1509044732149302360,277978,1509044732149109011,base_footprint,0.0,0.0,0.0,0.0,-1.0,0.0,0.0,0.0,0.0,0.0,0.0,0.0,0.0,-0.0028,0.0,-0.003,0.0,0.0,0.0,0.0,0.0,0.0,0.0,0.0,0.0,3.39,0.41,-9.91,0.0,0.0,0.0,0.0,0.0,0.0,0.0,0.0,0.0
1509044732159396418,277979,1509044732159236293,base_footprint,0.0,0.0,0.0,0.0,-1.0,0.0,0.0,0.0,0.0,0.0,0.0,0.0,0.0,-0.0034,0.0,-0.0026,0.0,0.0,0.0,0.0,0.0,0.0,0.0,0.0,0.0,3.55,0.43,-9.91,0.0,0.0,0.0,0.0,0.0,0.0,0.0,0.0,0.0
1509044732169282020,277980,1509044732169163454,base_footprint,0.0,0.0,0.0,0.0,-1.0,0.0,0.0,0.0,0.0,0.0,0.0,0.0,0.0,-0.0036,0.0,-0.0022,0.0,0.0,0.0,0.0,0.0,0.0,0.0,0.0,0.0,3.64,0.41,-10.01,0.0,0.0,0.0,0.0,0.0,0.0,0.0,0.0,0.0
1509044732179951350,277981,1509044732179166698,base_footprint,0.0,0.0,0.0,0.0,-1.0,0.0,0.0,0.0,0.0,0.0,0.0,0.0,0.0,-0.0032,0.0,-0.002,0.0,0.0,0.0,0.0,0.0,0.0,0.0,0.0,0.0,3.65,0.37,-10.2,0.0,0.0,0.0,0.0,0.0,0.0,0.0,0.0,0.0
1509044732190894506,277982,1509044732190748052,base_footprint,0.0,0.0,0.0,0.0,-1.0,0.0,0.0,0.0,0.0,0.0,0.0,0.0,0.0,-0.003,0.0,-0.0022,0.0,0.0,0.0,0.0,0.0,0.0,0.0,0.0,0.0,3.67,0.35,-10.2,0.0,0.0,0.0,0.0,0.0,0.0,0.0,0.0,0.0
1509044732199307496,277983,1509044732199192789,base_footprint,0.0,0.0,0.0,0.0,-1.0,0.0,0.0,0.0,0.0,0.0,0.0,0.0,0.0,-0.0028,0.0,-0.0026,0.0,0.0,0.0,0.0,0.0,0.0,0.0,0.0,0.0,3.73,0.39,-10.2,0.0,0.0,0.0,0.0,0.0,0.0,0.0,0.0,0.0
1509044732209511245,277984,1509044732209170147,base_footprint,0.0,0.0,0.0,0.0,-1.0,0.0,0.0,0.0,0.0,0.0,0.0,0.0,0.0,-0.0024,0.0,-0.0038,0.0,0.0,0.0,0.0,0.0,0.0,0.0,0.0,0.0,3.75,0.46,-10.1,0.0,0.0,0.0,0.0,0.0,0.0,0.0,0.0,0.0
1509044732219511395,277985,1509044732219280163,base_footprint,0.0,0.0,0.0,0.0,-1.0,0.0,0.0,0.0,0.0,0.0,0.0,0.0,0.0,-0.0018,0.0,-0.0058,0.0,0.0,0.0,0.0,0.0,0.0,0.0,0.0,0.0,3.69,0.5,-10.3,0.0,0.0,0.0,0.0,0.0,0.0,0.0,0.0,0.0
1509044732229410995,277986,1509044732229260527,base_footprint,0.0,0.0,0.0,0.0,-1.0,0.0,0.0,0.0,0.0,0.0,0.0,0.0,0.0,-0.0014,0.0,-0.007,0.0,0.0,0.0,0.0,0.0,0.0,0.0,0.0,0.0,3.56,0.48,-10.3,0.0,0.0,0.0,0.0,0.0,0.0,0.0,0.0,0.0
1509044732239321321,277987,1509044732239230676,base_footprint,0.0,0.0,0.0,0.0,-1.0,0.0,0.0,0.0,0.0,0.0,0.0,0.0,0.0,-0.0018,0.0,-0.0066,0.0,0.0,0.0,0.0,0.0,0.0,0.0,0.0,0.0,3.41,0.45,-10.4,0.0,0.0,0.0,0.0,0.0,0.0,0.0,0.0,0.0
1509044732249294928,277988,1509044732249174241,base_footprint,0.0,0.0,0.0,0.0,-1.0,0.0,0.0,0.0,0.0,0.0,0.0,0.0,0.0,-0.003,0.0,-0.0066,0.0,0.0,0.0,0.0,0.0,0.0,0.0,0.0,0.0,3.33,0.5,-10.1,0.0,0.0,0.0,0.0,0.0,0.0,0.0,0.0,0.0
1509044732259297390,277989,1509044732259198214,base_footprint,0.0,0.0,0.0,0.0,-1.0,0.0,0.0,0.0,0.0,0.0,0.0,0.0,0.0,-0.005,0.0,-0.0072,0.0,0.0,0.0,0.0,0.0,0.0,0.0,0.0,0.0,3.36,0.56,-9.81,0.0,0.0,0.0,0.0,0.0,0.0,0.0,0.0,0.0
1509044732269802086,277990,1509044732269675743,base_footprint,0.0,0.0,0.0,0.0,-1.0,0.0,0.0,0.0,0.0,0.0,0.0,0.0,0.0,-0.0066,0.0,-0.0076,0.0,0.0,0.0,0.0,0.0,0.0,0.0,0.0,0.0,3.47,0.55,-10.1,0.0,0.0,0.0,0.0,0.0,0.0,0.0,0.0,0.0
