%time,field.header.seq,field.header.stamp,field.header.frame_id,field.brake_torque_request,field.brake_torque_actual,field.wheel_torque_actual,field.accel_over_ground,field.hsa.status,field.hsa.mode,field.abs_active,field.abs_enabled,field.stab_active,field.stab_enabled,field.trac_active,field.trac_enabled,field.parking_brake.status,field.stationary
1509044729571673362,139195,1509044729570325855,,520.0,460.0,0.0,0.0,0,1,0,1,0,1,0,1,0,1
1509044729590491030,139196,1509044729590329777,,520.0,460.0,0.0,0.0,0,1,0,1,0,1,0,1,0,1
1509044729611860073,139197,1509044729610330922,,520.0,460.0,4.0,0.0,0,1,0,1,0,1,0,1,0,1
1509044729633864161,139198,1509044729630331715,,520.0,460.0,0.0,0.0,0,1,0,1,0,1,0,1,0,1
1509044729650770886,139199,1509044729650332319,,520.0,460.0,0.0,0.0,0,1,0,1,0,1,0,1,0,1
1509044729671221720,139200,1509044729670340901,,520.0,460.0,0.0,0.0,0,1,0,1,0,1,0,1,0,1
1509044729690543974,139201,1509044729690337424,,520.0,460.0,4.0,0.0,0,1,0,1,0,1,0,1,0,1
1509044729710546357,139202,1509044729710337611,,520.0,460.0,0.0,0.0,0,1,0,1,0,1,0,1,0,1
1509044729730556543,139203,1509044729730347046,,520.0,460.0,0.0,0.0,0,1,0,1,0,1,0,1,0,1
1509044729754090697,139204,1509044729750350412,,520.0,460.0,0.0,0.0,0,1,0,1,0,1,0,1,0,1
1509044729770762589,139205,1509044729770357064,,520.0,460.0,0.0,0.0,0,1,0,1,0,1,0,1,0,1
1509044729790906568,139206,1509044729790356452,,520.0,460.0,0.0,0.0,0,1,0,1,0,1,0,1,0,1
1509044729810544302,139207,1509044729810361623,,520.0,460.0,0.0,0.0,0,1,0,1,0,1,0,1,0,1
1509044729830542401,139208,1509044729830360876,,520.0,460.0,0.0,0.0,0,1,0,1,0,1,0,1,0,1
1509044729850583229,139209,1509044729850365868,,520.0,460.0,0.0,0.0,0,1,0,1,0,1,0,1,0,1
1509044729870574263,139210,1509044729870368016,,520.0,460.0,0.0,0.0,0,1,0,1,0,1,0,1,0,1
1509044729890668089,139211,1509044729890376424,,520.0,460.0,0.0,0.0,0,1,0,1,0,1,0,1,0,1
1509044729910798320,139212,1509044729910405023,,520.0,460.0,0.0,0.0,0,1,0,1,0,1,0,1,0,1
1509044729934575462,139213,1509044729933759322,,520.0,460.0,0.0,0.0,0,1,0,1,0,1,0,1,0,1
1509044729950782543,139214,1509044729950398129,,520.0,460.0,4.0,0.0,0,1,0,1,0,1,0,1,0,1
1509044729970682255,139215,1509044729970413582,,520.0,460.0,0.0,0.0,0,1,0,1,0,1,0,1,0,1
1509044729990622168,139216,1509044729990386387,,520.0,460.0,0.0,0.0,0,1,0,1,0,1,0,1,0,1
1509044730012132909,139217,1509044730010387631,,520.0,460.0,0.0,0.0,0,1,0,1,0,1,0,1,0,1
1509044730030666646,139218,1509044730030391056,,520.0,460.0,0.0,0.0,0,1,0,1,0,1,0,1,0,1
1509044730050610327,139219,1509044730050391304,,520.0,460.0,0.0,0.0,0,1,0,1,0,1,0,1,0,1
1509044730070876731,139220,1509044730070685656,,520.0,460.0,4.0,0.0,0,1,0,1,0,1,0,1,0,1
1509044730090524563,139221,1509044730090387394,,520.0,460.0,4.0,0.0,0,1,0,1,0,1,0,1,0,1
1509044730110567494,139222,1509044730110394762,,520.0,460.0,0.0,0.0,0,1,0,1,0,1,0,1,0,1
1509044730130659920,139223,1509044730130396636,,520.0,460.0,0.0,0.0,0,1,0,1,0,1,0,1,0,1
1509044730150571026,139224,1509044730150402002,,520.0,460.0,0.0,0.0,0,1,0,1,0,1,0,1,0,1
1509044730172776360,139225,1509044730170405106,,520.0,460.0,0.0,0.0,0,1,0,1,0,1,0,1,0,1
1509044730190572913,139226,1509044730190403314,,520.0,460.0,0.0,0.0,0,1,0,1,0,1,0,1,0,1
1509044730210587026,139227,1509044730210409335,,520.0,460.0,0.0,0.0,0,1,0,1,0,1,0,1,0,1
1509044730231321495,139228,1509044730230435791,,520.0,460.0,0.0,0.0,0,1,0,1,0,1,0,1,0,1
1509044730250581764,139229,1509044730250414559,,520.0,460.0,0.0,0.0,0,1,0,1,0,1,0,1,0,1
1509044730270591903,139230,1509044730270429354,,520.0,460.0,0.0,0.0,0,1,0,1,0,1,0,1,0,1
1509044730290572669,139231,1509044730290415511,,520.0,460.0,0.0,0.0,0,1,0,1,0,1,0,1,0,1
1509044730310657391,139232,1509044730310424946,,520.0,460.0,0.0,0.0,0,1,0,1,0,1,0,1,0,1
1509044730330595481,139233,1509044730330420618,,520.0,460.0,0.0,0.0,0,1,0,1,0,1,0,1,0,1
1509044730350652947,139234,1509044730350425812,,520.0,460.0,0.0,0.0,0,1,0,1,0,1,0,1,0,1
1509044730370754381,139235,1509044730370462775,,520.0,460.0,0.0,0.0,0,1,0,1,0,1,0,1,0,1
1509044730390601633,139236,1509044730390434534,,520.0,460.0,0.0,0.0,0,1,0,1,0,1,0,1,0,1
1509044730410669792,139237,1509044730410462450,,520.0,460.0,0.0,0.0,0,1,0,1,0,1,0,1,0,1
1509044730430609034,139238,1509044730430477725,,520.0,460.0,0.0,0.0,0,1,0,1,0,1,0,1,0,1
1509044730450658006,139239,1509044730450462880,,520.0,460.0,0.0,0.0,0,1,0,1,0,1,0,1,0,1
1509044730470603176,139240,1509044730470448409,,520.0,460.0,0.0,0.0,0,1,0,1,0,1,0,1,0,1
1509044730490600154,139241,1509044730490443272,,520.0,460.0,4.0,0.0,0,1,0,1,0,1,0,1,0,1
1509044730510614266,139242,1509044730510445689,,520.0,460.0,4.0,0.0,0,1,0,1,0,1,0,1,0,1
1509044730531022289,139243,1509044730530896717,,520.0,460.0,4.0,0.0,0,1,0,1,0,1,0,1,0,1
1509044730550661524,139244,1509044730550457842,,520.0,460.0,0.0,0.0,0,1,0,1,0,1,0,1,0,1
1509044730570886095,139245,1509044730570522600,,520.0,460.0,-4.0,0.0,0,1,0,1,0,1,0,1,0,1
1509044730590700942,139246,1509044730590453136,,520.0,460.0,0.0,0.0,0,1,0,1,0,1,0,1,0,1
1509044730610949517,139247,1509044730610564169,,520.0,460.0,0.0,0.0,0,1,0,1,0,1,0,1,0,1
1509044730630637267,139248,1509044730630456643,,520.0,460.0,0.0,0.0,0,1,0,1,0,1,0,1,0,1
1509044730650690338,139249,1509044730650474966,,520.0,460.0,0.0,0.0,0,1,0,1,0,1,0,1,0,1
1509044730672295070,139250,1509044730670487731,,520.0,460.0,-4.0,0.0,0,1,0,1,0,1,0,1,0,1
1509044730690675339,139251,1509044730690474776,,520.0,460.0,0.0,0.0,0,1,0,1,0,1,0,1,0,1
1509044730710847731,139252,1509044730710478056,,520.0,460.0,4.0,0.0,0,1,0,1,0,1,0,1,0,1
1509044730731017449,139253,1509044730730480392,,520.0,460.0,4.0,0.0,0,1,0,1,0,1,0,1,0,1
1509044730750674053,139254,1509044730750503081,,520.0,460.0,0.0,0.0,0,1,0,1,0,1,0,1,0,1
1509044730770798853,139255,1509044730770512629,,520.0,460.0,-4.0,0.0,0,1,0,1,0,1,0,1,0,1
1509044730790742730,139256,1509044730790514110,,520.0,460.0,0.0,0.0,0,1,0,1,0,1,0,1,0,1
1509044730810722668,139257,1509044730810492163,,520.0,460.0,4.0,0.0,0,1,0,1,0,1,0,1,0,1
1509044730830664279,139258,1509044730830513822,,520.0,460.0,4.0,0.0,0,1,0,1,0,1,0,1,0,1
1509044730850690763,139259,1509044730850513535,,520.0,460.0,0.0,0.0,0,1,0,1,0,1,0,1,0,1
1509044730870649414,139260,1509044730870494962,,520.0,460.0,-4.0,0.0,0,1,0,1,0,1,0,1,0,1
1509044730890624303,139261,1509044730890493112,,520.0,460.0,4.0,0.0,0,1,0,1,0,1,0,1,0,1
1509044730911106552,139262,1509044730910534029,,520.0,464.0,4.0,0.0,0,1,0,1,0,1,0,1,0,1
1509044730930855548,139263,1509044730930531234,,520.0,460.0,0.0,0.0,0,1,0,1,0,1,0,1,0,1
1509044730950687046,139264,1509044730950502100,,520.0,460.0,0.0,0.0,0,1,0,1,0,1,0,1,0,1
1509044730970668161,139265,1509044730970525878,,448.0,460.0,-4.0,0.0,0,1,0,1,0,1,0,1,0,1
1509044730990682601,139266,1509044730990511618,,248.0,460.0,0.0,0.0,0,1,0,1,0,1,0,1,0,1
1509044731010682497,139267,1509044731010530523,,72.0,460.0,4.0,0.0,0,1,0,1,0,1,0,1,0,1
1509044731030684900,139268,1509044731030535839,,0.0,460.0,0.0,0.0,0,1,0,1,0,1,0,1,0,1
1509044731050628219,139269,1509044731050533410,,0.0,456.0,4.0,0.0,0,1,0,1,0,1,0,1,0,1
1509044731070729591,139270,1509044731070540854,,0.0,448.0,8.0,0.0,0,1,0,1,0,1,0,1,0,1
1509044731090620905,139271,1509044731090521788,,0.0,412.0,16.0,0.0,0,1,0,1,0,1,0,1,0,1
1509044731110731798,139272,1509044731110530868,,0.0,364.0,28.0,0.0,0,1,0,1,0,1,0,1,0,1
1509044731130662878,139273,1509044731130524560,,0.0,304.0,44.0,0.0,0,1,0,1,0,1,0,1,0,1
1509044731150687666,139274,1509044731150524265,,0.0,256.0,64.0,0.0,0,1,0,1,0,1,0,1,0,1
1509044731170678457,139275,1509044731170554516,,0.0,220.0,92.0,0.0,0,1,0,1,0,1,0,1,0,1
1509044731190769723,139276,1509044731190535751,,0.0,192.0,120.0,0.0,0,1,0,1,0,1,0,1,0,1
1509044731210666066,139277,1509044731210554352,,0.0,168.0,148.0,0.0,0,1,0,1,0,1,0,1,0,1
1509044731230836798,139278,1509044731230543771,,0.0,148.0,172.0,0.0,0,1,0,1,0,1,0,1,0,1
1509044731250713534,139279,1509044731250548429,,0.0,136.0,184.0,0.0,0,1,0,1,0,1,0,1,0,1
1509044731270704599,139280,1509044731270568476,,0.0,124.0,200.0,0.0,0,1,0,1,0,1,0,1,0,1
1509044731290679547,139281,1509044731290570455,,0.0,120.0,208.0,0.0,0,1,0,1,0,1,0,1,0,1
1509044731311168567,139282,1509044731310653797,,0.0,112.0,220.0,0.0,0,1,0,1,0,1,0,1,0,1
1509044731330670701,139283,1509044731330555780,,0.0,104.0,236.0,0.0,0,1,0,1,0,1,0,1,0,1
1509044731350778319,139284,1509044731350577067,,0.0,100.0,252.0,0.0,0,1,0,1,0,1,0,1,0,1
1509044731370843381,139285,1509044731370577465,,0.0,92.0,260.0,0.0,0,1,0,1,0,1,0,1,0,1
1509044731390716044,139286,1509044731390561874,,0.0,88.0,268.0,0.0,0,1,0,1,0,1,0,1,0,1
1509044731410708376,139287,1509044731410590629,,0.0,80.0,272.0,0.0,0,1,0,1,0,1,0,1,0,1
1509044731430784439,139288,1509044731430653548,,0.0,76.0,280.0,0.0,0,1,0,1,0,1,0,1,0,1
1509044731450745854,139289,1509044731450618405,,0.0,72.0,292.0,0.0,0,1,0,1,0,1,0,1,0,1
1509044731470801091,139290,1509044731470572246,,0.0,68.0,300.0,0.0,0,1,0,1,0,1,0,1,0,1
1509044731490703946,139291,1509044731490573581,,0.0,64.0,308.0,0.0,0,1,0,1,0,1,0,1,0,1
1509044731511175508,139292,1509044731510585726,,0.0,60.0,316.0,0.0,0,1,0,1,0,1,0,1,0,1
1509044731531660170,139293,1509044731530997540,,0.0,56.0,328.0,0.0,0,1,0,1,0,1,0,1,0,0
1509044731550745759,139294,1509044731550579559,,0.0,52.0,332.0,0.0,0,1,0,1,0,1,0,1,0,0
1509044731570790203,139295,1509044731570630531,,0.0,48.0,332.0,0.0,0,1,0,1,0,1,0,1,0,0
1509044731590684535,139296,1509044731590584464,,0.0,48.0,332.0,0.0,0,1,0,1,0,1,0,1,0,0
1509044731610836815,139297,1509044731610618078,,0.0,44.0,340.0,0.0,0,1,0,1,0,1,0,1,0,0
1509044731630792390,139298,1509044731630629099,,0.0,40.0,344.0,0.0,0,1,0,1,0,1,0,1,0,0
1509044731650771508,139299,1509044731650601304,,0.0,40.0,352.0,0.0,0,1,0,1,0,1,0,1,0,0
1509044731670888025,139300,1509044731670601956,,0.0,36.0,360.0,0.0,0,1,0,1,0,1,0,1,0,0
1509044731690810644,139301,1509044731690600663,,0.0,36.0,356.0,0.0,0,1,0,1,0,1,0,1,0,0
1509044731712923677,139302,1509044731710615707,,0.0,36.0,360.0,0.0,0,1,0,1,0,1,0,1,0,0
1509044731730827828,139303,1509044731730604344,,0.0,32.0,372.0,0.0,0,1,0,1,0,1,0,1,0,0
1509044731750829351,139304,1509044731750634412,,0.0,32.0,380.0,0.0,0,1,0,1,0,1,0,1,0,0
1509044731770758166,139305,1509044731770635125,,0.0,28.0,404.0,0.0,0,1,0,1,0,1,0,1,0,0
1509044731790847083,139306,1509044731790613349,,0.0,28.0,452.0,0.0,0,1,0,1,0,1,0,1,0,0
1509044731810738894,139307,1509044731810616556,,0.0,24.0,524.0,0.0,0,1,0,1,0,1,0,1,0,0
1509044731830831326,139308,1509044731830683070,,0.0,24.0,628.0,0.0,0,1,0,1,0,1,0,1,0,0
1509044731850717524,139309,1509044731850617814,,0.0,24.0,796.0,0.0,0,1,0,1,0,1,0,1,0,0
1509044731870861026,139310,1509044731870645620,,0.0,20.0,992.0,0.0,0,1,0,1,0,1,0,1,0,0
1509044731890777943,139311,1509044731890646712,,0.0,20.0,1208.0,0.0,0,1,0,1,0,1,0,1,0,0
1509044731910950176,139312,1509044731910639378,,0.0,20.0,1444.0,0.0,0,1,0,1,0,1,0,1,0,0
1509044731930188743,139313,1509044731930051488,,0.0,20.0,1640.0,0.0,0,1,0,1,0,1,0,1,0,0
1509044731950766905,139314,1509044731950653237,,0.0,16.0,1828.0,0.0,0,1,0,1,0,1,0,1,0,0
1509044731970732924,139315,1509044731970640164,,0.0,16.0,2004.0,0.0,0,1,0,1,0,1,0,1,0,0
1509044731990744971,139316,1509044731990640748,,0.0,16.0,2124.0,0.0,0,1,0,1,0,1,0,1,0,0
1509044732010330252,139317,1509044732010082939,,0.0,16.0,2220.0,0.0,0,1,0,1,0,1,0,1,0,0
1509044732030189295,139318,1509044732030060571,,0.0,16.0,2336.0,0.209999993443,0,1,0,1,0,1,0,1,0,0
1509044732050194183,139319,1509044732050068710,,0.0,12.0,2420.0,0.34999999404,0,1,0,1,0,1,0,1,0,0
1509044732070225084,139320,1509044732070095967,,0.0,12.0,2476.0,0.875,0,1,0,1,0,1,0,1,0,0
1509044732090867561,139321,1509044732090683188,,0.0,12.0,2492.0,1.22500002384,0,1,0,1,0,1,0,1,0,0
1509044732111027619,139322,1509044732110105684,,0.0,12.0,2444.0,1.39999997616,0,1,0,1,0,1,0,1,0,0
1509044732130233188,139323,1509044732130076534,,0.0,12.0,2464.0,1.57500004768,0,1,0,1,0,1,0,1,0,0
1509044732150882867,139324,1509044732150692205,,0.0,12.0,2508.0,1.75,0,1,0,1,0,1,0,1,0,0
1509044732170862825,139325,1509044732170686020,,0.0,8.0,2576.0,1.88999998569,0,1,0,1,0,1,0,1,0,0
1509044732190877696,139326,1509044732190695432,,0.0,8.0,2636.0,2.02999997139,0,1,0,1,0,1,0,1,0,0
1509044732210183947,139327,1509044732210087102,,0.0,8.0,2648.0,2.20499992371,0,1,0,1,0,1,0,1,0,0
1509044732230234270,139328,1509044732230109020,,0.0,8.0,2616.0,2.34500002861,0,1,0,1,0,1,0,1,0,0
1509044732250213803,139329,1509044732250089438,,0.0,8.0,2540.0,2.4849998951,0,1,0,1,0,1,0,1,0,0
1509044732270812612,139330,1509044732270697499,,0.0,8.0,2472.0,2.58999991417,0,1,0,1,0,1,0,1,0,0
1509044732290863724,139331,1509044732290708314,,0.0,8.0,2480.0,2.66000008583,0,1,0,1,0,1,0,1,0,0
1509044732312595235,139332,1509044732310775443,,0.0,8.0,2544.0,2.7650001049,0,1,0,1,0,1,0,1,0,0
1509044732330811068,139333,1509044732330687415,,0.0,8.0,2576.0,2.83500003815,0,1,0,1,0,1,0,1,0,0
1509044732350965270,139334,1509044732350712429,,0.0,4.0,2532.0,2.90499997139,0,1,0,1,0,1,0,1,0,0
1509044732370889560,139335,1509044732370709258,,0.0,4.0,2452.0,2.97499990463,0,1,0,1,0,1,0,1,0,0
1509044732390931960,139336,1509044732390722199,,0.0,4.0,2464.0,3.04500007629,0,1,0,1,0,1,0,1,0,0
1509044732410290806,139337,1509044732410121824,,0.0,4.0,2568.0,3.07999992371,0,1,0,1,0,1,0,1,0,0
1509044732430844480,139338,1509044732430701269,,0.0,4.0,2640.0,3.11500000954,0,1,0,1,0,1,0,1,0,0
1509044732451360807,139339,1509044732450698541,,0.0,4.0,2596.0,3.15000009537,0,1,0,1,0,1,0,1,0,0
1509044732470899512,139340,1509044732470731259,,0.0,4.0,2452.0,3.18499994278,0,1,0,1,0,1,0,1,0,0
1509044732491439791,139341,1509044732491151836,,0.0,4.0,2232.0,3.22000002861,0,1,0,1,0,1,0,1,0,0
1509044732511781941,139342,1509044732511421199,,0.0,4.0,2168.0,3.25500011444,0,1,0,1,0,1,1,1,0,0
1509044732530348134,139343,1509044732530162373,,0.0,16.0,2284.0,3.22000002861,0,1,0,1,0,1,1,1,0,0
1509044732550866630,139344,1509044732550733046,,28.0,48.0,2344.0,3.22000002861,0,1,0,1,0,1,1,1,0,0
1509044732570856780,139345,1509044732570720693,,64.0,56.0,2376.0,3.18499994278,0,1,0,1,0,1,1,1,0,0
1509044732591427137,139346,1509044732591174695,,76.0,68.0,2360.0,3.22000002861,0,1,0,1,0,1,1,1,0,0
1509044732610945862,139347,1509044732610731551,,88.0,72.0,2380.0,3.18499994278,0,1,0,1,0,1,1,1,0,0
1509044732631030331,139348,1509044732630822299,,88.0,76.0,2404.0,3.18499994278,0,1,0,1,0,1,1,1,0,0
1509044732650935103,139349,1509044732650749903,,64.0,84.0,2340.0,3.18499994278,0,1,0,1,0,1,1,1,0,0
1509044732670932125,139350,1509044732670760798,,0.0,88.0,2136.0,3.18499994278,0,1,0,1,0,1,1,1,0,0
1509044732691455490,139351,1509044732691184559,,0.0,88.0,1856.0,3.18499994278,0,1,0,1,0,1,1,1,0,0
1509044732712097027,139352,1509044732710745666,,0.0,92.0,1680.0,3.22000002861,0,1,0,1,0,1,0,1,0,0
1509044732730898407,139353,1509044732730743120,,0.0,92.0,1592.0,3.22000002861,0,1,0,1,0,1,0,1,0,0
1509044732750921652,139354,1509044732750788108,,0.0,92.0,1492.0,3.18499994278,0,1,0,1,0,1,0,1,0,0
1509044732770354346,139355,1509044732770212596,,0.0,92.0,1364.0,3.15000009537,0,1,0,1,0,1,0,1,0,0
1509044732790923640,139356,1509044732790766565,,0.0,96.0,1136.0,3.07999992371,0,1,0,1,0,1,0,1,0,0
1509044732810335706,139357,1509044732810172744,,0.0,96.0,872.0,2.94000005722,0,1,0,1,0,1,0,1,0,0
1509044732830333262,139358,1509044732830200654,,0.0,92.0,672.0,2.7650001049,0,1,0,1,0,1,0,1,0,0
1509044732850364205,139359,1509044732850197340,,0.0,92.0,536.0,2.55500006676,0,1,0,1,0,1,0,1,0,0
1509044732870376500,139360,1509044732870207919,,0.0,84.0,496.0,2.27500009537,0,1,0,1,0,1,0,1,0,0
1509044732890329792,139361,1509044732890185498,,0.0,80.0,496.0,2.02999997139,0,1,0,1,0,1,0,1,0,0
1509044732910446179,139362,1509044732910222015,,0.0,72.0,496.0,1.85500001907,0,1,0,1,0,1,0,1,0,0
1509044732930902186,139363,1509044732930768385,,0.0,68.0,504.0,1.75,0,1,0,1,0,1,0,1,0,0
1509044732951023727,139364,1509044732950815862,,0.0,64.0,480.0,1.61000001431,0,1,0,1,0,1,0,1,0,0
1509044732970379787,139365,1509044732970220217,,0.0,60.0,448.0,1.47000002861,0,1,0,1,0,1,0,1,0,0
1509044732990964591,139366,1509044732990796194,,0.0,56.0,408.0,1.33000004292,0,1,0,1,0,1,0,1,0,0
1509044733010350633,139367,1509044733010195234,,0.0,52.0,356.0,1.22500002384,0,1,0,1,0,1,0,1,0,0
1509044733030444040,139368,1509044733030249737,,0.0,48.0,316.0,1.15499997139,0,1,0,1,0,1,0,1,0,0
1509044733050418485,139369,1509044733050255332,,0.0,48.0,296.0,1.08500003815,0,1,0,1,0,1,0,1,0,0
1509044733070412882,139370,1509044733070212023,,0.0,44.0,292.0,1.01499998569,0,1,0,1,0,1,0,1,0,0
1509044733090467544,139371,1509044733090234571,,0.0,40.0,296.0,0.910000026226,0,1,0,1,0,1,0,1,0,0
1509044733110966378,139372,1509044733110546760,,0.0,36.0,276.0,0.839999973774,0,1,0,1,0,1,0,1,0,0
1509044733130393398,139373,1509044733130265210,,0.0,36.0,268.0,0.769999980927,0,1,0,1,0,1,0,1,0,0
1509044733150358793,139374,1509044733150240452,,0.0,32.0,256.0,0.735000014305,0,1,0,1,0,1,0,1,0,0
1509044733170420076,139375,1509044733170218425,,0.0,32.0,240.0,0.699999988079,0,1,0,1,0,1,0,1,0,0
1509044733190998547,139376,1509044733190826392,,0.0,28.0,232.0,0.665000021458,0,1,0,1,0,1,0,1,0,0
1509044733210486116,139377,1509044733210247352,,0.0,28.0,224.0,0.629999995232,0,1,0,1,0,1,0,1,0,0
1509044733230452194,139378,1509044733230251689,,0.0,28.0,216.0,0.560000002384,0,1,0,1,0,1,0,1,0,0
1509044733250350583,139379,1509044733250227362,,0.0,24.0,204.0,0.524999976158,0,1,0,1,0,1,0,1,0,0
1509044733270460380,139380,1509044733270281921,,0.0,24.0,208.0,0.490000009537,0,1,0,1,0,1,0,1,0,0
1509044733290568085,139381,1509044733290391074,,0.0,24.0,200.0,0.490000009537,0,1,0,1,0,1,0,1,0,0
1509044733311223417,139382,1509044733310959620,,0.0,20.0,192.0,0.455000013113,0,1,0,1,0,1,0,1,0,0
1509044733330372445,139383,1509044733330237649,,0.0,20.0,192.0,0.419999986887,0,1,0,1,0,1,0,1,0,0
1509044733350485910,139384,1509044733350263195,,0.0,20.0,192.0,0.384999990463,0,1,0,1,0,1,0,1,0,0
1509044733370539835,139385,1509044733370275270,,0.0,16.0,192.0,0.34999999404,0,1,0,1,0,1,0,1,0,0
1509044733390497344,139386,1509044733390277928,,0.0,16.0,192.0,0.34999999404,0,1,0,1,0,1,0,1,0,0
1509044733410397898,139387,1509044733410277636,,0.0,16.0,192.0,0.34999999404,0,1,0,1,0,1,0,1,0,0
1509044733430435946,139388,1509044733430268445,,0.0,16.0,196.0,0.34999999404,0,1,0,1,0,1,0,1,0,0
1509044733450947077,139389,1509044733450252341,,0.0,12.0,204.0,0.314999997616,0,1,0,1,0,1,0,1,0,0
1509044733470716441,139390,1509044733470462163,,0.0,12.0,216.0,0.314999997616,0,1,0,1,0,1,0,1,0,0
1509044733490413141,139391,1509044733490267014,,0.0,12.0,220.0,0.280000001192,0,1,0,1,0,1,0,1,0,0
1509044733511402847,139392,1509044733510283472,,0.0,12.0,216.0,0.280000001192,0,1,0,1,0,1,0,1,0,0
1509044733530431450,139393,1509044733530265475,,0.0,12.0,208.0,0.280000001192,0,1,0,1,0,1,0,1,0,0
1509044733550517913,139394,1509044733550311027,,0.0,12.0,200.0,0.280000001192,0,1,0,1,0,1,0,1,0,0
1509044733570519875,139395,1509044733570278987,,0.0,12.0,184.0,0.280000001192,0,1,0,1,0,1,0,1,0,0
1509044733590415596,139396,1509044733590279655,,0.0,8.0,172.0,0.245000004768,0,1,0,1,0,1,0,1,0,0
1509044733610435263,139397,1509044733610353729,,0.0,8.0,164.0,0.245000004768,0,1,0,1,0,1,0,1,0,0
1509044733630386819,139398,1509044733630280143,,0.0,8.0,152.0,0.245000004768,0,1,0,1,0,1,0,1,0,0
1509044733650448508,139399,1509044733650360978,,0.0,8.0,144.0,0.245000004768,0,1,0,1,0,1,0,1,0,0
1509044733670409376,139400,1509044733670288416,,0.0,8.0,144.0,0.209999993443,0,1,0,1,0,1,0,1,0,0
1509044733690410442,139401,1509044733690284698,,0.0,8.0,144.0,0.17499999702,0,1,0,1,0,1,0,1,0,0
1509044733710831653,139402,1509044733710385498,,0.0,8.0,136.0,0.17499999702,0,1,0,1,0,1,0,1,0,0
1509044733731507783,139403,1509044733730300802,,0.0,8.0,112.0,0.140000000596,0,1,0,1,0,1,0,1,0,0
1509044733750445754,139404,1509044733750296561,,0.0,8.0,84.0,0.140000000596,0,1,0,1,0,1,0,1,0,0
1509044733770398398,139405,1509044733770299758,,0.0,4.0,68.0,0.104999996722,0,1,0,1,0,1,0,1,0,0
1509044733790435034,139406,1509044733790302995,,0.0,4.0,64.0,0.070000000298,0,1,0,1,0,1,0,1,0,0
1509044733810408238,139407,1509044733810299356,,0.0,4.0,60.0,0.070000000298,0,1,0,1,0,1,0,1,0,0
1509044733830416641,139408,1509044733830306897,,0.0,4.0,60.0,0.070000000298,0,1,0,1,0,1,0,1,0,0
1509044733850419813,139409,1509044733850308186,,0.0,4.0,60.0,0.035000000149,0,1,0,1,0,1,0,1,0,0
1509044733870425562,139410,1509044733870308856,,0.0,4.0,68.0,0.035000000149,0,1,0,1,0,1,0,1,0,0
1509044733890452240,139411,1509044733890313764,,0.0,4.0,64.0,0.0,0,1,0,1,0,1,0,1,0,0
1509044733911509987,139412,1509044733910352595,,0.0,4.0,64.0,0.0,0,1,0,1,0,1,0,1,0,0
1509044733930514546,139413,1509044733930324763,,0.0,4.0,64.0,0.0,0,1,0,1,0,1,0,1,0,0
1509044733950496136,139414,1509044733950327533,,0.0,4.0,60.0,0.0,0,1,0,1,0,1,0,1,0,0
1509044733970628380,139415,1509044733970359153,,0.0,4.0,56.0,0.0,0,1,0,1,0,1,0,1,0,0
1509044733990545097,139416,1509044733990330190,,0.0,4.0,48.0,0.0,0,1,0,1,0,1,0,1,0,0
1509044734010516753,139417,1509044734010329013,,0.0,4.0,44.0,0.0,0,1,0,1,0,1,0,1,0,0
1509044734030488061,139418,1509044734030334969,,0.0,4.0,44.0,0.0,0,1,0,1,0,1,0,1,0,0
1509044734053503094,139419,1509044734050339527,,0.0,4.0,48.0,0.0,0,1,0,1,0,1,0,1,0,0
1509044734070435786,139420,1509044734070335821,,0.0,4.0,44.0,0.0,0,1,0,1,0,1,0,1,0,0
1509044734090439785,139421,1509044734090337236,,0.0,4.0,40.0,0.0,0,1,0,1,0,1,0,1,0,0
1509044734111470468,139422,1509044734110608089,,0.0,4.0,40.0,-0.035000000149,0,1,0,1,0,1,0,1,0,0
1509044734130418878,139423,1509044734130342485,,0.0,4.0,40.0,-0.035000000149,0,1,0,1,0,1,0,1,0,0
1509044734150512841,139424,1509044734150352021,,0.0,0.0,40.0,-0.035000000149,0,1,0,1,0,1,0,1,0,0
1509044734170449698,139425,1509044734170348476,,0.0,16.0,40.0,-0.035000000149,0,1,0,1,0,1,0,1,0,0
1509044734190480980,139426,1509044734190352900,,0.0,16.0,40.0,-0.035000000149,0,1,0,1,0,1,0,1,0,0
1509044734210480310,139427,1509044734210376479,,0.0,12.0,40.0,-0.035000000149,0,1,0,1,0,1,0,1,0,0
1509044734230517739,139428,1509044734230380992,,28.0,12.0,32.0,-0.035000000149,0,1,0,1,0,1,0,1,0,0
1509044734250486046,139429,1509044734250363970,,60.0,12.0,24.0,-0.035000000149,0,1,0,1,0,1,0,1,0,0
1509044734270541163,139430,1509044734270367782,,124.0,12.0,20.0,-0.035000000149,0,1,0,1,0,1,0,1,0,0
1509044734290515347,139431,1509044734290369765,,228.0,12.0,24.0,-0.035000000149,0,1,0,1,0,1,0,1,0,0
1509044734310746093,139432,1509044734310381703,,352.0,12.0,24.0,-0.070000000298,0,1,0,1,0,1,0,1,0,0
1509044734330522564,139433,1509044734330375051,,476.0,12.0,16.0,-0.104999996722,0,1,0,1,0,1,0,1,0,0
1509044734350460664,139434,1509044734350373027,,552.0,16.0,4.0,-0.104999996722,0,1,0,1,0,1,0,1,0,0
1509044734370489528,139435,1509044734370377894,,612.0,28.0,-8.0,-0.104999996722,0,1,0,1,0,1,0,1,0,0
1509044734390564193,139436,1509044734390385293,,632.0,48.0,-12.0,-0.104999996722,0,1,0,1,0,1,0,1,0,0
1509044734410514023,139437,1509044734410385360,,632.0,84.0,-12.0,-0.104999996722,0,1,0,1,0,1,0,1,0,0
1509044734430500078,139438,1509044734430387143,,632.0,128.0,-40.0,-0.104999996722,0,1,0,1,0,1,0,1,0,0
1509044734450484185,139439,1509044734450385863,,632.0,196.0,-140.0,-0.104999996722,0,1,0,1,0,1,0,1,0,0
1509044734470490197,139440,1509044734470392572,,644.0,280.0,-232.0,-0.104999996722,0,1,0,1,0,1,0,1,0,0
1509044734490565096,139441,1509044734490398190,,664.0,348.0,-308.0,-0.140000000596,0,1,0,1,0,1,0,1,0,0
1509044734510598509,139442,1509044734510441795,,724.0,368.0,-360.0,-0.17499999702,0,1,0,1,0,1,0,1,0,0
1509044734530498970,139443,1509044734530398461,,808.0,376.0,-360.0,-0.280000001192,0,1,0,1,0,1,0,1,0,0
1509044734550534545,139444,1509044734550420908,,868.0,380.0,-336.0,-0.34999999404,0,1,0,1,0,1,0,1,0,0
1509044734570608371,139445,1509044734570433497,,924.0,396.0,-292.0,-0.419999986887,0,1,0,1,0,1,0,1,0,0
1509044734590570069,139446,1509044734590419809,,976.0,432.0,-252.0,-0.490000009537,0,1,0,1,0,1,0,1,0,0
1509044734610577797,139447,1509044734610429511,,984.0,520.0,-248.0,-0.524999976158,0,1,0,1,0,1,0,1,0,0
1509044734630505399,139448,1509044734630408280,,996.0,612.0,-244.0,-0.59500002861,0,1,0,1,0,1,0,1,0,0
1509044734650527638,139449,1509044734650414991,,1004.0,712.0,-244.0,-0.665000021458,0,1,0,1,0,1,0,1,0,0
1509044734670516503,139450,1509044734670417394,,1020.0,736.0,-256.0,-0.735000014305,0,1,0,1,0,1,0,1,0,0
1509044734690596736,139451,1509044734690444276,,1020.0,748.0,-280.0,-0.769999980927,0,1,0,1,0,1,0,1,0,0
1509044734710543715,139452,1509044734710423857,,1020.0,752.0,-300.0,-0.875,0,1,0,1,0,1,0,1,0,0
1509044734730621141,139453,1509044734730448463,,1020.0,752.0,-308.0,-0.944999992847,0,1,0,1,0,1,0,1,0,0
1509044734750758023,139454,1509044734750476387,,1020.0,756.0,-304.0,-1.01499998569,0,1,0,1,0,1,0,1,0,0
1509044734770669822,139455,1509044734770443306,,1020.0,756.0,-296.0,-1.04999995232,0,1,0,1,0,1,0,1,0,0
1509044734790621595,139456,1509044734790445858,,1020.0,756.0,-288.0,-1.12000000477,0,1,0,1,0,1,0,1,0,0
1509044734810668376,139457,1509044734810468224,,1020.0,752.0,-284.0,-1.15499997139,0,1,0,1,0,1,0,1,0,0
1509044734830775609,139458,1509044734830495796,,1020.0,744.0,-284.0,-1.22500002384,0,1,0,1,0,1,0,1,0,0
1509044734850617519,139459,1509044734850451862,,1020.0,732.0,-280.0,-1.22500002384,0,1,0,1,0,1,0,1,0,0
1509044734870643583,139460,1509044734870456382,,1020.0,716.0,-276.0,-1.25999999046,0,1,0,1,0,1,0,1,0,0
1509044734890604106,139461,1509044734890451503,,1020.0,708.0,-284.0,-1.29499995708,0,1,0,1,0,1,0,1,0,0
1509044734911021752,139462,1509044734910598818,,1020.0,700.0,-292.0,-1.29499995708,0,1,0,1,0,1,0,1,0,0
1509044734930590256,139463,1509044734930480533,,1044.0,692.0,-296.0,-1.33000004292,0,1,0,1,0,1,0,1,0,0
1509044734950639462,139464,1509044734950484349,,1064.0,688.0,-296.0,-1.33000004292,0,1,0,1,0,1,0,1,0,0
1509044734970679492,139465,1509044734970455958,,1080.0,680.0,-296.0,-1.33000004292,0,1,0,1,0,1,0,1,0,0
1509044734990774900,139466,1509044734990498163,,1104.0,680.0,-292.0,-1.33000004292,0,1,0,1,0,1,0,1,0,0
1509044735010765583,139467,1509044735010471576,,1124.0,680.0,-292.0,-1.33000004292,0,1,0,1,0,1,0,1,0,0
1509044735030777261,139468,1509044735030506599,,1136.0,688.0,-300.0,-1.33000004292,0,1,0,1,0,1,0,1,0,0
1509044735050692900,139469,1509044735050474624,,1136.0,700.0,-292.0,-1.36500000954,0,1,0,1,0,1,0,1,0,0
1509044735070658991,139470,1509044735070470175,,1160.0,712.0,-284.0,-1.36500000954,0,1,0,1,0,1,0,1,0,0
1509044735090760530,139471,1509044735090527386,,1176.0,728.0,-284.0,-1.39999997616,0,1,0,1,0,1,0,1,0,0
1509044735111625961,139472,1509044735110510785,,1196.0,744.0,-288.0,-1.39999997616,0,1,0,1,0,1,0,1,0,0
1509044735130631127,139473,1509044735130478245,,1216.0,764.0,-276.0,-1.39999997616,0,1,0,1,0,1,0,1,0,0
1509044735150675672,139474,1509044735150486581,,1216.0,788.0,-256.0,-1.39999997616,0,1,0,1,0,1,0,1,0,0
1509044735170698019,139475,1509044735170515580,,1220.0,820.0,-236.0,-1.43499994278,0,1,0,1,0,1,0,1,0,0
1509044735190681088,139476,1509044735190513270,,1240.0,868.0,-220.0,-1.47000002861,0,1,0,1,0,1,0,1,0,0
1509044735210619102,139477,1509044735210491320,,1240.0,912.0,-208.0,-1.47000002861,0,1,0,1,0,1,0,1,0,0
1509044735230698835,139478,1509044735230524973,,1240.0,956.0,-188.0,-1.50499999523,0,1,0,1,0,1,0,1,0,0
1509044735250682348,139479,1509044735250503991,,1256.0,996.0,-172.0,-1.50499999523,0,1,0,1,0,1,0,1,0,0
1509044735270671676,139480,1509044735270527046,,1264.0,1032.0,-148.0,-1.53999996185,0,1,0,1,0,1,0,1,0,0
1509044735290683512,139481,1509044735290529422,,1264.0,1060.0,-128.0,-1.53999996185,0,1,0,1,0,1,0,1,0,0
1509044735312399792,139482,1509044735310589063,,1276.0,1076.0,-112.0,-1.53999996185,0,1,0,1,0,1,0,1,0,0
1509044735330801817,139483,1509044735330508638,,1280.0,1092.0,-100.0,-1.57500004768,0,1,0,1,0,1,0,1,0,0
1509044735350693329,139484,1509044735350517447,,1288.0,1108.0,-96.0,-1.61000001431,0,1,0,1,0,1,0,1,0,0
1509044735370707708,139485,1509044735370540571,,1288.0,1124.0,-80.0,-1.61000001431,0,1,0,1,0,1,0,1,0,0
1509044735390687796,139486,1509044735390516922,,1288.0,1140.0,-60.0,-1.64499998093,0,1,0,1,0,1,0,1,0,0
1509044735410736260,139487,1509044735410544941,,1288.0,1148.0,-48.0,-1.64499998093,0,1,0,1,0,1,0,1,0,0
1509044735430712987,139488,1509044735430541068,,1288.0,1168.0,-28.0,-1.64499998093,0,1,0,1,0,1,0,1,0,0
1509044735450743390,139489,1509044735450531357,,1288.0,1180.0,-12.0,-1.67999994755,0,1,0,1,0,1,0,1,0,0
1509044735470686158,139490,1509044735470555489,,1288.0,1192.0,-12.0,-1.67999994755,0,1,0,1,0,1,0,1,0,0
1509044735490709997,139491,1509044735490566146,,1288.0,1212.0,8.0,-1.71500003338,0,1,0,1,0,1,0,1,0,0
1509044735511496372,139492,1509044735510541708,,1300.0,1224.0,8.0,-1.71500003338,0,1,0,1,0,1,0,1,0,0
1509044735530702857,139493,1509044735530534030,,1300.0,1240.0,4.0,-1.71500003338,0,1,0,1,0,1,0,1,0,0
1509044735550847633,139494,1509044735550554999,,1300.0,1248.0,0.0,-1.71500003338,0,1,0,1,0,1,0,1,0,0
1509044735570808365,139495,1509044735570577018,,1300.0,1260.0,4.0,-1.71500003338,0,1,0,1,0,1,0,1,0,0
1509044735590841796,139496,1509044735590557675,,1300.0,1268.0,12.0,-1.71500003338,0,1,0,1,0,1,0,1,0,0
1509044735610833996,139497,1509044735610587976,,1300.0,1272.0,48.0,-1.71500003338,0,1,0,1,0,1,0,1,0,0
1509044735630716807,139498,1509044735630571028,,1300.0,1276.0,96.0,-1.71500003338,0,1,0,1,0,1,0,1,0,0
1509044735650705197,139499,1509044735650575095,,1300.0,1276.0,124.0,-1.71500003338,0,1,0,1,0,1,0,1,0,0
1509044735670709453,139500,1509044735670553272,,1300.0,1276.0,132.0,-1.71500003338,0,1,0,1,0,1,0,1,0,0
1509044735690715172,139501,1509044735690576770,,1252.0,1276.0,132.0,-1.71500003338,0,1,0,1,0,1,0,1,0,0
1509044735711544848,139502,1509044735710580105,,1204.0,1272.0,100.0,-1.71500003338,0,1,0,1,0,1,0,1,0,0
1509044735730814513,139503,1509044735730563868,,1184.0,1268.0,68.0,-1.71500003338,0,1,0,1,0,1,0,1,0,0
1509044735750841852,139504,1509044735750598966,,1144.0,1260.0,48.0,-1.71500003338,0,1,0,1,0,1,0,1,0,0
1509044735770718441,139505,1509044735770587070,,1104.0,1228.0,24.0,-1.71500003338,0,1,0,1,0,1,0,1,0,0
1509044735790676490,139506,1509044735790564312,,1056.0,1196.0,20.0,-1.78499996662,0,1,0,1,0,1,0,1,0,0
1509044735810791656,139507,1509044735810578481,,996.0,1160.0,28.0,-1.78499996662,0,1,0,1,0,1,0,1,0,0
1509044735830732598,139508,1509044735830575512,,928.0,1112.0,24.0,-1.71500003338,0,1,0,1,0,1,0,1,0,0
1509044735850772069,139509,1509044735850599956,,868.0,1068.0,36.0,-1.64499998093,0,1,0,1,0,1,0,1,0,0
1509044735870718525,139510,1509044735870600611,,820.0,1020.0,60.0,-1.61000001431,0,1,0,1,0,1,0,1,0,0
1509044735890803686,139511,1509044735890609726,,784.0,976.0,60.0,-1.64499998093,0,1,0,1,0,1,0,1,0,0
1509044735911204799,139512,1509044735910868822,,784.0,928.0,64.0,-1.61000001431,0,1,0,1,0,1,0,1,0,0
1509044735930680672,139513,1509044735930586575,,748.0,880.0,64.0,-1.61000001431,0,1,0,1,0,1,0,1,0,0
1509044735950797083,139514,1509044735950639701,,704.0,844.0,76.0,-1.50499999523,0,1,0,1,0,1,0,1,0,0
1509044735970757167,139515,1509044735970593745,,652.0,816.0,68.0,-1.47000002861,0,1,0,1,0,1,0,1,0,0
1509044735990879875,139516,1509044735990625312,,604.0,792.0,64.0,-1.39999997616,0,1,0,1,0,1,0,1,0,0
1509044736010782316,139517,1509044736010629004,,536.0,760.0,60.0,-1.39999997616,0,1,0,1,0,1,0,1,0,0
1509044736030739088,139518,1509044736030618776,,392.0,720.0,56.0,-1.33000004292,0,1,0,1,0,1,0,1,0,0
1509044736050925400,139519,1509044736050616113,,180.0,676.0,56.0,-1.36500000954,0,1,0,1,0,1,0,1,0,0
1509044736070755240,139520,1509044736070650867,,40.0,632.0,56.0,-1.33000004292,0,1,0,1,0,1,0,1,0,0
1509044736090723409,139521,1509044736090631860,,0.0,572.0,52.0,-1.29499995708,0,1,0,1,0,1,0,1,0,0
1509044736111482789,139522,1509044736111202043,,0.0,496.0,48.0,-1.25999999046,0,1,0,1,0,1,0,1,0,0
1509044736130796535,139523,1509044736130685225,,0.0,444.0,44.0,-1.15499997139,0,1,0,1,0,1,0,1,0,0
1509044736150782608,139524,1509044736150640775,,0.0,392.0,52.0,-1.15499997139,0,1,0,1,0,1,0,1,0,0
1509044736170743433,139525,1509044736170615922,,0.0,348.0,68.0,-1.08500003815,0,1,0,1,0,1,0,1,0,0
1509044736190804827,139526,1509044736190618782,,0.0,312.0,88.0,-1.01499998569,0,1,0,1,0,1,0,1,0,0
1509044736210756479,139527,1509044736210619700,,0.0,280.0,96.0,-1.01499998569,0,1,0,1,0,1,0,1,0,0
1509044736230770386,139528,1509044736230628886,,0.0,256.0,104.0,-0.980000019073,0,1,0,1,0,1,0,1,0,0
1509044736250742859,139529,1509044736250631884,,0.0,224.0,120.0,-0.910000026226,0,1,0,1,0,1,0,1,0,0
1509044736270771616,139530,1509044736270633440,,0.0,204.0,132.0,-0.875,0,1,0,1,0,1,0,1,0,0
1509044736290744586,139531,1509044736290630422,,0.0,192.0,140.0,-0.839999973774,0,1,0,1,0,1,0,1,0,0
1509044736310841650,139532,1509044736310648827,,0.0,176.0,140.0,-0.769999980927,0,1,0,1,0,1,0,1,0,0
1509044736331708850,139533,1509044736330639872,,0.0,168.0,136.0,-0.735000014305,0,1,0,1,0,1,0,1,0,0
1509044736350701363,139534,1509044736350332033,,0.0,156.0,120.0,-0.699999988079,0,1,0,1,0,1,0,1,0,0
1509044736370433845,139535,1509044736370333527,,0.0,148.0,108.0,-0.665000021458,0,1,0,1,0,1,0,1,0,0
1509044736390596335,139536,1509044736390424964,,0.0,140.0,104.0,-0.59500002861,0,1,0,1,0,1,0,1,0,0
1509044736410430361,139537,1509044736410319685,,0.0,132.0,116.0,-0.59500002861,0,1,0,1,0,1,0,1,0,0
1509044736430435414,139538,1509044736430323075,,0.0,124.0,132.0,-0.560000002384,0,1,0,1,0,1,0,1,0,0
1509044736450466249,139539,1509044736450331661,,0.0,116.0,136.0,-0.524999976158,0,1,0,1,0,1,0,1,0,0
1509044736470504661,139540,1509044736470320316,,0.0,108.0,128.0,-0.490000009537,0,1,0,1,0,1,0,1,0,0
1509044736490603654,139541,1509044736490353336,,0.0,100.0,116.0,-0.419999986887,0,1,0,1,0,1,0,1,0,0
1509044736510678725,139542,1509044736510391916,,0.0,96.0,108.0,-0.384999990463,0,1,0,1,0,1,0,1,0,0
1509044736530490524,139543,1509044736530337245,,0.0,88.0,112.0,-0.384999990463,0,1,0,1,0,1,0,1,0,0
1509044736550513944,139544,1509044736550350832,,0.0,84.0,128.0,-0.34999999404,0,1,0,1,0,1,0,1,0,0
1509044736570786258,139545,1509044736570676854,,0.0,80.0,152.0,-0.314999997616,0,1,0,1,0,1,0,1,0,0
1509044736590592576,139546,1509044736590351266,,0.0,76.0,164.0,-0.314999997616,0,1,0,1,0,1,0,1,0,0
1509044736610756757,139547,1509044736610676243,,0.0,68.0,160.0,-0.280000001192,0,1,0,1,0,1,0,1,0,0
1509044736630765883,139548,1509044736630679651,,0.0,64.0,152.0,-0.280000001192,0,1,0,1,0,1,0,1,0,0
1509044736650757169,139549,1509044736650681529,,0.0,60.0,148.0,-0.245000004768,0,1,0,1,0,1,0,1,0,0
1509044736670790604,139550,1509044736670707742,,0.0,60.0,156.0,-0.209999993443,0,1,0,1,0,1,0,1,0,0
1509044736690802271,139551,1509044736690690019,,0.0,56.0,180.0,-0.209999993443,0,1,0,1,0,1,0,1,0,0
1509044736715619558,139552,1509044736710713416,,0.0,52.0,232.0,-0.17499999702,0,1,0,1,0,1,0,1,0,0
1509044736730917390,139553,1509044736730771968,,0.0,48.0,248.0,-0.17499999702,0,1,0,1,0,1,0,1,0,0
1509044736750986434,139554,1509044736750797486,,0.0,48.0,284.0,-0.17499999702,0,1,0,1,0,1,0,1,0,0
1509044736771023373,139555,1509044736770905421,,0.0,44.0,344.0,-0.104999996722,0,1,0,1,0,1,0,1,0,0
1509044736790878825,139556,1509044736790782809,,0.0,40.0,412.0,-0.104999996722,0,1,0,1,0,1,0,1,0,0
1509044736810397876,139557,1509044736810280052,,0.0,40.0,528.0,-0.104999996722,0,1,0,1,0,1,0,1,0,0
1509044736830389162,139558,1509044736830286439,,0.0,36.0,632.0,-0.070000000298,0,1,0,1,0,1,0,1,0,0
1509044736850371553,139559,1509044736850288341,,0.0,36.0,788.0,-0.070000000298,0,1,0,1,0,1,0,1,0,0
1509044736870401398,139560,1509044736870293597,,0.0,32.0,1008.0,-0.070000000298,0,1,0,1,0,1,0,1,0,0
1509044736890384239,139561,1509044736890296134,,0.0,32.0,1204.0,0.0,0,1,0,1,0,1,0,1,0,0
1509044736910777124,139562,1509044736910598538,,0.0,32.0,1448.0,0.0,0,1,0,1,0,1,0,1,0,0
1509044736930898877,139563,1509044736930729582,,0.0,28.0,1672.0,0.104999996722,0,1,0,1,0,1,0,1,0,0
1509044736950393105,139564,1509044736950298849,,0.0,24.0,1848.0,0.209999993443,0,1,0,1,0,1,0,1,0,0
1509044736970450408,139565,1509044736970332740,,0.0,24.0,2016.0,0.34999999404,0,1,0,1,0,1,0,1,0,0
1509044736990455352,139566,1509044736990313665,,0.0,24.0,2124.0,0.524999976158,0,1,0,1,0,1,0,1,0,0
1509044737010497962,139567,1509044737010361417,,0.0,20.0,2236.0,0.839999973774,0,1,0,1,0,1,0,1,0,0
1509044737030466042,139568,1509044737030324697,,0.0,20.0,2340.0,0.980000019073,0,1,0,1,0,1,0,1,0,0
1509044737050521146,139569,1509044737050336938,,0.0,20.0,2412.0,1.25999999046,0,1,0,1,0,1,0,1,0,0
1509044737070497848,139570,1509044737070316736,,0.0,20.0,2512.0,1.50499999523,0,1,0,1,0,1,0,1,0,0
1509044737090831828,139571,1509044737090330815,,0.0,20.0,2564.0,1.57500004768,0,1,0,1,0,1,0,1,0,0
1509044737111583271,139572,1509044737110339002,,0.0,16.0,2632.0,1.78499996662,0,1,0,1,0,1,0,1,0,0
1509044737130510074,139573,1509044737130329097,,0.0,16.0,2676.0,1.99500000477,0,1,0,1,0,1,0,1,0,0
1509044737150510708,139574,1509044737150358976,,0.0,16.0,2700.0,2.20499992371,0,1,0,1,0,1,0,1,0,0
1509044737170506310,139575,1509044737170357403,,0.0,16.0,2692.0,2.34500002861,0,1,0,1,0,1,0,1,0,0
1509044737192339743,139576,1509044737191857719,,0.0,12.0,2672.0,2.51999998093,0,1,0,1,0,1,0,1,0,0
1509044737210460897,139577,1509044737210336822,,0.0,12.0,2652.0,2.625,0,1,0,1,0,1,0,1,0,0
1509044737230495313,139578,1509044737230369931,,0.0,12.0,2636.0,2.7650001049,0,1,0,1,0,1,0,1,0,0
1509044737250480373,139579,1509044737250350798,,0.0,12.0,2644.0,2.86999988556,0,1,0,1,0,1,0,1,0,0
1509044737270440265,139580,1509044737270344142,,0.0,12.0,2660.0,2.94000005722,0,1,0,1,0,1,0,1,0,0
1509044737290459714,139581,1509044737290366015,,0.0,12.0,2672.0,2.97499990463,0,1,0,1,0,1,0,1,0,0
1509044737311380991,139582,1509044737310362328,,0.0,12.0,2680.0,3.00999999046,0,1,0,1,0,1,0,1,0,0
1509044737330498926,139583,1509044737330360700,,0.0,8.0,2676.0,3.07999992371,0,1,0,1,0,1,0,1,0,0
1509044737350542024,139584,1509044737350368452,,0.0,8.0,2660.0,3.11500000954,0,1,0,1,0,1,0,1,0,0
1509044737370505201,139585,1509044737370378371,,0.0,8.0,2640.0,3.18499994278,0,1,0,1,0,1,0,1,0,0
1509044737390460550,139586,1509044737390360065,,0.0,8.0,2636.0,3.25500011444,0,1,0,1,0,1,0,1,0,0
1509044737410470875,139587,1509044737410361635,,0.0,8.0,2664.0,3.25500011444,0,1,0,1,0,1,0,1,0,0
1509044737430487325,139588,1509044737430388758,,0.0,8.0,2696.0,3.28999996185,0,1,0,1,0,1,0,1,0,0
1509044737450541983,139589,1509044737450377045,,0.0,8.0,2712.0,3.32500004768,0,1,0,1,0,1,0,1,0,0
1509044737470529313,139590,1509044737470393005,,0.0,8.0,2700.0,3.3599998951,0,1,0,1,0,1,0,1,0,0
1509044737490545707,139591,1509044737490401570,,0.0,8.0,2676.0,3.39499998093,0,1,0,1,0,1,0,1,0,0
1509044737511047706,139592,1509044737510391079,,0.0,4.0,2664.0,3.43000006676,0,1,0,1,0,1,0,1,0,0
1509044737530480488,139593,1509044737530381953,,0.0,4.0,2672.0,3.43000006676,0,1,0,1,0,1,0,1,0,0
1509044737550651424,139594,1509044737550390871,,0.0,4.0,2696.0,3.43000006676,0,1,0,1,0,1,0,1,0,0
1509044737570572288,139595,1509044737570407872,,0.0,4.0,2712.0,3.43000006676,0,1,0,1,0,1,0,1,0,0
1509044737590589188,139596,1509044737590391658,,0.0,4.0,2708.0,3.43000006676,0,1,0,1,0,1,0,1,0,0
1509044737610517620,139597,1509044737610399105,,0.0,4.0,2696.0,3.43000006676,0,1,0,1,0,1,0,1,0,0
1509044737630462040,139598,1509044737630390059,,0.0,4.0,2684.0,3.43000006676,0,1,0,1,0,1,0,1,0,0
1509044737650678797,139599,1509044737650405374,,0.0,4.0,2684.0,3.46499991417,0,1,0,1,0,1,0,1,0,0
1509044737670532139,139600,1509044737670418253,,0.0,4.0,2684.0,3.46499991417,0,1,0,1,0,1,0,1,0,0
1509044737690508403,139601,1509044737690401712,,0.0,4.0,2684.0,3.46499991417,0,1,0,1,0,1,0,1,0,0
1509044737711476910,139602,1509044737710499323,,0.0,4.0,2688.0,3.46499991417,0,1,0,1,0,1,0,1,0,0
1509044737730494238,139603,1509044737730406464,,0.0,4.0,2696.0,3.46499991417,0,1,0,1,0,1,0,1,0,0
1509044737750569487,139604,1509044737750424480,,0.0,4.0,2708.0,3.5,0,1,0,1,0,1,0,1,0,0
1509044737770616221,139605,1509044737770434595,,0.0,4.0,2728.0,3.5,0,1,0,1,0,1,0,1,0,0
1509044737790631566,139606,1509044737790421848,,24.0,4.0,2736.0,3.5,0,1,0,1,0,1,0,1,0,0
1509044737810572693,139607,1509044737810439578,,40.0,4.0,2736.0,3.5,0,1,0,1,0,1,0,1,0,0
1509044737830539801,139608,1509044737830417320,,48.0,36.0,2724.0,3.53500008583,0,1,0,1,0,1,0,1,0,0
1509044737850716192,139609,1509044737850443107,,60.0,76.0,2688.0,3.53500008583,0,1,0,1,0,1,0,1,0,0
1509044737870534056,139610,1509044737870422730,,76.0,88.0,2588.0,3.56999993324,0,1,0,1,0,1,0,1,0,0
1509044737890994135,139611,1509044737890846483,,80.0,100.0,2456.0,3.60500001907,0,1,0,1,0,1,0,1,0,0
1509044737911111166,139612,1509044737910589166,,80.0,108.0,2244.0,3.60500001907,0,1,0,1,0,1,0,1,0,0
1509044737930966564,139613,1509044737930855862,,80.0,116.0,1964.0,3.60500001907,0,1,0,1,0,1,0,1,0,0
1509044737950526199,139614,1509044737950435487,,88.0,124.0,1632.0,3.53500008583,0,1,0,1,0,1,0,1,0,0
1509044737970581713,139615,1509044737970466363,,88.0,128.0,1264.0,3.43000006676,0,1,0,1,0,1,0,1,0,0
1509044737990548544,139616,1509044737990445450,,88.0,132.0,896.0,3.32500004768,0,1,0,1,0,1,0,1,0,0
1509044738010597402,139617,1509044738010449103,,92.0,136.0,580.0,3.11500000954,0,1,0,1,0,1,0,1,0,0
1509044738030573936,139618,1509044738030448904,,92.0,140.0,332.0,2.86999988556,0,1,0,1,0,1,0,1,0,0
1509044738050583766,139619,1509044738050454258,,92.0,140.0,152.0,2.58999991417,0,1,0,1,0,1,0,1,0,0
1509044738070555278,139620,1509044738070451917,,92.0,144.0,44.0,2.27500009537,0,1,0,1,0,1,0,1,0,0
1509044738090541818,139621,1509044738090453992,,92.0,148.0,4.0,2.02999997139,0,1,0,1,0,1,0,1,0,0
1509044738111264482,139622,1509044738110490161,,92.0,148.0,-16.0,1.78499996662,0,1,0,1,0,1,0,1,0,0
1509044738130554088,139623,1509044738130456278,,92.0,148.0,-20.0,1.53999996185,0,1,0,1,0,1,0,1,0,0
1509044738150640172,139624,1509044738150463633,,92.0,144.0,-24.0,1.33000004292,0,1,0,1,0,1,0,1,0,0
1509044738171039426,139625,1509044738170883982,,92.0,144.0,-20.0,1.19000005722,0,1,0,1,0,1,0,1,0,0
1509044738190562469,139626,1509044738190470017,,92.0,140.0,-16.0,1.01499998569,0,1,0,1,0,1,0,1,0,0
1509044738211002149,139627,1509044738210473850,,100.0,136.0,-12.0,0.910000026226,0,1,0,1,0,1,0,1,0,0
1509044738230638863,139628,1509044738230497225,,100.0,132.0,-20.0,0.839999973774,0,1,0,1,0,1,0,1,0,0
1509044738250638936,139629,1509044738250479632,,100.0,132.0,-48.0,0.735000014305,0,1,0,1,0,1,0,1,0,0
1509044738270590013,139630,1509044738270478875,,100.0,132.0,-88.0,0.629999995232,0,1,0,1,0,1,0,1,0,0
1509044738290640489,139631,1509044738290478049,,100.0,128.0,-116.0,0.524999976158,0,1,0,1,0,1,0,1,0,0
1509044738310965723,139632,1509044738310490102,,100.0,124.0,-128.0,0.419999986887,0,1,0,1,0,1,0,1,0,0
1509044738330671588,139633,1509044738330503870,,100.0,124.0,-128.0,0.280000001192,0,1,0,1,0,1,0,1,0,0
1509044738350588821,139634,1509044738350495015,,100.0,120.0,-120.0,0.209999993443,0,1,0,1,0,1,0,1,0,0
1509044738370675350,139635,1509044738370518459,,100.0,120.0,-112.0,0.140000000596,0,1,0,1,0,1,0,1,0,0
1509044738390644428,139636,1509044738390494893,,100.0,120.0,-92.0,0.070000000298,0,1,0,1,0,1,0,1,0,0
1509044738410628462,139637,1509044738410496051,,100.0,120.0,-76.0,0.0,0,1,0,1,0,1,0,1,0,0
1509044738430620221,139638,1509044738430522580,,100.0,116.0,-68.0,0.0,0,1,0,1,0,1,0,1,0,0
1509044738454129259,139639,1509044738450531391,,100.0,116.0,-68.0,-0.035000000149,0,1,0,1,0,1,0,1,0,0
1509044738470668080,139640,1509044738470528240,,100.0,112.0,-76.0,-0.070000000298,0,1,0,1,0,1,0,1,0,0
1509044738490600122,139641,1509044738490509355,,100.0,108.0,-80.0,-0.070000000298,0,1,0,1,0,1,0,1,0,0
1509044738511603434,139642,1509044738511330545,,100.0,108.0,-92.0,-0.070000000298,0,1,0,1,0,1,0,1,0,0
1509044738530837097,139643,1509044738530513185,,100.0,108.0,-100.0,-0.104999996722,0,1,0,1,0,1,0,1,0,0
1509044738550649444,139644,1509044738550518268,,100.0,108.0,-96.0,-0.17499999702,0,1,0,1,0,1,0,1,0,0
1509044738570687215,139645,1509044738570542281,,100.0,104.0,-104.0,-0.17499999702,0,1,0,1,0,1,0,1,0,0
1509044738590601174,139646,1509044738590522082,,100.0,104.0,-108.0,-0.17499999702,0,1,0,1,0,1,0,1,0,0
1509044738610654246,139647,1509044738610521533,,100.0,104.0,-108.0,-0.17499999702,0,1,0,1,0,1,0,1,0,0
1509044738630773882,139648,1509044738630535116,,100.0,100.0,-116.0,-0.17499999702,0,1,0,1,0,1,0,1,0,0
1509044738650645739,139649,1509044738650532598,,100.0,100.0,-128.0,-0.209999993443,0,1,0,1,0,1,0,1,0,0
1509044738670621240,139650,1509044738670530845,,100.0,100.0,-128.0,-0.209999993443,0,1,0,1,0,1,0,1,0,0
1509044738690629095,139651,1509044738690531961,,100.0,100.0,-120.0,-0.209999993443,0,1,0,1,0,1,0,1,0,0
1509044738711071186,139652,1509044738710572175,,100.0,100.0,-116.0,-0.209999993443,0,1,0,1,0,1,0,1,0,0
1509044738730669979,139653,1509044738730538166,,100.0,100.0,-112.0,-0.209999993443,0,1,0,1,0,1,0,1,0,0
1509044738750736016,139654,1509044738750569886,,100.0,96.0,-100.0,-0.209999993443,0,1,0,1,0,1,0,1,0,0
1509044738770620876,139655,1509044738770542154,,100.0,92.0,-100.0,-0.209999993443,0,1,0,1,0,1,0,1,0,0
1509044738790656486,139656,1509044738790545872,,100.0,92.0,-92.0,-0.245000004768,0,1,0,1,0,1,0,1,0,0
1509044738810721412,139657,1509044738810546816,,100.0,92.0,-92.0,-0.245000004768,0,1,0,1,0,1,0,1,0,0
1509044738830690314,139658,1509044738830555703,,100.0,92.0,-88.0,-0.245000004768,0,1,0,1,0,1,0,1,0,0
1509044738850675597,139659,1509044738850556398,,100.0,92.0,-92.0,-0.245000004768,0,1,0,1,0,1,0,1,0,0
1509044738870633706,139660,1509044738870558528,,100.0,92.0,-104.0,-0.245000004768,0,1,0,1,0,1,0,1,0,0
1509044738890702697,139661,1509044738890639860,,100.0,92.0,-112.0,-0.245000004768,0,1,0,1,0,1,0,1,0,0
1509044738912319647,139662,1509044738910781918,,100.0,92.0,-120.0,-0.245000004768,0,1,0,1,0,1,0,1,0,0
1509044738930788805,139663,1509044738930592302,,100.0,92.0,-120.0,-0.245000004768,0,1,0,1,0,1,0,1,0,0
1509044738950728043,139664,1509044738950571597,,100.0,92.0,-120.0,-0.245000004768,0,1,0,1,0,1,0,1,0,0
1509044738970705620,139665,1509044738970593616,,100.0,92.0,-120.0,-0.245000004768,0,1,0,1,0,1,0,1,0,0
1509044738990744657,139666,1509044738990656132,,100.0,96.0,-112.0,-0.245000004768,0,1,0,1,0,1,0,1,0,0
1509044739010726182,139667,1509044739010655435,,100.0,96.0,-96.0,-0.280000001192,0,1,0,1,0,1,0,1,0,0
1509044739030818825,139668,1509044739030728228,,100.0,92.0,-92.0,-0.280000001192,0,1,0,1,0,1,0,1,0,0
1509044739050772082,139669,1509044739050664159,,100.0,92.0,-100.0,-0.280000001192,0,1,0,1,0,1,0,1,0,0
1509044739070810029,139670,1509044739070694523,,100.0,92.0,-108.0,-0.280000001192,0,1,0,1,0,1,0,1,0,0
1509044739090785235,139671,1509044739090668449,,100.0,92.0,-112.0,-0.280000001192,0,1,0,1,0,1,0,1,0,0
1509044739111176944,139672,1509044739110736531,,100.0,92.0,-116.0,-0.280000001192,0,1,0,1,0,1,0,1,0,0
1509044739130835477,139673,1509044739130673268,,100.0,92.0,-124.0,-0.280000001192,0,1,0,1,0,1,0,1,0,0
1509044739150812262,139674,1509044739150674998,,100.0,92.0,-132.0,-0.280000001192,0,1,0,1,0,1,0,1,0,0
1509044739170819519,139675,1509044739170739399,,100.0,92.0,-132.0,-0.314999997616,0,1,0,1,0,1,0,1,0,0
1509044739190763306,139676,1509044739190682121,,100.0,92.0,-128.0,-0.280000001192,0,1,0,1,0,1,0,1,0,0
1509044739210756084,139677,1509044739210684180,,100.0,92.0,-124.0,-0.314999997616,0,1,0,1,0,1,0,1,0,0
1509044739230877486,139678,1509044739230690866,,100.0,88.0,-116.0,-0.314999997616,0,1,0,1,0,1,0,1,0,0
1509044739250759416,139679,1509044739250639857,,100.0,88.0,-108.0,-0.314999997616,0,1,0,1,0,1,0,1,0,0
1509044739270759280,139680,1509044739270639558,,100.0,88.0,-104.0,-0.314999997616,0,1,0,1,0,1,0,1,0,0
1509044739290785808,139681,1509044739290619794,,100.0,88.0,-104.0,-0.314999997616,0,1,0,1,0,1,0,1,0,0
1509044739310797344,139682,1509044739310627045,,100.0,88.0,-100.0,-0.314999997616,0,1,0,1,0,1,0,1,0,0
1509044739330810187,139683,1509044739330620629,,100.0,88.0,-104.0,-0.34999999404,0,1,0,1,0,1,0,1,0,0
1509044739350814031,139684,1509044739350621316,,100.0,88.0,-104.0,-0.34999999404,0,1,0,1,0,1,0,1,0,0
1509044739370794283,139685,1509044739370654031,,100.0,88.0,-108.0,-0.384999990463,0,1,0,1,0,1,0,1,0,0
1509044739390797168,139686,1509044739390656072,,100.0,88.0,-104.0,-0.419999986887,0,1,0,1,0,1,0,1,0,0
1509044739410697071,139687,1509044739410627943,,100.0,88.0,-100.0,-0.455000013113,0,1,0,1,0,1,0,1,0,0
1509044739430972955,139688,1509044739430784303,,100.0,88.0,-100.0,-0.455000013113,0,1,0,1,0,1,0,1,0,0
1509044739450790560,139689,1509044739450639368,,100.0,88.0,-100.0,-0.455000013113,0,1,0,1,0,1,0,1,0,0
1509044739470793291,139690,1509044739470667605,,100.0,88.0,-100.0,-0.455000013113,0,1,0,1,0,1,0,1,0,0
1509044739490738455,139691,1509044739490640726,,100.0,88.0,-104.0,-0.455000013113,0,1,0,1,0,1,0,1,0,0
1509044739511122847,139692,1509044739510872428,,100.0,88.0,-116.0,-0.455000013113,0,1,0,1,0,1,0,1,0,0
1509044739530883306,139693,1509044739530719778,,100.0,84.0,-124.0,-0.455000013113,0,1,0,1,0,1,0,1,0,0
1509044739550805283,139694,1509044739550657525,,100.0,84.0,-128.0,-0.455000013113,0,1,0,1,0,1,0,1,0,0
1509044739570749746,139695,1509044739570654004,,100.0,84.0,-128.0,-0.455000013113,0,1,0,1,0,1,0,1,0,0
1509044739590771220,139696,1509044739590651735,,100.0,84.0,-124.0,-0.455000013113,0,1,0,1,0,1,0,1,0,0
1509044739610769625,139697,1509044739610682503,,100.0,84.0,-116.0,-0.455000013113,0,1,0,1,0,1,0,1,0,0
1509044739630884444,139698,1509044739630672996,,100.0,84.0,-104.0,-0.455000013113,0,1,0,1,0,1,0,1,0,0
1509044739650821997,139699,1509044739650667654,,100.0,84.0,-104.0,-0.419999986887,0,1,0,1,0,1,0,1,0,0
1509044739670840016,139700,1509044739670748183,,100.0,84.0,-112.0,-0.419999986887,0,1,0,1,0,1,0,1,0,0
1509044739690793597,139701,1509044739690691674,,100.0,88.0,-116.0,-0.419999986887,0,1,0,1,0,1,0,1,0,0
1509044739711336396,139702,1509044739711165882,,100.0,88.0,-116.0,-0.419999986887,0,1,0,1,0,1,0,1,0,0
1509044739730753074,139703,1509044739730672706,,100.0,88.0,-124.0,-0.419999986887,0,1,0,1,0,1,0,1,0,0
1509044739750835237,139704,1509044739750701588,,100.0,88.0,-132.0,-0.419999986887,0,1,0,1,0,1,0,1,0,0
1509044739770954959,139705,1509044739770789959,,100.0,88.0,-124.0,-0.419999986887,0,1,0,1,0,1,0,1,0,0
1509044739790789551,139706,1509044739790681463,,100.0,88.0,-120.0,-0.419999986887,0,1,0,1,0,1,0,1,0,0
1509044739810814654,139707,1509044739810689596,,100.0,88.0,-116.0,-0.419999986887,0,1,0,1,0,1,0,1,0,0
1509044739830893300,139708,1509044739830703482,,100.0,84.0,-112.0,-0.384999990463,0,1,0,1,0,1,0,1,0,0
1509044739850779635,139709,1509044739850688655,,100.0,84.0,-112.0,-0.384999990463,0,1,0,1,0,1,0,1,0,0
1509044739870833783,139710,1509044739870697036,,100.0,84.0,-104.0,-0.384999990463,0,1,0,1,0,1,0,1,0,0
1509044739890803354,139711,1509044739890696929,,100.0,84.0,-92.0,-0.384999990463,0,1,0,1,0,1,0,1,0,0
1509044739911001044,139712,1509044739910717442,,100.0,84.0,-88.0,-0.384999990463,0,1,0,1,0,1,0,1,0,0
1509044739930799569,139713,1509044739930700770,,100.0,84.0,-100.0,-0.384999990463,0,1,0,1,0,1,0,1,0,0
1509044739951098768,139714,1509044739950706720,,100.0,84.0,-108.0,-0.384999990463,0,1,0,1,0,1,0,1,0,0
1509044739971090326,139715,1509044739970798594,,100.0,84.0,-108.0,-0.419999986887,0,1,0,1,0,1,0,1,0,0
1509044739990834063,139716,1509044739990706141,,100.0,88.0,-116.0,-0.419999986887,0,1,0,1,0,1,0,1,0,0
1509044740010825890,139717,1509044740010725658,,100.0,92.0,-108.0,-0.419999986887,0,1,0,1,0,1,0,1,0,0
1509044740030834553,139718,1509044740030721255,,100.0,96.0,-104.0,-0.455000013113,0,1,0,1,0,1,0,1,0,0
1509044740050828290,139719,1509044740050723940,,100.0,96.0,-108.0,-0.455000013113,0,1,0,1,0,1,0,1,0,0
1509044740070858745,139720,1509044740070724520,,100.0,96.0,-112.0,-0.490000009537,0,1,0,1,0,1,0,1,0,0
1509044740090849437,139721,1509044740090742515,,100.0,96.0,-116.0,-0.490000009537,0,1,0,1,0,1,0,1,0,0
1509044740111142054,139722,1509044740110919710,,100.0,96.0,-112.0,-0.524999976158,0,1,0,1,0,1,0,1,0,0
1509044740130852137,139723,1509044740130727072,,100.0,92.0,-112.0,-0.524999976158,0,1,0,1,0,1,0,1,0,0
1509044740150844257,139724,1509044740150726420,,100.0,92.0,-112.0,-0.524999976158,0,1,0,1,0,1,0,1,0,0
1509044740170874176,139725,1509044740170763796,,100.0,92.0,-112.0,-0.524999976158,0,1,0,1,0,1,0,1,0,0
1509044740190897572,139726,1509044740190734614,,100.0,88.0,-104.0,-0.524999976158,0,1,0,1,0,1,0,1,0,0
1509044740210842391,139727,1509044740210736244,,100.0,88.0,-104.0,-0.490000009537,0,1,0,1,0,1,0,1,0,0
1509044740231395063,139728,1509044740230749145,,100.0,88.0,-100.0,-0.490000009537,0,1,0,1,0,1,0,1,0,0
1509044740250859238,139729,1509044740250738954,,100.0,88.0,-104.0,-0.419999986887,0,1,0,1,0,1,0,1,0,0
1509044740270836160,139730,1509044740270744595,,100.0,88.0,-108.0,-0.384999990463,0,1,0,1,0,1,0,1,0,0
1509044740290858220,139731,1509044740290748622,,100.0,84.0,-108.0,-0.384999990463,0,1,0,1,0,1,0,1,0,0
1509044740312547593,139732,1509044740311156119,,100.0,84.0,-112.0,-0.34999999404,0,1,0,1,0,1,0,1,0,0
1509044740330968304,139733,1509044740330759503,,100.0,84.0,-108.0,-0.34999999404,0,1,0,1,0,1,0,1,0,0
1509044740350877446,139734,1509044740350754333,,100.0,84.0,-100.0,-0.34999999404,0,1,0,1,0,1,0,1,0,0
1509044740371111806,139735,1509044740370858917,,100.0,84.0,-104.0,-0.34999999404,0,1,0,1,0,1,0,1,0,0
1509044740390833355,139736,1509044740390759365,,100.0,84.0,-116.0,-0.34999999404,0,1,0,1,0,1,0,1,0,0
1509044740410875783,139737,1509044740410789034,,100.0,84.0,-112.0,-0.34999999404,0,1,0,1,0,1,0,1,0,0
1509044740430844736,139738,1509044740430767027,,100.0,84.0,-112.0,-0.34999999404,0,1,0,1,0,1,0,1,0,0
1509044740450893473,139739,1509044740450793258,,100.0,84.0,-108.0,-0.34999999404,0,1,0,1,0,1,0,1,0,0
1509044740470849393,139740,1509044740470771562,,100.0,84.0,-104.0,-0.34999999404,0,1,0,1,0,1,0,1,0,0
1509044740490863884,139741,1509044740490775041,,100.0,84.0,-100.0,-0.34999999404,0,1,0,1,0,1,0,1,0,0
1509044740511553426,139742,1509044740510787425,,100.0,84.0,-104.0,-0.34999999404,0,1,0,1,0,1,0,1,0,0
1509044740530980133,139743,1509044740530786674,,100.0,84.0,-108.0,-0.34999999404,0,1,0,1,0,1,0,1,0,0
1509044740550921223,139744,1509044740550787692,,100.0,84.0,-108.0,-0.34999999404,0,1,0,1,0,1,0,1,0,0
1509044740571092842,139745,1509044740570812851,,80.0,80.0,-116.0,-0.34999999404,0,1,0,1,0,1,0,1,0,0
1509044740590891852,139746,1509044740590786756,,80.0,80.0,-128.0,-0.34999999404,0,1,0,1,0,1,0,1,0,0
1509044740610887734,139747,1509044740610788863,,76.0,80.0,-116.0,-0.34999999404,0,1,0,1,0,1,0,1,0,0
1509044740630886219,139748,1509044740630793591,,76.0,80.0,-104.0,-0.34999999404,0,1,0,1,0,1,0,1,0,0
1509044740650908543,139749,1509044740650800975,,76.0,80.0,-96.0,-0.34999999404,0,1,0,1,0,1,0,1,0,0
1509044740670939437,139750,1509044740670796868,,76.0,80.0,-88.0,-0.34999999404,0,1,0,1,0,1,0,1,0,0
1509044740690904439,139751,1509044740690798284,,68.0,80.0,-84.0,-0.34999999404,0,1,0,1,0,1,0,1,0,0
1509044740712697470,139752,1509044740710907422,,68.0,80.0,-84.0,-0.34999999404,0,1,0,1,0,1,0,1,0,0
1509044740730961182,139753,1509044740730806875,,68.0,76.0,-88.0,-0.34999999404,0,1,0,1,0,1,0,1,0,0
1509044740750982311,139754,1509044740750836624,,68.0,76.0,-88.0,-0.34999999404,0,1,0,1,0,1,0,1,0,0
1509044740771182034,139755,1509044740770877745,,68.0,76.0,-84.0,-0.34999999404,0,1,0,1,0,1,0,1,0,0
1509044740790921914,139756,1509044740790813648,,64.0,76.0,-84.0,-0.34999999404,0,1,0,1,0,1,0,1,0,0
1509044740810898772,139757,1509044740810814189,,64.0,76.0,-80.0,-0.34999999404,0,1,0,1,0,1,0,1,0,0
1509044740830970263,139758,1509044740830865379,,64.0,76.0,-76.0,-0.34999999404,0,1,0,1,0,1,0,1,0,0
1509044740850958070,139759,1509044740850822848,,64.0,76.0,-64.0,-0.384999990463,0,1,0,1,0,1,0,1,0,0
1509044740870909904,139760,1509044740870825724,,60.0,76.0,-64.0,-0.384999990463,0,1,0,1,0,1,0,1,0,0
1509044740890986977,139761,1509044740890831364,,60.0,76.0,-68.0,-0.419999986887,0,1,0,1,0,1,0,1,0,0
1509044740911266999,139762,1509044740910884671,,60.0,76.0,-68.0,-0.419999986887,0,1,0,1,0,1,0,1,0,0
1509044740931685231,139763,1509044740931374898,,60.0,76.0,-64.0,-0.419999986887,0,1,0,1,0,1,0,1,0,0
1509044740950963907,139764,1509044740950838880,,60.0,76.0,-68.0,-0.419999986887,0,1,0,1,0,1,0,1,0,0
1509044740970935898,139765,1509044740970839524,,60.0,76.0,-68.0,-0.455000013113,0,1,0,1,0,1,0,1,0,0
1509044740990994592,139766,1509044740990839905,,52.0,76.0,-72.0,-0.455000013113,0,1,0,1,0,1,0,1,0,0
1509044741011390974,139767,1509044741011293145,,48.0,76.0,-72.0,-0.455000013113,0,1,0,1,0,1,0,1,0,0
1509044741030961359,139768,1509044741030848273,,48.0,76.0,-72.0,-0.455000013113,0,1,0,1,0,1,0,1,0,0
1509044741050944948,139769,1509044741050847181,,48.0,76.0,-68.0,-0.455000013113,0,1,0,1,0,1,0,1,0,0
1509044741070953622,139770,1509044741070851486,,48.0,76.0,-68.0,-0.455000013113,0,1,0,1,0,1,0,1,0,0
1509044741091062342,139771,1509044741090863575,,40.0,76.0,-68.0,-0.455000013113,0,1,0,1,0,1,0,1,0,0
1509044741111502917,139772,1509044741111289089,,40.0,76.0,-64.0,-0.455000013113,0,1,0,1,0,1,0,1,0,0
1509044741130941158,139773,1509044741130859965,,40.0,76.0,-56.0,-0.455000013113,0,1,0,1,0,1,0,1,0,0
1509044741151039640,139774,1509044741150863574,,40.0,76.0,-48.0,-0.455000013113,0,1,0,1,0,1,0,1,0,0
1509044741171126216,139775,1509044741170978484,,40.0,76.0,-48.0,-0.455000013113,0,1,0,1,0,1,0,1,0,0
1509044741190950640,139776,1509044741190871513,,40.0,76.0,-52.0,-0.455000013113,0,1,0,1,0,1,0,1,0,0
1509044741211401031,139777,1509044741211288683,,40.0,76.0,-52.0,-0.455000013113,0,1,0,1,0,1,0,1,0,0
1509044741230563444,139778,1509044741230441445,,40.0,76.0,-48.0,-0.455000013113,0,1,0,1,0,1,0,1,0,0
1509044741251041122,139779,1509044741250876625,,36.0,76.0,-44.0,-0.419999986887,0,1,0,1,0,1,0,1,0,0
1509044741271002120,139780,1509044741270879207,,36.0,72.0,-44.0,-0.419999986887,0,1,0,1,0,1,0,1,0,0
1509044741290997770,139781,1509044741290880541,,28.0,72.0,-48.0,-0.419999986887,0,1,0,1,0,1,0,1,0,0
1509044741311366159,139782,1509044741310991230,,28.0,76.0,-48.0,-0.419999986887,0,1,0,1,0,1,0,1,0,0
1509044741330979147,139783,1509044741330887690,,28.0,72.0,-44.0,-0.419999986887,0,1,0,1,0,1,0,1,0,0
1509044741351025997,139784,1509044741350938093,,28.0,72.0,-44.0,-0.419999986887,0,1,0,1,0,1,0,1,0,0
1509044741371190895,139785,1509044741370986588,,28.0,72.0,-36.0,-0.419999986887,0,1,0,1,0,1,0,1,0,0
1509044741391000933,139786,1509044741390895899,,28.0,72.0,-32.0,-0.419999986887,0,1,0,1,0,1,0,1,0,0
1509044741410973665,139787,1509044741410894782,,28.0,72.0,-32.0,-0.419999986887,0,1,0,1,0,1,0,1,0,0
1509044741431048671,139788,1509044741430923238,,28.0,72.0,-32.0,-0.419999986887,0,1,0,1,0,1,0,1,0,0
1509044741451015067,139789,1509044741450904604,,24.0,72.0,-28.0,-0.419999986887,0,1,0,1,0,1,0,1,0,0
1509044741471099130,139790,1509044741470997258,,24.0,72.0,-16.0,-0.419999986887,0,1,0,1,0,1,0,1,0,0
1509044741491111815,139791,1509044741491002552,,24.0,72.0,-16.0,-0.419999986887,0,1,0,1,0,1,0,1,0,0
1509044741511207878,139792,1509044741511075450,,16.0,72.0,-36.0,-0.419999986887,0,1,0,1,0,1,0,1,0,0
1509044741531030831,139793,1509044741530917805,,16.0,72.0,-56.0,-0.384999990463,0,1,0,1,0,1,0,1,0,0
1509044741551101526,139794,1509044741550945024,,16.0,72.0,-64.0,-0.34999999404,0,1,0,1,0,1,0,1,0,0
1509044741571243350,139795,1509044741571020116,,0.0,68.0,-60.0,-0.314999997616,0,1,0,1,0,1,0,1,0,0
1509044741591060211,139796,1509044741590929232,,0.0,68.0,-44.0,-0.245000004768,0,1,0,1,0,1,0,1,0,0
1509044741611104766,139797,1509044741610929533,,0.0,68.0,-32.0,-0.245000004768,0,1,0,1,0,1,0,1,0,0
1509044741631321580,139798,1509044741630937209,,0.0,68.0,-16.0,-0.245000004768,0,1,0,1,0,1,0,1,0,0
1509044741651214978,139799,1509044741650936840,,0.0,68.0,-8.0,-0.245000004768,0,1,0,1,0,1,0,1,0,0
1509044741671086778,139800,1509044741670934962,,0.0,68.0,0.0,-0.245000004768,0,1,0,1,0,1,0,1,0,0
1509044741691059407,139801,1509044741690938504,,0.0,68.0,0.0,-0.245000004768,0,1,0,1,0,1,0,1,0,0
1509044741711218116,139802,1509044741710949487,,0.0,68.0,0.0,-0.245000004768,0,1,0,1,0,1,0,1,0,0
1509044741731025862,139803,1509044741730938489,,0.0,64.0,-4.0,-0.245000004768,0,1,0,1,0,1,0,1,0,0
1509044741751108385,139804,1509044741750949359,,0.0,60.0,-4.0,-0.245000004768,0,1,0,1,0,1,0,1,0,0
1509044741771426535,139805,1509044741771069877,,0.0,56.0,-8.0,-0.280000001192,0,1,0,1,0,1,0,1,0,0
1509044741791090511,139806,1509044741790951155,,0.0,52.0,-12.0,-0.280000001192,0,1,0,1,0,1,0,1,0,0
1509044741811100984,139807,1509044741810956397,,0.0,48.0,-12.0,-0.280000001192,0,1,0,1,0,1,0,1,0,0
1509044741831142160,139808,1509044741830966779,,0.0,48.0,-4.0,-0.280000001192,0,1,0,1,0,1,0,1,0,0
1509044741850585401,139809,1509044741850383842,,0.0,44.0,-4.0,-0.280000001192,0,1,0,1,0,1,0,1,0,0
