%time,field.header.seq,field.header.stamp,field.header.frame_id,field.exe_time,field.iteration,field.score,field.velocity,field.acceleration,field.use_predict_pose
1509044729651758596,26459,1509044729638654000,,8.63300037384,2,1.0,0.0620970837772,-0.78003847599,0
1509044729755664978,26460,1509044729743472000,,7.64499998093,2,1.0,0.152528390288,0.86274600029,0
1509044729862167558,26461,1509044729848319000,,8.15400028229,2,1.0,0.0843774154782,-0.650004088879,0
1509044729970602883,26462,1509044729953159000,,10.5860004425,2,1.0,0.119766592979,0.337554126978,0
1509044730070481486,26463,1509044730057999000,,7.42600011826,2,1.0,0.0961193740368,-0.225555285811,0
1509044730173991672,26464,1509044730162840000,,6.86000013351,2,1.0,0.131183490157,0.334450393915,0
1509044730276145416,26465,1509044730267688000,,4.6779999733,2,1.0,0.138907134533,0.073665112257,0
1509044730382047848,26466,1509044730372557000,,5.08599996567,2,1.0,0.162845402956,0.228268384933,0
1509044730489052291,26467,1509044730477382000,,6.82499980927,3,1.0,0.280730396509,1.12458848953,0
1509044730591151743,26468,1509044730582203000,,5.36499977112,3,1.0,0.285897403955,0.0492935664952,0
1509044730698452949,26469,1509044730687074000,,7.30399990082,3,1.0,0.231870502234,-0.515174746513,0
1509044730802559337,26470,1509044730791909000,,5.4279999733,2,1.0,0.0921903252602,-1.33238124847,0
1509044730905081988,26471,1509044730896759000,,4.492000103,2,1.0,0.176242887974,0.801645815372,0
1509044731009716277,26472,1509044731001571000,,4.38700008392,2,1.0,0.205652415752,0.28059309721,0
1509044731115561339,26473,1509044731106412000,,4.75299978256,2,1.0,0.0992587581277,-1.01480960846,0
1509044731219314292,26474,1509044731211265000,,4.24300003052,2,1.0,0.0989847034216,-0.00261373771355,0
1509044731327570296,26475,1509044731316114000,,7.54199981689,2,1.0,0.10682977736,0.0748226195574,0
1509044731428548777,26476,1509044731420946000,,4.22800016403,2,1.0,0.138466119766,0.301781356335,0
1509044731533958613,26477,1509044731525794000,,4.39300012589,2,1.0,0.0972442179918,-0.393158704042,0
1509044731643390092,26478,1509044731630670000,,8.4139995575,2,1.0,0.102646023035,0.0515065230429,0
1509044731745745276,26479,1509044731735482000,,6.57899999619,2,1.0,0.27020150423,1.59862887859,0
1509044731852035943,26480,1509044731840331000,,6.90000009537,2,1.0,0.273793131113,0.0342552438378,0
1509044731955342131,26481,1509044731945162000,,6.63999986649,2,1.0,0.272214919329,-0.0150548508391,0
1509044732060947343,26482,1509044732049995000,,7.03700017929,2,1.0,0.451969474554,1.71467518806,0
1509044732166909220,26483,1509044732154865000,,6.39599990845,2,1.0,0.770100295544,3.03357338905,0
1509044732269248092,26484,1509044732259675000,,6.01200008392,3,1.0,1.2498601675,4.57742500305,0
1509044732372431151,26485,1509044732364531000,,4.40899991989,2,1.0,1.40150272846,1.44619750977,0
1509044732479563785,26486,1509044732469391000,,6.52199983597,3,1.0,1.8887130022,4.6462931633,0
1509044732584148165,26487,1509044732574218000,,5.27899980545,2,1.0,2.12698316574,2.27298402786,0
1509044732687061148,26488,1509044732679044000,,4.47200012207,2,1.0,2.19519066811,0.650674521923,0
1509044732793630797,26489,1509044732783886000,,5.82499980927,3,1.0,2.66786432266,4.50843811035,0
1509044732898417191,26490,1509044732888782000,,6.01999998093,3,1.0,2.98296713829,3.00395417213,0
1509044733006190633,26491,1509044732993586000,,9.00100040436,3,1.0,3.3108150959,3.12820148468,0
1509044733106814876,26492,1509044733098423000,,4.77899980545,2,1.0,3.32110500336,0.0981493741274,0
1509044733211463534,26493,1509044733203259000,,4.59499979019,2,1.0,3.20900344849,-1.06930303574,0
1509044733317109832,26494,1509044733308112000,,4.76800012589,2,1.0,3.04992961884,-1.51711165905,0
1509044733426782063,26495,1509044733413188000,,7.76200008392,2,1.0,3.09192228317,0.399639964104,0
1509044733530920685,26496,1509044733517795000,,9.25500011444,3,1.0,3.49480271339,3.85137248039,0
1509044733632345492,26497,1509044733622620000,,6.04099988937,3,1.0,2.86136889458,-6.04277467728,0
1509044733738373138,26498,1509044733727464000,,6.63999986649,2,1.0,3.1643435955,2.88976502419,0
1509044733840398188,26499,1509044733832314000,,4.67899990082,2,1.0,3.2377512455,0.700121164322,0
1509044733948338181,26500,1509044733937179000,,7.16699981689,3,1.0,3.44425463676,1.96923053265,0
1509044734055476107,26501,1509044734042003000,,9.1829996109,3,1.0,3.53423285484,0.858375072479,0
1509044734156097531,26502,1509044734146832000,,5.8860001564,3,1.0,3.17435455322,-3.43300223351,0
1509044734262504269,26503,1509044734251678000,,6.71299982071,3,1.0,2.81078720093,-3.46763277054,0
1509044734366422865,26504,1509044734356518000,,6.31599998474,3,1.0,3.28393507004,4.51304578781,0
1509044734469881207,26505,1509044734461362000,,4.57600021362,2,1.0,3.0686237812,-2.05363321304,0
1509044734575688397,26506,1509044734566206000,,5.20900011063,2,1.0,2.89460754395,-1.65976452827,0
1509044734682225377,26507,1509044734671041000,,7.32100009918,2,1.0,2.77745103836,-1.11753308773,0
1509044734788841645,26508,1509044734775987000,,7.82700014114,2,1.0,2.70802688599,-0.66152125597,0
1509044734891779548,26509,1509044734880742000,,6.76300001144,3,1.0,2.27664351463,-4.1180229187,0
1509044734998771257,26510,1509044734985601000,,8.11400032043,2,1.0,2.37216591835,0.910962164402,0
1509044735100381454,26511,1509044735090429000,,5.78700017929,2,1.0,2.5388007164,1.58960187435,0
1509044735209414611,26512,1509044735195270000,,8.94999980927,3,1.0,2.45096421242,-0.837807178497,0
1509044735316206025,26513,1509044735300122000,,10.7939996719,3,1.0,1.85366618633,-5.69658279419,0
1509044735414974953,26514,1509044735404971000,,5.89099979401,2,1.0,1.8397539854,-0.132687658072,0
1509044735522663954,26515,1509044735510161000,,7.06500005722,3,1.0,1.32264244556,-4.91597604752,0
1509044735623396162,26516,1509044735614649000,,5.12099981308,2,1.0,1.17259764671,-1.43599975109,0
1509044735728172155,26517,1509044735719487000,,4.91900014877,2,1.0,1.10429286957,-0.651527583599,0
1509044735834264529,26518,1509044735824319000,,6.40799999237,2,1.0,0.942374408245,-1.54455149174,0
1509044735943311781,26519,1509044735929163000,,10.123000145,3,1.0,0.601707577705,-3.24927401543,0
1509044736043283528,26520,1509044736034019000,,5.7389998436,2,1.0,0.671435177326,0.664984822273,0
1509044736148072290,26521,1509044736138837000,,5.54199981689,2,1.0,0.628351688385,-0.411031901836,0
1509044736254195012,26522,1509044736244093000,,6.14200019836,2,1.0,0.529992520809,-0.934475123882,0
1509044736357197153,26523,1509044736348546000,,4.98600006104,2,1.0,0.290145933628,-2.29621577263,0
1509044736462379649,26524,1509044736453375000,,5.32700014114,2,1.0,0.31520524621,0.23904967308,0
1509044736569493371,26525,1509044736558243000,,6.92100000381,2,1.0,0.418862074614,0.988450288773,0
1509044736672884937,26526,1509044736663069000,,5.29099988937,2,1.0,0.439752936363,0.199290886521,0
1509044736778183334,26527,1509044736767897000,,5.96500015259,2,1.0,0.197628587484,-2.30972981453,0
1509044736882831347,26528,1509044736872730000,,6.32899999619,2,1.0,0.19158115983,-0.057686291635,0
1509044736987817647,26529,1509044736977577000,,5.69199991226,2,1.0,0.474675625563,2.70007228851,0
1509044737092289401,26530,1509044737082414000,,5.97100019455,2,1.0,0.672245264053,1.88454127312,0
1509044737202735128,26531,1509044737187257000,,10.5780000687,3,1.0,1.28714227676,5.86493062973,0
1509044737304375575,26532,1509044737292097000,,7.97800016403,3,1.0,1.70307946205,3.96735215187,0
1509044737406648703,26533,1509044737396947000,,5.45100021362,2,1.0,1.96003031731,2.45065236092,0
1509044737513560112,26534,1509044737501789000,,7.76599979401,3,1.0,2.4643907547,4.81067228317,0
1509044737615379643,26535,1509044737606648000,,5.17000007629,2,1.0,2.57638597488,1.06805515289,0
1509044737720305273,26536,1509044737711523000,,5.11299991608,2,1.0,2.74631309509,1.62028229237,0
1509044737828470836,26537,1509044737816332000,,8.32699966431,4,1.0,3.71171736717,9.2110824585,0
1509044737930476225,26538,1509044737921154000,,5.45399999619,2,1.0,3.67265844345,-0.372623324394,0
1509044738034829103,26539,1509044738026006000,,5.2389998436,2,1.0,3.90891957283,2.25328397751,0
1509044738139832776,26540,1509044738130832000,,5.35799980164,2,1.0,3.85308027267,-0.532687246799,0
1509044738246597049,26541,1509044738235698000,,7.13100004196,2,1.0,4.16299772263,2.95536828041,0
1509044738349396181,26542,1509044738340546000,,5.18400001526,2,1.0,4.33514738083,1.64189517498,0
1509044738459072450,26543,1509044738445423000,,8.88300037384,3,1.0,3.87398576736,-4.39716529846,0
1509044738561046179,26544,1509044738550210000,,6.97800016403,3,1.0,4.03391599655,1.5262414217,0
1509044738667607976,26545,1509044738655045000,,8.05300045013,2,1.0,3.9187142849,-1.09888541698,0
1509044738769447156,26546,1509044738759887000,,5.3639998436,2,1.0,3.90775823593,-0.104501917958,0
1509044738875897790,26547,1509044738864727000,,7.45300006866,3,1.0,4.18244218826,2.62002921104,0
1509044738983558635,26548,1509044738969646000,,10.1280002594,3,1.0,3.54803085327,-6.04667568207,0
1509044739084023880,26549,1509044739074422000,,5.60900020599,2,1.0,3.72420096397,1.681396842,0
1509044739189190061,26550,1509044739179280000,,5.3109998703,2,1.0,3.72351026535,-0.0065855178982,0
1509044739294309174,26551,1509044739284101000,,6.12300014496,2,1.0,3.64959526062,-0.705155611038,0
1509044739401334975,26552,1509044739388949000,,8.44499969482,2,1.0,3.63612508774,-0.12847276032,0
1509044739505118077,26553,1509044739493783000,,7.36800003052,3,1.0,3.89021110535,2.42369890213,0
1509044739609480948,26554,1509044739598623000,,6.90899991989,2,1.0,3.93200469017,0.398640662432,0
1509044739718898676,26555,1509044739703494000,,11.5640001297,3,1.0,3.41363310814,-4.94294548035,0
1509044739820154016,26556,1509044739808334000,,7.66499996185,2,1.0,3.45643234253,0.408233731985,0
1509044739923198252,26557,1509044739913167000,,5.84700012207,2,1.0,3.57947087288,1.17366242409,0
1509044740029812084,26558,1509044740018008000,,8.04899978638,3,1.0,3.25376367569,-3.10667729378,0
1509044740132387661,26559,1509044740122861000,,5.78900003433,2,1.0,3.38918590546,1.2915430069,0
1509044740239193867,26560,1509044740227682000,,7.59800004959,3,1.0,2.6137201786,-7.39799976349,0
1509044740346126669,26561,1509044740332521000,,9.48499965668,4,1.0,3.57455182076,9.16483211517,0
1509044740448191454,26562,1509044740437429000,,7.18300008774,2,1.0,3.51823735237,-0.536799132824,0
1509044740553940388,26563,1509044740542219000,,8.14799976349,3,1.0,3.14434146881,-3.56804823875,0
1509044740658794513,26564,1509044740647053000,,8.0389995575,3,1.0,3.24775290489,0.98642885685,0
1509044740765568520,26565,1509044740751900000,,8.58699989319,3,1.0,2.82406520844,-4.04100847244,0
1509044740868661426,26566,1509044740856737000,,7.85900020599,3,1.0,3.57910227776,7.20201063156,0
1509044740972784359,26567,1509044740961598000,,6.41200017929,2,1.0,3.4052491188,-1.65793943405,0
1509044741077855347,26568,1509044741066423000,,7.58199977875,3,1.0,2.9701821804,-4.15041255951,0
1509044741182365892,26569,1509044741171276000,,7.25699996948,2,1.0,2.77116012573,-1.89810490608,0
1509044741285866258,26570,1509044741276134000,,5.83599996567,2,1.0,2.92922639847,1.50743067265,0
1509044741392534010,26571,1509044741380950000,,7.65299987793,2,1.0,3.04208827019,1.07676100731,0
1509044741496177350,26572,1509044741485781000,,6.15100002289,2,1.0,3.09924721718,0.545250535011,0
1509044741606516431,26573,1509044741590627000,,11.3529996872,3,1.0,2.86527705193,-2.23156142235,0
1509044741706871775,26574,1509044741695487000,,7.39599990845,3,1.0,2.52154827118,-3.27797698975,0
1509044741810200236,26575,1509044741800318000,,5.63100004196,2,1.0,2.49860835075,-0.218828439713,0
1509044741917324774,26576,1509044741905196000,,7.93699979782,2,1.0,2.79917478561,2.86586618423,0
1509044742019267810,26577,1509044742010004000,,5.5720000267,2,1.0,2.69243788719,-1.01840400696,0
1509044742124757667,26578,1509044742114841000,,5.42000007629,2,1.0,2.63001894951,-0.595389962196,0
1509044742267571424,26579,1509044742219721000,,32.5040016174,2,1.0,2.70406889915,0.706044435501,0
1509044742336571601,26580,1509044742324535000,,8.27900028229,2,1.0,2.61067056656,-0.891085445881,0
1509044742438887463,26581,1509044742429375000,,5.84200000763,2,1.0,2.76731419563,1.49411964417,0
1509044742543395400,26582,1509044742534214000,,5.65899991989,2,1.0,2.62332558632,-1.37342607975,0
1509044742650771128,26583,1509044742639060000,,7.51399993896,2,1.0,2.74358034134,1.14696633816,0
1509044742754909627,26584,1509044742743884000,,7.46299982071,3,1.0,2.73345422745,-0.0966009423137,0
1509044742859876785,26585,1509044742848737000,,7.09899997711,3,1.0,3.02575945854,2.78776311874,0
1509044742963602153,26586,1509044742953587000,,6.1779999733,2,1.0,2.78069090843,-2.33732533455,0
1509044743067390990,26587,1509044743058427000,,5.16300010681,2,1.0,2.83665156364,0.533771157265,0
1509044743174043863,26588,1509044743163298000,,6.66900014877,3,1.0,3.0823674202,2.34302854538,0
1509044743282160883,26589,1509044743268105000,,7.47599983215,2,1.0,3.02349734306,-0.561698079109,0
1509044743386027475,26590,1509044743372953000,,8.58399963379,3,1.0,3.74975800514,6.92679405212,0
1509044743489711274,26591,1509044743477810000,,7.67100000381,3,1.0,3.43202424049,-3.03016281128,0
1509044743594096207,26592,1509044743582629000,,7.16099977493,3,1.0,2.71050214767,-6.88350486755,0
1509044743716172132,26593,1509044743687493000,,13.4960002899,2,1.0,2.61330461502,-0.926890134811,0
1509044743806723754,26594,1509044743792316000,,5.57800006866,2,1.0,2.65415787697,0.38973492384,0
1509044743911075718,26595,1509044743897193000,,8.96199989319,4,1.0,2.88839387894,2.23343539238,0
1509044744013158603,26596,1509044744001993000,,6.79699993134,3,1.0,2.46903800964,-4.00148582458,0
1509044744119091996,26597,1509044744106861000,,7.44600009918,3,1.0,2.64824795723,1.70890796185,0
1509044744220731323,26598,1509044744211714000,,5.07499980927,2,1.0,2.62615561485,-0.210696950555,0
1509044744328286036,26599,1509044744316519000,,7.507999897,3,1.0,2.8626127243,2.25616073608,0
1509044744431107673,26600,1509044744421365000,,5.74800014496,2,1.0,2.98213553429,1.13998544216,0
1509044744548340802,26601,1509044744526211000,,13.0430002213,4,1.0,2.35192918777,-6.01077985764,0
1509044744640039941,26602,1509044744631070000,,5.20300006866,2,1.0,2.52093696594,1.61176073551,0
1509044744745181258,26603,1509044744735883000,,5.31300020218,2,1.0,2.7158229351,1.85936915874,0
1509044744853649259,26604,1509044744840731000,,8.04699993134,2,1.0,2.76372146606,0.45683786273,0
1509044744956197746,26605,1509044744945584000,,6.74399995804,3,1.0,2.70555830002,-0.554711937904,0
1509044745111863719,26606,1509044745050593000,,38.5159988403,2,1.0,2.74465513229,0.372319340706,0
1509044745170977374,26607,1509044745155287000,,10.595000267,3,1.0,3.14704632759,3.84349870682,0
1509044745272880472,26608,1509044745260096000,,8.51799964905,3,1.0,3.615265131,4.46735286713,0
1509044745377853502,26609,1509044745364940000,,7.80999994278,3,1.0,3.61215376854,-0.029676605016,0
1509044745481214684,26610,1509044745469779000,,6.75299978256,3,1.0,3.19223713875,-4.00534725189,0
1509044745587689568,26611,1509044745574651000,,7.53299999237,3,1.0,2.91172480583,-2.67480635643,0
1509044745690854065,26612,1509044745679492000,,7.21700000763,3,1.0,2.84272146225,-0.658171951771,0
1509044745795277580,26613,1509044745784312000,,6.72700023651,3,1.0,3.1232252121,2.67605185509,0
1509044745900567037,26614,1509044745889148000,,7.23400020599,3,1.0,2.73513221741,-3.70190763474,0
1509044746003670187,26615,1509044745994000000,,5.37400007248,2,1.0,2.67355298996,-0.587296247482,0
1509044746108004401,26616,1509044746098845000,,5.12599992752,2,1.0,2.93183469772,2.46346378326,0
1509044746218799112,26617,1509044746203682000,,9.14599990845,2,1.0,3.01594996452,0.802341580391,0
1509044746320296027,26618,1509044746308536000,,6.28599977493,2,1.0,3.24616885185,2.1956140995,0
1509044746433511435,26619,1509044746413370000,,13.4779996872,3,1.0,2.61287522316,-6.04091691971,0
1509044746527742037,26620,1509044746518213000,,5.41599988937,2,1.0,2.82671093941,2.03957843781,0
1509044746637232902,26621,1509044746623047000,,9.39900016785,4,1.0,2.97718501091,1.4353569746,0
1509044746782672101,26622,1509044746727916000,,35.1119995117,3,1.0,3.09710645676,1.14353454113,0
1509044746850115880,26623,1509044746832738000,,13.2559995651,4,1.0,2.56096148491,-5.11481285095,0
1509044746948329855,26624,1509044746937585000,,6.63999986649,2,1.0,2.56154847145,0.00559846777469,0
1509044747056463279,26625,1509044747042940000,,8.86299991608,2,1.0,2.5479850769,-0.128740161657,0
1509044747157462167,26626,1509044747147281000,,6.24100017548,2,1.0,2.6790792942,1.2564021349,0
1509044747263566792,26627,1509044747252099000,,7.33400011063,2,1.0,2.88069057465,1.92344141006,0
1509044747392524233,26628,1509044747356967000,,16.0890007019,2,1.0,3.10829257965,2.17036676407,0
1509044747474515012,26629,1509044747461784000,,7.05399990082,2,1.0,3.10905146599,0.00724084489048,0
1509044747579269839,26630,1509044747566625000,,8.31000041962,3,1.0,2.70657658577,-3.83890771866,0
1509044747681035711,26631,1509044747671465000,,5.40500020981,2,1.0,2.66455769539,-0.40079125762,0
1509044747787092158,26632,1509044747776320000,,5.92000007629,2,1.0,2.62188267708,-0.406990140676,0
1509044747891338575,26633,1509044747881164000,,5.93499994278,2,1.0,2.51671075821,-1.00312721729,0
1509044747998959633,26634,1509044747986000000,,8.54500007629,2,1.0,2.8074259758,2.77304697037,0
1509044748101635017,26635,1509044748090835000,,5.92600011826,2,1.0,2.58557605743,-2.11618256569,0
1509044748249225998,26636,1509044748195699000,,34.0279998779,2,1.0,2.5005698204,-0.810632109642,0
1509044748312089175,26637,1509044748300532000,,6.91499996185,2,1.0,2.52426743507,0.226049616933,0
1509044748415326993,26638,1509044748405361000,,6.05000019073,2,1.0,2.76241493225,2.27177333832,0
1509044748522157066,26639,1509044748510242000,,6.75600004196,2,1.0,2.46948051453,-2.79301691055,0
1509044748625418978,26640,1509044748615045000,,6.48099994659,2,1.0,2.54688334465,0.738554775715,0
1509044748729995801,26641,1509044748719899000,,6.23999977112,2,1.0,2.33970022202,-1.9759196043,0
1509044748837363236,26642,1509044748824731000,,8.66699981689,3,1.0,2.68809294701,3.32334160805,0
1509044748944216983,26643,1509044748929582000,,10.2939996719,4,1.0,2.11383008957,-5.4769411087,0
1509044749075908877,26644,1509044749034460000,,25.392999649,3,1.0,2.17636799812,0.596291542053,0
1509044749155951694,26645,1509044749139254000,,12.6140003204,4,1.0,2.47269082069,2.8276693821,0
1509044749254953799,26646,1509044749244108000,,6.13399982452,2,1.0,2.41571211815,-0.54340839386,0
1509044749398889944,26647,1509044749348980000,,31.5310001373,4,1.0,1.44402623177,-9.26544761658,0
1509044749466792590,26648,1509044749453821000,,8.95600032806,3,1.0,2.02270102501,5.51954698563,0
1509044749570798922,26649,1509044749558646000,,8.30000019073,3,1.0,1.70837461948,-2.99858283997,0
1509044749676296348,26650,1509044749663480000,,8.91199970245,2,1.0,1.79417824745,0.818471252918,0
1509044749779821707,26651,1509044749768349000,,7.59200000763,2,1.0,1.64429295063,-1.42926132679,0
1509044749883031545,26652,1509044749873164000,,5.67500019073,2,1.0,1.78239870071,1.31761395931,0
1509044750009908135,26653,1509044749978127000,,10.6370000839,3,1.0,1.81966853142,0.355076521635,0
1509044750095134680,26654,1509044750082860000,,8.0609998703,3,1.0,1.85849177837,0.370686769485,0
1509044750255311059,26655,1509044750187706000,,47.186000824,3,1.0,1.29223370552,-5.40085458755,0
1509044750304816582,26656,1509044750292517000,,6.82499980927,2,1.0,1.40161406994,1.04359579086,0
1509044750409580073,26657,1509044750397361000,,7.90299987793,3,1.0,1.07802927494,-3.08634495735,0
1509044750515607626,26658,1509044750502204000,,9.40600013733,3,1.0,1.49816942215,4.0073261261,0
1509044750620182467,26659,1509044750607048000,,8.4329996109,3,1.0,0.904940247536,-5.65820837021,0
1509044750724210513,26660,1509044750711890000,,7.61299991608,2,1.0,1.01215720177,1.0226534605,0
1509044750828294859,26661,1509044750816745000,,7.73799991608,2,1.0,1.05478048325,0.406497329473,0
1509044750932317596,26662,1509044750921612000,,6.5720000267,2,1.0,0.890511035919,-1.56645548344,0
1509044751036212374,26663,1509044751026415000,,5.59100008011,2,1.0,0.958877623081,0.652334153652,0
1509044751141092043,26664,1509044751131264000,,5.46299982071,2,1.0,0.692530155182,-2.54029560089,0
1509044751249132604,26665,1509044751236109000,,9.04100036621,3,1.0,0.39707288146,-2.81803894043,0
1509044751350548216,26666,1509044751340939000,,5.84200000763,2,1.0,0.465874999762,0.656320869923,0
1509044751457391092,26667,1509044751445799000,,7.10300016403,2,1.0,0.207990676165,-2.45932030678,0
1509044751561237695,26668,1509044751550624000,,6.01399993896,2,1.0,0.204307377338,-0.0351376906037,0
1509044751665611145,26669,1509044751655466000,,5.88999986649,2,1.0,0.127195611596,-0.735504448414,0
1509044751770408016,26670,1509044751760308000,,5.91300010681,2,1.0,0.16169269383,0.329038828611,0
1509044751874795493,26671,1509044751865154000,,5.8220000267,2,1.0,0.143925696611,-0.169458135962,0
1509044751983313705,26672,1509044751970107000,,9.20199966431,2,1.0,0.153310313821,0.0894174054265,0
1509044752084716364,26673,1509044752074860000,,5.84899997711,2,1.0,0.0615644529462,-0.875830411911,0
1509044752190061553,26674,1509044752179685000,,6.08799982071,2,1.0,0.119681805372,0.554422676563,0
1509044752297259379,26675,1509044752284523000,,8.23400020599,3,1.0,0.524651825428,3.86281704903,0
1509044752412397457,26676,1509044752389380000,,12.4790000916,2,1.0,0.523030519485,-0.0154618751258,0
1509044752506229387,26677,1509044752494204000,,7.6810002327,3,1.0,0.910866975784,3.69988179207,0
1509044752610282077,26678,1509044752599047000,,7.09600019455,2,1.0,0.889037907124,-0.208206877112,0
1509044752720509757,26679,1509044752703946000,,12.3219995499,3,1.0,1.32035136223,4.11170148849,0
1509044752822062768,26680,1509044752808731000,,9.52200031281,3,1.0,1.79430055618,4.52306461334,0
1509044752926257535,26681,1509044752913602000,,8.59899997711,3,1.0,2.22923898697,4.14736604691,0
1509044753031119421,26682,1509044753018416000,,8.52900028229,3,1.0,2.84663796425,5.89042329788,0
1509044753152385432,26683,1509044753123471000,,15.2790002823,2,1.0,3.01843643188,1.63531970978,0
1509044753238833671,26684,1509044753228110000,,6.94099998474,2,1.0,3.23631882668,2.08223104477,0
1509044753346339436,26685,1509044753333092000,,9.54599952698,4,1.0,3.99219679832,7.200070858,0
1509044753452502186,26686,1509044753437820000,,10.7060003281,3,1.0,3.76972436905,-2.1242878437,0
1509044753556313647,26687,1509044753542637000,,9.75699996948,4,1.0,4.50479888916,7.01293182373,0
1509044753658298343,26688,1509044753647477000,,6.867000103,2,1.0,4.59656381607,0.875284254551,0
1509044753763497224,26689,1509044753752325000,,7.21199989319,2,1.0,4.25733327866,-3.23544955254,0
1509044753867382276,26690,1509044753857152000,,6.18699979782,2,1.0,4.19065761566,-0.636054933071,0
1509044753973320715,26691,1509044753962007000,,7.39300012589,3,1.0,4.42258119583,2.21185183525,0
1509044754078257079,26692,1509044754066856000,,7.33799982071,3,1.0,4.19875097275,-2.13478779793,0
1509044754183418931,26693,1509044754171712000,,7.4439997673,2,1.0,4.24825239182,0.472091168165,0
1509044754292314228,26694,1509044754276533000,,10.2609996796,3,1.0,4.10103034973,-1.40450930595,0
1509044754393589638,26695,1509044754381368000,,7.78599977493,3,1.0,3.90932178497,-1.8286690712,0
1509044754498420625,26696,1509044754486207000,,8.20800018311,3,1.0,3.46473693848,-4.24064493179,0
1509044754606200755,26697,1509044754591073000,,10.8640003204,3,1.0,3.86935830116,3.85846114159,0
1509044754706862721,26698,1509044754695892000,,7.03399991989,3,1.0,3.57810640335,-2.77861666679,0
1509044754812377384,26699,1509044754800729000,,7.16800022125,3,1.0,3.91011881828,3.16693878174,0
1509044754922591449,26700,1509044754905654000,,11.9580001831,3,1.0,3.52457237244,-3.67449474335,0
1509044755022054915,26701,1509044755010412000,,7.53499984741,3,1.0,3.51639771461,-0.0780351758003,0
1509044755127792737,26702,1509044755115276000,,8.05599975586,3,1.0,3.94779157639,4.11384105682,0
1509044755231828238,26703,1509044755220100000,,7.66400003433,3,1.0,3.38471126556,-5.37167215347,0
1509044755335000737,26704,1509044755324951000,,5.87099981308,2,1.0,3.36210989952,-0.215558096766,0
1509044755474037671,26705,1509044755429853000,,20.5400009155,3,1.0,3.65025353432,2.74678850174,0
1509044755545589676,26706,1509044755534640000,,6.44799995422,2,1.0,3.53269910812,-1.12184131145,0
1509044755650429377,26707,1509044755639465000,,5.32999992371,2,1.0,3.35758256912,-1.67055940628,0
1509044755758901832,26708,1509044755744322000,,10.5150003433,4,1.0,2.72510409355,-6.0318198204,0
1509044755914257051,26709,1509044755849183000,,44.0839996338,3,1.0,3.15627503395,4.11183214188,0
1509044755964678487,26710,1509044755954016000,,6.24800014496,2,1.0,3.08139038086,-0.71432185173,0
1509044756069775939,26711,1509044756058837000,,6.96500015259,3,1.0,2.66180610657,-4.00286531448,0
1509044756177153691,26712,1509044756163681000,,9.51399993896,4,1.0,2.73064231873,0.656557202339,0
1509044756277944141,26713,1509044756268551000,,5.14599990845,2,1.0,2.85197687149,1.1569994688,0
1509044756415491865,26714,1509044756373432000,,23.5680007935,3,1.0,2.21736931801,-6.05073690414,0
1509044756488946549,26715,1509044756478200000,,6.88100004196,3,1.0,1.56443035603,-6.23223781586,0
1509044756594528751,26716,1509044756583051000,,7.27099990845,3,1.0,1.47808241844,-0.823530077934,0
1509044756699541787,26717,1509044756687890000,,7.5720000267,3,1.0,1.2151376009,-2.50808119774,0
1509044756805145641,26718,1509044756792737000,,7.98400020599,2,1.0,1.09182941914,-1.1760777235,0
1509044756908331613,26719,1509044756897573000,,6.83799982071,3,1.0,0.825173020363,-2.54355788231,0
1509044757011552430,26720,1509044757002412000,,5.257999897,2,1.0,0.74978685379,-0.719065845013,0
1509044757123010396,26721,1509044757107260000,,11.0600004196,3,1.0,0.549634754658,-1.90897405148,0
1509044757222682856,26722,1509044757212137000,,5.92399978638,2,1.0,0.513027131557,-0.34905269742,0
1509044757330311213,26723,1509044757316964000,,9.32699966431,4,1.0,0.0919158160686,-4.01720285416,0
1509044757432175916,26724,1509044757421798000,,6.37699985504,2,1.0,0.240262061357,1.41505849361,0
1509044757535938157,26725,1509044757526625000,,5.25099992752,2,1.0,0.211709439754,-0.272378504276,0
1509044757640623892,26726,1509044757631480000,,5.34399986267,2,1.0,0.0777385160327,-1.27767789364,0
1509044757745542633,26727,1509044757736308000,,5.24900007248,2,1.0,0.241246938705,1.55977809429,0
1509044757855409747,26728,1509044757841209000,,8.23299980164,3,1.0,0.219461530447,-0.207675814629,0
1509044757957541863,26729,1509044757945994000,,7.61999988556,3,1.0,0.234498336911,0.143501505256,0
1509044758060226759,26730,1509044758050843000,,5.28000020981,2,1.0,0.0687211975455,-1.58110368252,0
1509044758165412055,26731,1509044758155676000,,5.67100000381,2,1.0,0.162889495492,0.898269593716,0
1509044758270939238,26732,1509044758260517000,,6.60099983215,3,1.0,0.196057453752,0.316364347935,0
1509044758377501033,26733,1509044758365437000,,7.71600008011,3,1.0,0.135148614645,-0.580526411533,0
1509044758479265417,26734,1509044758470230000,,4.96000003815,2,1.0,0.08407445997,-0.487381398678,0
1509044758587136878,26735,1509044758575095000,,6.3109998703,2,1.0,0.144957378507,0.580583751202,0
1509044758689978899,26736,1509044758679886000,,6.06799983978,2,1.0,0.0840816795826,-0.580924808979,0
1509044758811593634,26737,1509044758784759000,,11.0530004501,2,1.0,0.235328942537,1.44219446182,0
1509044758898815059,26738,1509044758889609000,,5.16599988937,2,1.0,0.0797624662519,-1.48370504379,0
1509044759003868345,26739,1509044758994425000,,5.45599985123,2,1.0,0.0797437652946,-0.000178404152393,0
1509044759126698251,26740,1509044759099272000,,16.4409999847,2,1.0,0.114191628993,0.328553646803,0
1509044759213481842,26741,1509044759204102000,,5.34200000763,2,1.0,0.128326013684,0.134831488132,0
1509044759321226308,26742,1509044759308946000,,7.55999994278,3,1.0,0.334081023932,1.96248733997,0
1509044759425446342,26743,1509044759413798000,,7.63000011444,3,1.0,0.0998842939734,-2.2335934639,0
1509044759529590273,26744,1509044759518622000,,6.55499982834,3,1.0,0.298412203789,1.89391672611,0
1509044759634885769,26745,1509044759623479000,,7.48400020599,3,1.0,0.235267281532,-0.602200508118,0
1509044759738607778,26746,1509044759728336000,,5.83599996567,2,1.0,0.149774774909,-0.815324723721,0
1509044759845318166,26747,1509044759833154000,,5.68200016022,2,1.0,0.0597624927759,-0.858748316765,0
1509044759947221549,26748,1509044759937993000,,5.07999992371,2,1.0,0.100102216005,0.384777873755,0
1509044760053119714,26749,1509044760042842000,,5.89200019836,2,1.0,0.101128064096,0.00978405028582,0
1509044760157062846,26750,1509044760147702000,,5.52099990845,2,1.0,0.0823603868484,-0.178978458047,0
1509044760261516630,26751,1509044760252519000,,5.09999990463,2,1.0,0.0855971053243,0.0308797396719,0
1509044760367219112,26752,1509044760357373000,,5.85099983215,2,1.0,0.154041692615,0.652760803699,0
1509044760473582602,26753,1509044760462207000,,7.41099977493,2,1.0,0.102174155414,-0.494758695364,0
1509044760577462865,26754,1509044760567093000,,5.83900022507,2,1.0,0.105593703687,0.0326024852693,0
1509044760680839823,26755,1509044760671889000,,4.87799978256,2,1.0,0.16752974689,0.591015398502,0
1509044760789882982,26756,1509044760776786000,,8.3140001297,3,1.0,0.144207984209,-0.222330123186,0
1509044760891845193,26757,1509044760881601000,,5.58199977875,2,1.0,0.213464647532,0.660751342773,0
1509044760998128862,26758,1509044760986426000,,7.29799985886,3,1.0,0.13385617733,-0.759441614151,0
1509044761101667674,26759,1509044761091257000,,6.14300012589,2,1.0,0.101708896458,-0.306658148766,0
1509044761205577408,26760,1509044761196098000,,5.17600011826,2,1.0,0.225844502449,1.18403685093,0
1509044761334343551,26761,1509044761300962000,,16.3449993134,3,1.0,0.2760592103,0.478855460882,0
1509044761415001453,26762,1509044761405782000,,5.33099985123,2,1.0,0.118842422962,-1.49987387657,0
