%time,field.header.seq,field.header.stamp,field.header.frame_id,field.twist.linear.x,field.twist.linear.y,field.twist.linear.z,field.twist.angular.x,field.twist.angular.y,field.twist.angular.z
1509044729558811210,138964,1509044729558327733,base_footprint,0.0,0.0,0.0,0.0,0.0,0.0
1509044729578583115,138965,1509044729578324698,base_footprint,0.0,0.0,0.0,0.0,0.0,0.0
1509044729601132871,138966,1509044729598329641,base_footprint,0.0,0.0,0.0,0.0,0.0,0.0
1509044729618867293,138967,1509044729618330735,base_footprint,0.0,0.0,0.0,0.0,0.0,0.0
1509044729639496058,138968,1509044729638752963,base_footprint,0.0,0.0,0.0,0.0,0.0,0.0
1509044729659285521,138969,1509044729658753457,base_footprint,0.0,0.0,0.0,0.0,0.0,0.0
1509044729678936127,138970,1509044729678761180,base_footprint,0.0,0.0,0.0,0.0,0.0,0.0
1509044729698911938,138971,1509044729698758298,base_footprint,0.0,0.0,0.0,0.0,0.0,0.0
1509044729721325804,138972,1509044729718766309,base_footprint,0.0,0.0,0.0,0.0,0.0,0.0
1509044729739067105,138973,1509044729738770251,base_footprint,0.0,0.0,0.0,0.0,0.0,0.0
1509044729758994444,138974,1509044729758768441,base_footprint,0.0,0.0,0.0,0.0,0.0,0.0
1509044729779273126,138975,1509044729778772661,base_footprint,0.0,0.0,0.0,0.0,0.0,0.0
1509044729799019683,138976,1509044729798773318,base_footprint,0.0,0.0,0.0,0.0,0.0,0.0
1509044729819218826,138977,1509044729818788897,base_footprint,0.0,0.0,0.0,0.0,0.0,0.0
1509044729839114072,138978,1509044729838784111,base_footprint,0.0,0.0,0.0,0.0,0.0,0.0
1509044729859150376,138979,1509044729858787117,base_footprint,0.0,0.0,0.0,0.0,0.0,0.0
1509044729879056305,138980,1509044729878792422,base_footprint,0.0,0.0,0.0,0.0,0.0,0.0
1509044729902260087,138981,1509044729899374432,base_footprint,0.0,0.0,0.0,0.0,0.0,0.0
1509044729919900245,138982,1509044729919383132,base_footprint,0.0,0.0,0.0,0.0,0.0,0.0
1509044729939819733,138983,1509044729939383691,base_footprint,0.0,0.0,0.0,0.0,0.0,0.0
1509044729959886424,138984,1509044729959565285,base_footprint,0.0,0.0,0.0,0.0,0.0,0.0
1509044729979849695,138985,1509044729979389798,base_footprint,0.0,0.0,0.0,0.0,0.0,0.0
1509044730000403001,138986,1509044729999388609,base_footprint,0.0,0.0,0.0,0.0,0.0,0.0
1509044730019783942,138987,1509044730019389154,base_footprint,0.0,0.0,0.0,0.0,0.0,0.0
1509044730039694986,138988,1509044730039392119,base_footprint,0.0,0.0,0.0,0.0,0.0,0.0
1509044730059655349,138989,1509044730059391176,base_footprint,0.0,0.0,0.0,0.0,0.0,0.0
1509044730082273588,138990,1509044730081923205,base_footprint,0.0,0.0,0.0,0.0,0.0,0.0
1509044730099600477,138991,1509044730099399321,base_footprint,0.0,0.0,0.0,0.0,0.0,0.0
1509044730119611113,138992,1509044730119399484,base_footprint,0.0,0.0,0.0,0.0,0.0,0.0
1509044730141144025,138993,1509044730140820640,base_footprint,0.0,0.0,0.0,0.0,0.0,0.0
1509044730159560168,138994,1509044730159401318,base_footprint,0.0,0.0,0.0,0.0,0.0,0.0
1509044730179556504,138995,1509044730179402333,base_footprint,0.0,0.0,0.0,0.0,0.0,0.0
1509044730199615510,138996,1509044730199406223,base_footprint,0.0,0.0,0.0,0.0,0.0,0.0
1509044730219701856,138997,1509044730219410122,base_footprint,0.0,0.0,0.0,0.0,0.0,0.0
1509044730239585750,138998,1509044730239414062,base_footprint,0.0,0.0,0.0,0.0,0.0,0.0
1509044730260112283,138999,1509044730259832758,base_footprint,0.0,0.0,0.0,0.0,0.0,0.0
1509044730279963428,139000,1509044730279835843,base_footprint,0.0,0.0,0.0,0.0,0.0,0.0
1509044730300332787,139001,1509044730299865192,base_footprint,0.0,0.0,0.0,0.0,0.0,0.0
1509044730319977586,139002,1509044730319842167,base_footprint,0.0,0.0,0.0,0.0,0.0,0.0
1509044730340043496,139003,1509044730339849701,base_footprint,0.0,0.0,0.0,0.0,0.0,0.0
1509044730359992185,139004,1509044730359841657,base_footprint,0.0,0.0,0.0,0.0,0.0,0.0
1509044730380064319,139005,1509044730379853984,base_footprint,0.0,0.0,0.0,0.0,0.0,0.0
1509044730400147737,139006,1509044730399881143,base_footprint,0.0,0.0,0.0,0.0,0.0,0.0
1509044730420039832,139007,1509044730419928354,base_footprint,0.0,0.0,0.0,0.0,0.0,0.0
1509044730440435796,139008,1509044730439954774,base_footprint,0.0,0.0,0.0,0.0,0.0,0.0
1509044730460564819,139009,1509044730460436782,base_footprint,0.0,0.0,0.0,0.0,0.0,0.0
1509044730480601087,139010,1509044730480445431,base_footprint,0.0,0.0,0.0,0.0,0.0,0.0
1509044730500550341,139011,1509044730500441500,base_footprint,0.0,0.0,0.0,0.0,0.0,0.0
1509044730520086046,139012,1509044730519998698,base_footprint,0.0,0.0,0.0,0.0,0.0,0.0
1509044730540107976,139013,1509044730539974240,base_footprint,0.0,0.0,0.0,0.0,0.0,0.0
1509044730560630141,139014,1509044730560472706,base_footprint,0.0,0.0,0.0,0.0,0.0,0.0
1509044730580341282,139015,1509044730580107574,base_footprint,0.0,0.0,0.0,0.0,0.0,0.0
1509044730600629557,139016,1509044730600506662,base_footprint,0.0,0.0,0.0,0.0,0.0,0.0
1509044730620203150,139017,1509044730620055464,base_footprint,0.0,0.0,0.0,0.0,0.0,0.0
1509044730640725931,139018,1509044730640550265,base_footprint,0.0,0.0,0.0,0.0,0.0,0.0
1509044730660621653,139019,1509044730660462951,base_footprint,0.0,0.0,0.0,0.0,0.0,0.0
1509044730680670387,139020,1509044730680463609,base_footprint,0.0,0.0,0.0,0.0,0.0,0.0
1509044730700589613,139021,1509044730700464952,base_footprint,0.0,0.0,0.0,0.0,0.0,0.0
1509044730720586173,139022,1509044730720467889,base_footprint,0.0,0.0,0.0,0.0,0.0,0.0
1509044730740619609,139023,1509044730740491687,base_footprint,0.0,0.0,0.0,0.0,0.0,0.0
1509044730760609769,139024,1509044730760475218,base_footprint,0.0,0.0,0.0,0.0,0.0,0.0
1509044730780648971,139025,1509044730780505622,base_footprint,0.0,0.0,0.0,0.0,0.0,0.0
1509044730801374567,139026,1509044730800482978,base_footprint,0.0,0.0,0.0,0.0,0.0,0.0
1509044730820625541,139027,1509044730820479830,base_footprint,0.0,0.0,0.0,0.0,0.0,0.0
1509044730840609767,139028,1509044730840506156,base_footprint,0.0,0.0,0.0,0.0,0.0,0.0
1509044730860612938,139029,1509044730860487512,base_footprint,0.0,0.0,0.0,0.0,0.0,0.0
1509044730880597631,139030,1509044730880488049,base_footprint,0.0,0.0,0.0,0.0,0.0,0.0
1509044730901091939,139031,1509044730900491725,base_footprint,0.0,0.0,0.0,0.0,0.0,0.0
1509044730921177494,139032,1509044730920941319,base_footprint,0.0,0.0,0.0,0.0,0.0,0.0
1509044730941056544,139033,1509044730940916145,base_footprint,0.0,0.0,0.0,0.0,0.0,0.0
1509044730961027598,139034,1509044730960939645,base_footprint,0.0,0.0,0.0,0.0,0.0,0.0
1509044730981044458,139035,1509044730980920424,base_footprint,0.0,0.0,0.0,0.0,0.0,0.0
1509044731001030008,139036,1509044731000925342,base_footprint,0.0,0.0,0.0,0.0,0.0,0.0
1509044731021067351,139037,1509044731020949916,base_footprint,0.0,0.0,0.0,0.0,0.0,0.0
1509044731041106221,139038,1509044731040928083,base_footprint,0.0,0.0,0.0,0.0,0.0,0.0
1509044731061043104,139039,1509044731060931096,base_footprint,0.0,0.0,0.0,0.0,0.0,0.0
1509044731081157802,139040,1509044731080956708,base_footprint,0.0,0.0,0.0,0.0,0.0,0.0
1509044731101194917,139041,1509044731100982882,base_footprint,0.0,0.0,0.0,0.0,0.0,0.0
1509044731121035210,139042,1509044731120939282,base_footprint,0.0,0.0,0.0,0.0,0.0,0.0
1509044731141049399,139043,1509044731140941776,base_footprint,0.0,0.0,0.0,0.0,0.0,0.0
1509044731161163600,139044,1509044731160966139,base_footprint,0.0,0.0,0.0,0.0,0.0,0.0
1509044731181064466,139045,1509044731180947971,base_footprint,0.0,0.0,0.0,0.0,0.0,0.0
1509044731201627753,139046,1509044731201529689,base_footprint,0.0,0.0,0.0,0.0,0.0,0.0
1509044731221674375,139047,1509044731221538150,base_footprint,0.0,0.0,0.0,0.0,0.0,0.0
1509044731241899693,139048,1509044731241569933,base_footprint,0.0,0.0,0.0,0.0,0.0,0.0
1509044731261771329,139049,1509044731261541747,base_footprint,0.0,0.0,0.0,0.0,0.0,0.0
1509044731281671034,139050,1509044731281542510,base_footprint,0.0,0.0,0.0,0.0,0.0,0.0
1509044731301667880,139051,1509044731301570207,base_footprint,0.0,0.0,0.0,0.0,0.0,0.0
1509044731321562974,139052,1509044731321442225,base_footprint,0.0,0.0,0.0,0.0,0.0,0.0
1509044731341867003,139053,1509044731341572475,base_footprint,0.0,0.0,0.0,0.0,0.0,0.0
1509044731361764631,139054,1509044731361553789,base_footprint,0.0,0.0,0.0,0.0,0.0,0.0
1509044731381657785,139055,1509044731381554717,base_footprint,0.0,0.0,0.0,0.0,0.0,0.0
1509044731401692416,139056,1509044731401558587,base_footprint,0.0,0.0,0.0,0.0,0.0,0.0
1509044731421755798,139057,1509044731421567542,base_footprint,0.0,0.0,0.0,0.0,0.0,0.0
1509044731441756879,139058,1509044731441574626,base_footprint,0.0,0.0,0.0,0.0,0.0,0.0
1509044731461681052,139059,1509044731461568341,base_footprint,0.0,0.0,0.0,0.0,0.0,0.0
1509044731481678128,139060,1509044731481571763,base_footprint,0.0,0.0,0.0,0.0,0.0,0.0
1509044731501778591,139061,1509044731501574281,base_footprint,0.0,0.0,0.0,0.0,0.0,0.0
1509044731521714170,139062,1509044731521578991,base_footprint,0.0,0.0,0.0,0.0,0.0,0.0
1509044731541716736,139063,1509044731541582038,base_footprint,0.0,0.0,0.0,0.0,0.0,0.0
1509044731562106023,139064,1509044731562001515,base_footprint,0.0,0.0,0.0,0.0,0.0,0.0
1509044731582113643,139065,1509044731582003435,base_footprint,0.0,0.0,0.0,0.0,0.0,0.0
1509044731602209099,139066,1509044731602008900,base_footprint,0.0,0.0,0.0,0.0,0.0,0.0
1509044731622153446,139067,1509044731622013996,base_footprint,0.0,0.0,0.0,0.0,0.0,0.0
1509044731642289481,139068,1509044731642042242,base_footprint,0.0,0.0,0.0,0.0,0.0,0.0
1509044731662175675,139069,1509044731662020459,base_footprint,0.0,0.0,0.0,0.0,0.0,0.0
1509044731682273327,139070,1509044731682020638,base_footprint,0.0,0.0,0.0,0.0,0.0,0.0
1509044731702176908,139071,1509044731702022827,base_footprint,0.0,0.0,0.0,0.0,0.0,0.0
1509044731722176668,139072,1509044731722024748,base_footprint,0.0,0.0,0.0,0.0,0.0,0.0
1509044731742192457,139073,1509044731742023666,base_footprint,0.0,0.0,0.0,0.0,0.0,0.0
1509044731762143533,139074,1509044731762026584,base_footprint,0.0,0.0,0.0,0.0,0.0,0.0
1509044731783234696,139075,1509044731782036494,base_footprint,0.0,0.0,0.0,0.0,0.0,0.0
1509044731802314257,139076,1509044731802037725,base_footprint,0.0,0.0,0.0,0.0,0.0,0.0
1509044731822729393,139077,1509044731822618281,base_footprint,0.0,0.0,0.0,0.0,0.0,0.0
1509044731843062919,139078,1509044731842635055,base_footprint,0.0,0.0,0.0,0.0,0.0,0.0
1509044731862832714,139079,1509044731862643110,base_footprint,0.0,0.0,0.0,0.0,0.0,0.0
1509044731882906441,139080,1509044731882660702,base_footprint,0.0,0.0,0.0,0.0,0.0,0.0
1509044731902742560,139081,1509044731902628112,base_footprint,0.0,0.0,0.0,0.0,0.0,0.0
1509044731922748095,139082,1509044731922635952,base_footprint,0.0,0.0,0.0,0.0,0.0,0.0
1509044731942747856,139083,1509044731942635316,base_footprint,0.0,0.0,0.0,0.0,0.0,0.0
1509044731962769532,139084,1509044731962636432,base_footprint,0.0,0.0,0.0,0.0,0.0,0.0
1509044731982809457,139085,1509044731982646314,base_footprint,0.0,0.0,0.0,0.0,0.0,0.0
1509044732002895613,139086,1509044732002664721,base_footprint,0.241666659713,0.0,0.0,0.0,0.0,0.000296013474832
1509044732022763945,139087,1509044732022640234,base_footprint,0.300000011921,0.0,0.0,0.0,0.0,0.000321531593787
1509044732044111236,139088,1509044732042656075,base_footprint,0.355555564165,0.0,0.0,0.0,0.0,0.000313025152768
1509044732062784655,139089,1509044732062652036,base_footprint,0.413888901472,0.0,0.0,0.0,0.0,0.000269324717588
1509044732082845556,139090,1509044732082654738,base_footprint,0.480555564165,0.0,0.0,0.0,0.0,0.000202338965031
1509044732103377040,139091,1509044732103105060,base_footprint,0.558333337307,0.0,0.0,0.0,0.0,0.000106857892993
1509044732122867364,139092,1509044732122661953,base_footprint,0.666666686535,0.0,0.0,0.0,0.0,-0.000204146458645
1509044732142940504,139093,1509044732142700273,base_footprint,0.844444453716,0.0,0.0,0.0,0.0,-0.000711111370015
1509044732162982298,139094,1509044732162672599,base_footprint,1.00277781487,0.0,0.0,0.0,0.0,-0.00142020755204
1509044732182922616,139095,1509044732182677061,base_footprint,1.15555560589,0.0,0.0,0.0,0.0,-0.00234430746066
1509044732202793276,139096,1509044732202665268,base_footprint,1.29722225666,0.0,0.0,0.0,0.0,-0.00352553009553
1509044732223263085,139097,1509044732223107773,base_footprint,1.43888890743,0.0,0.0,0.0,0.0,-0.00506725408704
1509044732243716701,139098,1509044732243109612,base_footprint,1.58333337307,0.0,0.0,0.0,0.0,-0.00697005141042
1509044732265898586,139099,1509044732263105743,base_footprint,1.7277777195,0.0,0.0,0.0,0.0,-0.00892886071244
1509044732283302562,139100,1509044732283203537,base_footprint,1.95000004768,0.0,0.0,0.0,0.0,-0.0117197869608
1509044732303307616,139101,1509044732303208850,base_footprint,2.06388878822,0.0,0.0,0.0,0.0,-0.0138267496524
1509044732323246575,139102,1509044732323100901,base_footprint,2.10833334923,0.0,0.0,0.0,0.0,-0.015335504663
1509044732343238271,139103,1509044732343105471,base_footprint,2.23611116409,0.0,0.0,0.0,0.0,-0.0178919603553
1509044732363302725,139104,1509044732363190614,base_footprint,2.4777777195,0.0,0.0,0.0,0.0,-0.021343964699
1509044732383279087,139105,1509044732383114367,base_footprint,2.55555558205,0.0,0.0,0.0,0.0,-0.0231885423711
1509044732403381904,139106,1509044732403218277,base_footprint,2.73611116409,0.0,0.0,0.0,0.0,-0.0258749068244
1509044732423374595,139107,1509044732423226335,base_footprint,2.84999990463,0.0,0.0,0.0,0.0,-0.0276069649154
1509044732444095618,139108,1509044732443133673,base_footprint,2.90833330154,0.0,0.0,0.0,0.0,-0.0289518945204
1509044732463286826,139109,1509044732463124522,base_footprint,3.10555553436,0.0,0.0,0.0,0.0,-0.0321049264947
1509044732483874945,139110,1509044732483704506,base_footprint,3.51388883591,0.0,0.0,0.0,0.0,-0.0374032188058
1509044732503823365,139111,1509044732503706259,base_footprint,3.63611102104,0.0,0.0,0.0,0.0,-0.0392614435852
1509044732523319930,139112,1509044732523211833,base_footprint,3.99722218513,0.0,0.0,0.0,0.0,-0.0434668930854
1509044732543874369,139113,1509044732543718151,base_footprint,4.09722232819,0.0,0.0,0.0,0.0,-0.0448682877686
1509044732563842066,139114,1509044732563715399,base_footprint,4.38055562973,0.0,0.0,0.0,0.0,-0.0486424115587
1509044732584194597,139115,1509044732583716749,base_footprint,4.54166650772,0.0,0.0,0.0,0.0,-0.0502573950063
1509044732603920896,139116,1509044732603743187,base_footprint,4.66666650772,0.0,0.0,0.0,0.0,-0.0512830203335
1509044732623919402,139117,1509044732623720413,base_footprint,4.76388883591,0.0,0.0,0.0,0.0,-0.0523514177913
1509044732644678492,139118,1509044732644437506,base_footprint,4.80833339691,0.0,0.0,0.0,0.0,-0.0530240621623
1509044732663945171,139119,1509044732663754025,base_footprint,4.95833349228,0.0,0.0,0.0,0.0,-0.0552481367483
1509044732683929414,139120,1509044732683811903,base_footprint,5.01944446564,0.0,0.0,0.0,0.0,-0.0570830364321
1509044732703874164,139121,1509044732703755650,base_footprint,5.03888893127,0.0,0.0,0.0,0.0,-0.0580764970853
1509044732723844094,139122,1509044732723734964,base_footprint,4.76111125946,0.0,0.0,0.0,0.0,-0.0548749273807
1509044732743947690,139123,1509044732743766858,base_footprint,4.64166688919,0.0,0.0,0.0,0.0,-0.0533203890974
1509044732764010085,139124,1509044732763790331,base_footprint,4.06388902664,0.0,0.0,0.0,0.0,-0.0468389842344
1509044732783921307,139125,1509044732783823171,base_footprint,3.70277786255,0.0,0.0,0.0,0.0,-0.0432444924998
1509044732803955210,139126,1509044732803831624,base_footprint,3.43333339691,0.0,0.0,0.0,0.0,-0.0399661033879
1509044732823918963,139127,1509044732823831576,base_footprint,3.24722218513,0.0,0.0,0.0,0.0,-0.0376752221888
1509044732844532983,139128,1509044732843764150,base_footprint,3.18611121178,0.0,0.0,0.0,0.0,-0.0368441047118
1509044732863954957,139129,1509044732863847361,base_footprint,3.07222223282,0.0,0.0,0.0,0.0,-0.0351739269574
1509044732884346601,139130,1509044732884200074,base_footprint,3.04166674614,0.0,0.0,0.0,0.0,-0.034357898745
1509044732904298615,139131,1509044732904200545,base_footprint,3.0222222805,0.0,0.0,0.0,0.0,-0.033559254217
1509044732924353108,139132,1509044732924209164,base_footprint,3.01388883591,0.0,0.0,0.0,0.0,-0.0328893319609
1509044732944388379,139133,1509044732944214225,base_footprint,3.01111102104,0.0,0.0,0.0,0.0,-0.0321668164711
1509044732964313864,139134,1509044732964213548,base_footprint,3.0083334446,0.0,0.0,0.0,0.0,-0.0314456101433
1509044732984387418,139135,1509044732984189006,base_footprint,3.00555562973,0.0,0.0,0.0,0.0,-0.0304954215778
1509044733004308825,139136,1509044733004198244,base_footprint,3.00555562973,0.0,0.0,0.0,0.0,-0.0295743155361
1509044733024326690,139137,1509044733024193354,base_footprint,3.01111102104,0.0,0.0,0.0,0.0,-0.0284755305741
1509044733044544130,139138,1509044733044208073,base_footprint,3.01666665077,0.0,0.0,0.0,0.0,-0.0274881103137
1509044733064302026,139139,1509044733064200700,base_footprint,3.03055548668,0.0,0.0,0.0,0.0,-0.0263378236272
1509044733084317395,139140,1509044733084202142,base_footprint,3.03888893127,0.0,0.0,0.0,0.0,-0.0251299697188
1509044733104932352,139141,1509044733104816041,base_footprint,3.04722213745,0.0,0.0,0.0,0.0,-0.0239151648147
1509044733125026382,139142,1509044733124836166,base_footprint,3.05555558205,0.0,0.0,0.0,0.0,-0.0226934096409
1509044733144945556,139143,1509044733144871334,base_footprint,3.05833339691,0.0,0.0,0.0,0.0,-0.0215428910314
1509044733164893391,139144,1509044733164793976,base_footprint,3.07222223282,0.0,0.0,0.0,0.0,-0.0204643076631
1509044733184926772,139145,1509044733184799069,base_footprint,3.080555439,0.0,0.0,0.0,0.0,-0.0194582101131
1509044733204990648,139146,1509044733204811574,base_footprint,3.08888888359,0.0,0.0,0.0,0.0,-0.0188012180271
1509044733224919707,139147,1509044733224801671,base_footprint,3.09722232819,0.0,0.0,0.0,0.0,-0.0182589990501
1509044733245081567,139148,1509044733244954606,base_footprint,3.1027777195,0.0,0.0,0.0,0.0,-0.0178165535891
1509044733264942687,139149,1509044733264808322,base_footprint,3.10555553436,0.0,0.0,0.0,0.0,-0.0177135988451
1509044733284912229,139150,1509044733284811120,base_footprint,3.10555553436,0.0,0.0,0.0,0.0,-0.0175946959785
1509044733304901020,139151,1509044733304813413,base_footprint,3.11111116409,0.0,0.0,0.0,0.0,-0.0176261717049
1509044733325005452,139152,1509044733324819300,base_footprint,3.11944437027,0.0,0.0,0.0,0.0,-0.0176733839436
1509044733344995438,139153,1509044733344896897,base_footprint,3.125,0.0,0.0,0.0,0.0,-0.0177048596699
1509044733364986829,139154,1509044733364850044,base_footprint,3.125,0.0,0.0,0.0,0.0,-0.0177048596699
1509044733384972017,139155,1509044733384844160,base_footprint,3.125,0.0,0.0,0.0,0.0,-0.0175852107086
1509044733405010376,139156,1509044733404831717,base_footprint,3.13055562973,0.0,0.0,0.0,0.0,-0.0174966145154
1509044733425127273,139157,1509044733424947355,base_footprint,3.13888883591,0.0,0.0,0.0,0.0,-0.0173028313207
1509044733447375846,139158,1509044733444916435,base_footprint,3.1472222805,0.0,0.0,0.0,0.0,-0.0168667816647
1509044733465576585,139159,1509044733465324938,base_footprint,3.1472222805,0.0,0.0,0.0,0.0,-0.0162643082247
1509044733485048429,139160,1509044733484850492,base_footprint,3.15000009537,0.0,0.0,0.0,0.0,-0.0157962653026
1509044733505498042,139161,1509044733505279296,base_footprint,3.15555548668,0.0,0.0,0.0,0.0,-0.0153408819495
1509044733525381319,139162,1509044733525260463,base_footprint,3.15833330154,0.0,0.0,0.0,0.0,-0.0147498105071
1509044733545195079,139163,1509044733544998666,base_footprint,3.15833330154,0.0,0.0,0.0,0.0,-0.0142661550751
1509044733565422438,139164,1509044733565274427,base_footprint,3.15833330154,0.0,0.0,0.0,0.0,-0.0139034178509
1509044733585420726,139165,1509044733585271794,base_footprint,3.16111111641,0.0,0.0,0.0,0.0,-0.0134315757864
1509044733605495655,139166,1509044733605299689,base_footprint,3.16666674614,0.0,0.0,0.0,0.0,-0.0133339522062
1509044733625419337,139167,1509044733625283780,base_footprint,3.169444561,0.0,0.0,0.0,0.0,-0.0132243133093
1509044733645357433,139168,1509044733645277302,base_footprint,3.169444561,0.0,0.0,0.0,0.0,-0.013102978122
1509044733665430793,139169,1509044733665289854,base_footprint,3.17222213745,0.0,0.0,0.0,0.0,-0.0131144610562
1509044733685378479,139170,1509044733685281649,base_footprint,3.17499995232,0.0,0.0,0.0,0.0,-0.0131259449761
1509044733705449032,139171,1509044733705314593,base_footprint,3.17222213745,0.0,0.0,0.0,0.0,-0.0131144610562
1509044733725402106,139172,1509044733725290431,base_footprint,3.169444561,0.0,0.0,0.0,0.0,-0.0129816432466
1509044733745413871,139173,1509044733745311285,base_footprint,3.169444561,0.0,0.0,0.0,0.0,-0.0129816432466
1509044733765447136,139174,1509044733765300540,base_footprint,3.16666674614,0.0,0.0,0.0,0.0,-0.0129702656689
1509044733786034730,139175,1509044733785899005,base_footprint,3.169444561,0.0,0.0,0.0,0.0,-0.0129816432466
1509044733805961430,139176,1509044733805877498,base_footprint,3.16388893127,0.0,0.0,0.0,0.0,-0.0128377662088
1509044733826027192,139177,1509044733825903716,base_footprint,3.16111111641,0.0,0.0,0.0,0.0,-0.012584464805
1509044733846044575,139178,1509044733845884461,base_footprint,3.16111111641,0.0,0.0,0.0,0.0,-0.0123424348018
1509044733866046199,139179,1509044733865892462,base_footprint,3.16111111641,0.0,0.0,0.0,0.0,-0.0119793935428
1509044733885987731,139180,1509044733885891145,base_footprint,3.16111111641,0.0,0.0,0.0,0.0,-0.011495342509
1509044733906170858,139181,1509044733905896477,base_footprint,3.15555548668,0.0,0.0,0.0,0.0,-0.0109919435807
1509044733926094512,139182,1509044733925924209,base_footprint,3.15277767181,0.0,0.0,0.0,0.0,-0.010378809032
1509044733946079992,139183,1509044733945923019,base_footprint,3.15555548668,0.0,0.0,0.0,0.0,-0.00990476669117
1509044733966067240,139184,1509044733965907053,base_footprint,3.15555548668,0.0,0.0,0.0,0.0,-0.00942158367456
1509044733986163740,139185,1509044733985904998,base_footprint,3.15277767181,0.0,0.0,0.0,0.0,-0.00893053582685
1509044734006074987,139186,1509044734005910285,base_footprint,3.15277767181,0.0,0.0,0.0,0.0,-0.00868916006902
1509044734026073445,139187,1509044734025934978,base_footprint,3.15000009537,0.0,0.0,0.0,0.0,-0.00831976134264
1509044734046374343,139188,1509044734045933008,base_footprint,3.15000009537,0.0,0.0,0.0,0.0,-0.00807859974364
1509044734066022877,139189,1509044734065914152,base_footprint,3.14444446564,0.0,0.0,0.0,0.0,-0.00782361659982
1509044734086055673,139190,1509044734085916681,base_footprint,3.14444446564,0.0,0.0,0.0,0.0,-0.00782361659982
1509044734106065671,139191,1509044734105941947,base_footprint,3.14166665077,0.0,0.0,0.0,0.0,-0.0078167051855
1509044734126105481,139192,1509044734125926976,base_footprint,3.13888883591,0.0,0.0,0.0,0.0,-0.00780979377119
1509044734146455315,139193,1509044734146343101,base_footprint,3.1333334446,0.0,0.0,0.0,0.0,-0.00779597153576
1509044734166465608,139194,1509044734166345986,base_footprint,3.13055562973,0.0,0.0,0.0,0.0,-0.00778906012145
1509044734186465654,139195,1509044734186350933,base_footprint,3.12777781487,0.0,0.0,0.0,0.0,-0.00778214870714
1509044734206463556,139196,1509044734206352526,base_footprint,3.12777781487,0.0,0.0,0.0,0.0,-0.00778214870714
1509044734226561539,139197,1509044734226385749,base_footprint,3.12222218513,0.0,0.0,0.0,0.0,-0.00776832587851
1509044734246466353,139198,1509044734246360365,base_footprint,3.11944437027,0.0,0.0,0.0,0.0,-0.00776141446419
1509044734266456392,139199,1509044734266360615,base_footprint,3.1166665554,0.0,0.0,0.0,0.0,-0.00775450304988
1509044734286454038,139200,1509044734286361945,base_footprint,3.1166665554,0.0,0.0,0.0,0.0,-0.00775450304988
1509044734306652385,139201,1509044734306518647,base_footprint,3.1166665554,0.0,0.0,0.0,0.0,-0.00775450304988
1509044734326593682,139202,1509044734326454733,base_footprint,3.11111116409,0.0,0.0,0.0,0.0,-0.00774068081446
1509044734346472578,139203,1509044734346370443,base_footprint,3.1027777195,0.0,0.0,0.0,0.0,-0.00771994657151
1509044734366576534,139204,1509044734366374811,base_footprint,3.09999990463,0.0,0.0,0.0,0.0,-0.00759436925436
1509044734386474615,139205,1509044734386377076,base_footprint,3.09999990463,0.0,0.0,0.0,0.0,-0.00747570353227
1509044734406495307,139206,1509044734406377170,base_footprint,3.09444451332,0.0,0.0,0.0,0.0,-0.00734385372158
1509044734426556644,139207,1509044734426463024,base_footprint,3.08611106873,0.0,0.0,0.0,0.0,-0.00732407647308
1509044734447119885,139208,1509044734446969341,base_footprint,3.07500004768,0.0,0.0,0.0,0.0,-0.00729770737424
1509044734467118073,139209,1509044734466970564,base_footprint,3.05833339691,0.0,0.0,0.0,0.0,-0.00725815344307
1509044734487121570,139210,1509044734486970740,base_footprint,3.03333330154,0.0,0.0,0.0,0.0,-0.0071988222634
1509044734507101144,139211,1509044734506972082,base_footprint,3.01111102104,0.0,0.0,0.0,0.0,-0.00714608349989
1509044734527077366,139212,1509044734526976637,base_footprint,2.99444437027,0.0,0.0,0.0,0.0,-0.00710652956872
1509044734547078215,139213,1509044734546978663,base_footprint,2.98333334923,0.0,0.0,0.0,0.0,-0.00708016046988
1509044734569175435,139214,1509044734566987648,base_footprint,2.9777777195,0.0,0.0,0.0,0.0,-0.00706697563755
1509044734588400878,139215,1509044734586993311,base_footprint,2.96666669846,0.0,0.0,0.0,0.0,-0.00715416819322
1509044734607151760,139216,1509044734606986050,base_footprint,2.94444441795,0.0,0.0,0.0,0.0,-0.00721328995058
1509044734627067418,139217,1509044734626988348,base_footprint,2.92222213745,0.0,0.0,0.0,0.0,-0.00704698936357
1509044734647170948,139218,1509044734646997943,base_footprint,2.8972222805,0.0,0.0,0.0,0.0,-0.00698670177497
1509044734667086475,139219,1509044734666994927,base_footprint,2.8666665554,0.0,0.0,0.0,0.0,-0.00691301611398
1509044734687138314,139220,1509044734687000971,base_footprint,2.83611106873,0.0,0.0,0.0,0.0,-0.00673076693966
1509044734707098515,139221,1509044734707000590,base_footprint,2.80833339691,0.0,0.0,0.0,0.0,-0.00644984282099
1509044734727098083,139222,1509044734727000906,base_footprint,2.78055548668,0.0,0.0,0.0,0.0,-0.00617317154642
1509044734747261223,139223,1509044734747047051,base_footprint,2.75555562973,0.0,0.0,0.0,0.0,-0.00580123003836
1509044734767324228,139224,1509044734767042616,base_footprint,2.73055553436,0.0,0.0,0.0,0.0,-0.00533050869434
1509044734787164719,139225,1509044734787025357,base_footprint,2.70000004768,0.0,0.0,0.0,0.0,-0.00465074779383
1509044734807650939,139226,1509044734807467811,base_footprint,2.66666674614,0.0,0.0,0.0,0.0,-0.00408295404771
1509044734827802448,139227,1509044734827505050,base_footprint,2.63611102104,0.0,0.0,0.0,0.0,-0.00363254878224
1509044734849873034,139228,1509044734847466195,base_footprint,2.60833334923,0.0,0.0,0.0,0.0,-0.00319490416735
1509044734867603525,139229,1509044734867454034,base_footprint,2.57777786255,0.0,0.0,0.0,0.0,-0.00286146163684
1509044734887574019,139230,1509044734887446959,base_footprint,2.544444561,0.0,0.0,0.0,0.0,-0.00253227298881
1509044734907612757,139231,1509044734907475092,base_footprint,2.51388883591,0.0,0.0,0.0,0.0,-0.00250186342969
1509044734927586504,139232,1509044734927478444,base_footprint,2.48333334923,0.0,0.0,0.0,0.0,-0.00247145410784
1509044734947598646,139233,1509044734947478532,base_footprint,2.44722223282,0.0,0.0,0.0,0.0,-0.0024355157321
1509044734967611819,139234,1509044734967482008,base_footprint,2.41666674614,0.0,0.0,0.0,0.0,-0.00240510641025
1509044734989163916,139235,1509044734988058631,base_footprint,2.38611102104,0.0,0.0,0.0,0.0,-0.00237469685113
1509044735007721138,139236,1509044735007521629,base_footprint,2.35555553436,0.0,0.0,0.0,0.0,-0.00234428752928
1509044735027710714,139237,1509044735027471133,base_footprint,2.32500004768,0.0,0.0,0.0,0.0,-0.00231387820743
1509044735047672512,139238,1509044735047470770,base_footprint,2.294444561,0.0,0.0,0.0,0.0,-0.00228346888559
1509044735068299619,139239,1509044735068081584,base_footprint,2.26111102104,0.0,0.0,0.0,0.0,-0.00225029479952
1509044735088215137,139240,1509044735088054226,base_footprint,2.22499990463,0.0,0.0,0.0,0.0,-0.002299524413
1509044735108288049,139241,1509044735108082926,base_footprint,2.19444441795,0.0,0.0,0.0,0.0,-0.00226794549588
1509044735128173599,139242,1509044735128058584,base_footprint,2.16111111641,0.0,0.0,0.0,0.0,-0.00215077325314
1509044735148217848,139243,1509044735148061870,base_footprint,2.12777781487,0.0,0.0,0.0,0.0,-0.00211759940435
1509044735168340990,139244,1509044735168097470,base_footprint,2.09444451332,0.0,0.0,0.0,0.0,-0.00208442555555
1509044735188263231,139245,1509044735188096293,base_footprint,2.06388878822,0.0,0.0,0.0,0.0,-0.00205401599643
1509044735208296934,139246,1509044735208073470,base_footprint,2.03333330154,0.0,0.0,0.0,0.0,-0.00202360667458
1509044735228296796,139247,1509044735228101189,base_footprint,2.0,0.0,0.0,0.0,0.0,-0.00199043282579
1509044735248316360,139248,1509044735248083760,base_footprint,1.96666669846,0.0,0.0,0.0,0.0,-0.001957258977
1509044735268317031,139249,1509044735268103325,base_footprint,1.93055558205,0.0,0.0,0.0,0.0,-0.00184742316608
1509044735288316985,139250,1509044735288133539,base_footprint,1.89444446564,0.0,0.0,0.0,0.0,-0.00181286704471
1509044735308473317,139251,1509044735308108842,base_footprint,1.85833334923,0.0,0.0,0.0,0.0,-0.00177831092334
1509044735328255462,139252,1509044735328110168,base_footprint,1.82222223282,0.0,0.0,0.0,0.0,-0.00174375480197
1509044735348216799,139253,1509044735348089902,base_footprint,1.78333330154,0.0,0.0,0.0,0.0,-0.00170654048232
1509044735368211361,139254,1509044735368090495,base_footprint,1.74444448948,0.0,0.0,0.0,0.0,-0.00166932627674
1509044735388264458,139255,1509044735388094698,base_footprint,1.71111106873,0.0,0.0,0.0,0.0,-0.00163742823957
1509044735408954748,139256,1509044735408129046,base_footprint,1.67777776718,0.0,0.0,0.0,0.0,-0.00160553031648
1509044735428327023,139257,1509044735428121229,base_footprint,1.63888883591,0.0,0.0,0.0,0.0,-0.00156831599683
1509044735448697238,139258,1509044735448528949,base_footprint,1.6027777195,0.0,0.0,0.0,0.0,-0.00153375987546
1509044735468679302,139259,1509044735468553849,base_footprint,1.5666667223,0.0,0.0,0.0,0.0,-0.00149920386816
1509044735488712917,139260,1509044735488547583,base_footprint,1.53055560589,0.0,0.0,0.0,0.0,-0.00146464774679
1509044735508727613,139261,1509044735508557593,base_footprint,1.49444448948,0.0,0.0,0.0,0.0,-0.00143009162542
1509044735528684778,139262,1509044735528531600,base_footprint,1.45833337307,0.0,0.0,0.0,0.0,-0.00139553550405
1509044735548797019,139263,1509044735548547049,base_footprint,1.4194444418,0.0,0.0,0.0,0.0,-0.00130398811142
1509044735568867884,139264,1509044735568584508,base_footprint,1.38055551052,0.0,0.0,0.0,0.0,-0.00126826237073
1509044735588682908,139265,1509044735588541442,base_footprint,1.34166669846,0.0,0.0,0.0,0.0,-0.00118118084928
1509044735608802873,139266,1509044735608569555,base_footprint,1.30277776718,0.0,0.0,0.0,0.0,-0.00114694368671
1509044735629298742,139267,1509044735629151296,base_footprint,1.26388883591,0.0,0.0,0.0,0.0,-0.00106432781658
1509044735649289904,139268,1509044735649150530,base_footprint,1.2277777195,0.0,0.0,0.0,0.0,-0.00103391844466
1509044735668726628,139269,1509044735668576979,base_footprint,1.19722223282,0.0,0.0,0.0,0.0,-0.00100818749942
1509044735688726203,139270,1509044735688580322,base_footprint,1.16111111641,0.0,0.0,0.0,0.0,-0.000977778127496
1509044735709259924,139271,1509044735709140102,base_footprint,1.12222218513,0.0,0.0,0.0,0.0,-0.000902073433411
1509044735729556269,139272,1509044735729450393,base_footprint,1.0805555582,0.0,0.0,0.0,0.0,-0.000868580638747
1509044735749286196,139273,1509044735749139170,base_footprint,1.04166662693,0.0,0.0,0.0,0.0,-0.000837320633179
1509044735769367370,139274,1509044735769166895,base_footprint,1.00555551052,0.0,0.0,0.0,0.0,-0.000808293512529
1509044735789281262,139275,1509044735789145786,base_footprint,0.966666638851,0.0,0.0,0.0,0.0,-0.000777033554872
1509044735809269306,139276,1509044735809150139,base_footprint,0.930555582047,0.0,0.0,0.0,0.0,-0.000712387028095
1509044735829768979,139277,1509044735829170059,base_footprint,0.899999976158,0.0,0.0,0.0,0.0,-0.000688995177366
1509044735849363029,139278,1509044735849181608,base_footprint,0.869444429874,0.0,0.0,0.0,0.0,-0.000632323123599
1509044735869364319,139279,1509044735869180329,base_footprint,0.841666638851,0.0,0.0,0.0,0.0,-0.000579904130053
1509044735889452169,139280,1509044735889214521,base_footprint,0.813888907433,0.0,0.0,0.0,0.0,-0.000529611688941
1509044735909315216,139281,1509044735909169552,base_footprint,0.783333361149,0.0,0.0,0.0,0.0,-0.0004797445459
1509044735929295501,139282,1509044735929164115,base_footprint,0.755555570126,0.0,0.0,0.0,0.0,-0.000404890684038
1509044735949335354,139283,1509044735949217520,base_footprint,0.727777779102,0.0,0.0,0.0,0.0,-0.000362147467088
1509044735969267531,139284,1509044735969169480,base_footprint,0.699999988079,0.0,0.0,0.0,0.0,-0.000348325038114
1509044735989356000,139285,1509044735989172272,base_footprint,0.675000011921,0.0,0.0,0.0,0.0,-0.000335884869833
1509044736009344784,139286,1509044736009204832,base_footprint,0.647222220898,0.0,0.0,0.0,0.0,-0.00032206244086
1509044736029385594,139287,1509044736029202021,base_footprint,0.625,0.0,0.0,0.0,0.0,-0.000311004503613
1509044736049374409,139288,1509044736049208185,base_footprint,0.600000023842,0.0,0.0,0.0,0.0,-0.000298564335332
1509044736069342819,139289,1509044736069182207,base_footprint,0.574999988079,0.0,0.0,0.0,0.0,-0.000286124137392
1509044736089789477,139290,1509044736089653940,base_footprint,0.552777767181,0.0,0.0,0.0,0.0,-0.000275066200144
1509044736111215561,139291,1509044736109627750,base_footprint,0.530555546284,0.0,0.0,0.0,0.0,-0.000264008262897
1509044736129722472,139292,1509044736129632369,base_footprint,0.513888895512,0.0,0.0,0.0,0.0,-0.000236044413715
1509044736149763211,139293,1509044736149634356,base_footprint,0.497222214937,0.0,0.0,0.0,0.0,-0.000228388912926
1509044736169790767,139294,1509044736169636575,base_footprint,0.480555564165,0.0,0.0,0.0,0.0,-0.000220733425827
1509044736189773159,139295,1509044736189618184,base_footprint,0.469444453716,0.0,0.0,0.0,0.0,-0.000197660607821
1509044736209798496,139296,1509044736209642369,base_footprint,0.455555558205,0.0,0.0,0.0,0.0,-0.000174375120809
1509044736229785575,139297,1509044736229653812,base_footprint,0.444444447756,0.0,0.0,0.0,0.0,-0.00017012206936
1509044736249781742,139298,1509044736249626343,base_footprint,0.433333337307,0.0,0.0,0.0,0.0,-0.000165869017911
1509044736269765613,139299,1509044736269629277,base_footprint,0.422222226858,0.0,0.0,0.0,0.0,-0.000161615966462
1509044736289807753,139300,1509044736289654177,base_footprint,0.411111116409,0.0,0.0,0.0,0.0,-0.000141626621236
1509044736309791419,139301,1509044736309657358,base_footprint,0.402777791023,0.0,0.0,0.0,0.0,-0.000138755814121
1509044736331646853,139302,1509044736329639080,base_footprint,0.397222220898,0.0,0.0,0.0,0.0,-0.000136841935866
1509044736350405058,139303,1509044736350248854,base_footprint,0.388888895512,0.0,0.0,0.0,0.0,-0.000133971128751
1509044736370404416,139304,1509044736370222643,base_footprint,0.383333325386,0.0,0.0,0.0,0.0,-0.000132057250496
1509044736390482816,139305,1509044736390259993,base_footprint,0.377777785063,0.0,0.0,0.0,0.0,-0.000130143382509
1509044736410397049,139306,1509044736410256824,base_footprint,0.372222214937,0.0,0.0,0.0,0.0,-0.000128229504254
1509044736430441693,139307,1509044736430261217,base_footprint,0.366666674614,0.0,0.0,0.0,0.0,-0.000126315636266
1509044736450423051,139308,1509044736450262500,base_footprint,0.363888889551,0.0,0.0,0.0,0.0,-0.000125358697139
1509044736470452851,139309,1509044736470258675,base_footprint,0.358333319426,0.0,0.0,0.0,0.0,-0.000123444818884
1509044736490452050,139310,1509044736490270787,base_footprint,0.358333319426,0.0,0.0,0.0,0.0,-0.000123444818884
1509044736510693321,139311,1509044736510282643,base_footprint,0.355555564165,0.0,0.0,0.0,0.0,-0.000122487890024
1509044736530441731,139312,1509044736530273838,base_footprint,0.352777779102,0.0,0.0,0.0,0.0,-0.000121530950897
1509044736550413368,139313,1509044736550249742,base_footprint,0.352777779102,0.0,0.0,0.0,0.0,-0.000108027498219
1509044736570426507,139314,1509044736570273795,base_footprint,0.352777779102,0.0,0.0,0.0,0.0,-0.000108027498219
1509044736590531080,139315,1509044736590275916,base_footprint,0.352777779102,0.0,0.0,0.0,0.0,-9.45240553178e-05
1509044736610394301,139316,1509044736610255803,base_footprint,0.352777779102,0.0,0.0,0.0,0.0,-9.45240553178e-05
1509044736630362685,139317,1509044736630257447,base_footprint,0.352777779102,0.0,0.0,0.0,0.0,-9.45240553178e-05
1509044736650450343,139318,1509044736650290920,base_footprint,0.352777779102,0.0,0.0,0.0,0.0,-9.45240553178e-05
1509044736670449326,139319,1509044736670295230,base_footprint,0.352777779102,0.0,0.0,0.0,0.0,-9.45240553178e-05
1509044736690415794,139320,1509044736690295150,base_footprint,0.352777779102,0.0,0.0,0.0,0.0,-9.45240553178e-05
1509044736715623693,139321,1509044736710296825,base_footprint,0.352777779102,0.0,0.0,0.0,0.0,-9.45240553178e-05
1509044736730922771,139322,1509044736730693207,base_footprint,0.352777779102,0.0,0.0,0.0,0.0,-9.45240553178e-05
1509044736750934658,139323,1509044736750726408,base_footprint,0.355555564165,0.0,0.0,0.0,0.0,-9.52683411671e-05
1509044736770928216,139324,1509044736770729273,base_footprint,0.358333319426,0.0,0.0,0.0,0.0,-9.60126190312e-05
1509044736790820776,139325,1509044736790700312,base_footprint,0.361111104488,0.0,0.0,0.0,0.0,-9.67569048805e-05
1509044736810805103,139326,1509044736810699069,base_footprint,0.366666674614,0.0,0.0,0.0,0.0,-9.82454765791e-05
1509044736830818739,139327,1509044736830705480,base_footprint,0.369444429874,0.0,0.0,0.0,0.0,-9.89897544431e-05
1509044736850899908,139328,1509044736850753433,base_footprint,0.380555570126,0.0,0.0,0.0,0.0,-8.74001936422e-05
1509044736870880677,139329,1509044736870789386,base_footprint,0.391666680574,0.0,0.0,0.0,0.0,-8.99520238638e-05
1509044736890874728,139330,1509044736890794719,base_footprint,0.405555546284,0.0,0.0,0.0,0.0,-7.76181687029e-05
1509044736910922358,139331,1509044736910761928,base_footprint,0.425000011921,0.0,0.0,0.0,0.0,-8.13395918914e-05
1509044736930965399,139332,1509044736930804488,base_footprint,0.449999988079,0.0,0.0,0.0,0.0,-8.61242690701e-05
1509044736950902075,139333,1509044736950798564,base_footprint,0.483333319426,0.0,0.0,0.0,0.0,-9.25038443455e-05
1509044736970903833,139334,1509044736970805234,base_footprint,0.519444465637,0.0,0.0,0.0,0.0,-9.94150580236e-05
1509044736991437974,139335,1509044736991303147,base_footprint,0.563888907433,0.0,0.0,0.0,0.0,-8.63369236307e-05
1509044737011464922,139336,1509044737011329262,base_footprint,0.605555534363,0.0,0.0,0.0,0.0,-6.95373678003e-05
1509044737031047407,139337,1509044737030952922,base_footprint,0.649999976158,0.0,0.0,0.0,0.0,2.48803417761e-05
1509044737051401317,139338,1509044737051311800,base_footprint,0.697222232819,0.0,0.0,0.0,0.0,0.000266878998376
1509044737071448512,139339,1509044737071313800,base_footprint,0.74722224474,0.0,0.0,0.0,0.0,0.000686443861441
1509044737091520131,139340,1509044737091398740,base_footprint,0.805555582047,0.0,0.0,0.0,0.0,0.00132589806045
1509044737111611675,139341,1509044737111322622,base_footprint,0.87222224474,0.0,0.0,0.0,0.0,0.00220354330612
1509044737131455552,139342,1509044737131327117,base_footprint,0.938888907433,0.0,0.0,0.0,0.0,0.00316266535106
1509044737151583559,139343,1509044737151409451,base_footprint,1.00555551052,0.0,0.0,0.0,0.0,0.00404163747926
1509044737171490765,139344,1509044737171415769,base_footprint,1.07222223282,0.0,0.0,0.0,0.0,0.00472006983068
1509044737194252521,139345,1509044737193809670,base_footprint,1.13333332539,0.0,0.0,0.0,0.0,0.00485892605778
1509044737211503255,139346,1509044737211426187,base_footprint,1.19722223282,0.0,0.0,0.0,0.0,0.00435368423282
1509044737232901117,139347,1509044737231364349,base_footprint,1.26666665077,0.0,0.0,0.0,0.0,0.00358795103332
1509044737251577466,139348,1509044737251435808,base_footprint,1.33333337307,0.0,0.0,0.0,0.0,0.0019904395018
1509044737271576198,139349,1509044737271468296,base_footprint,1.39999997616,0.0,0.0,0.0,0.0,0.000160765293583
1509044737291882804,139350,1509044737291765963,base_footprint,1.47500002384,0.0,0.0,0.0,0.0,-0.00158086363219
1509044737311551633,139351,1509044737311440974,base_footprint,1.54722225666,0.0,0.0,0.0,0.0,-0.00319811808279
1509044737331536324,139352,1509044737331434255,base_footprint,1.61944448948,0.0,0.0,0.0,0.0,-0.00446324284702
1509044737351557134,139353,1509044737351435210,base_footprint,1.69444441795,0.0,0.0,0.0,0.0,-0.00557803843465
1509044737371614009,139354,1509044737371487107,base_footprint,1.76666665077,0.0,0.0,0.0,0.0,-0.00595105060783
1509044737392522811,139355,1509044737392363087,base_footprint,1.84444439411,0.0,0.0,0.0,0.0,-0.00635426092423
1509044737411898178,139356,1509044737411779950,base_footprint,1.92777776718,0.0,0.0,0.0,0.0,-0.00671514874085
1509044737431897604,139357,1509044737431809759,base_footprint,2.01111102104,0.0,0.0,0.0,0.0,-0.00731338101042
1509044737451695883,139358,1509044737451592820,base_footprint,2.09166669846,0.0,0.0,0.0,0.0,-0.0085672017123
1509044737472003324,139359,1509044737471841957,base_footprint,2.16666674614,0.0,0.0,0.0,0.0,-0.00986975768987
1509044737491911561,139360,1509044737491793948,base_footprint,2.24444437027,0.0,0.0,0.0,0.0,-0.011512975094
1509044737511945646,139361,1509044737511796641,base_footprint,2.31666660309,0.0,0.0,0.0,0.0,-0.0129478045782
1509044737532026142,139362,1509044737531891612,base_footprint,2.38611102104,0.0,0.0,0.0,0.0,-0.0137927181476
1509044737552106603,139363,1509044737551882398,base_footprint,2.46388888359,0.0,0.0,0.0,0.0,-0.0140536334965
1509044737571997060,139364,1509044737571884972,base_footprint,2.53888893127,0.0,0.0,0.0,0.0,-0.0134121562592
1509044737591965675,139365,1509044737591886517,base_footprint,2.61388897896,0.0,0.0,0.0,0.0,-0.0110063588978
1509044737611938647,139366,1509044737611807042,base_footprint,2.68888878822,0.0,0.0,0.0,0.0,-0.00823411354379
1509044737631979602,139367,1509044737631892499,base_footprint,2.76111102104,0.0,0.0,0.0,0.0,-0.00443893910135
1509044737652706916,139368,1509044737652400056,base_footprint,2.83611106873,0.0,0.0,0.0,0.0,-0.000868473020623
1509044737672516694,139369,1509044737672394164,base_footprint,2.91111111641,0.0,0.0,0.0,0.0,0.00323147812742
1509044737692500663,139370,1509044737692399173,base_footprint,2.98611116409,0.0,0.0,0.0,0.0,0.00674383547933
1509044737712524426,139371,1509044737712404452,base_footprint,3.06388878822,0.0,0.0,0.0,0.0,0.00961704008792
1509044737732591461,139372,1509044737732408508,base_footprint,3.13611102104,0.0,0.0,0.0,0.0,0.0114044299633
1509044737753077980,139373,1509044737752501441,base_footprint,3.21111106873,0.0,0.0,0.0,0.0,0.0125376576613
1509044737772557333,139374,1509044737772431316,base_footprint,3.28888893127,0.0,0.0,0.0,0.0,0.0146040519009
1509044737792489827,139375,1509044737792410646,base_footprint,3.36388897896,0.0,0.0,0.0,0.0,0.0167400640388
1509044737812568992,139376,1509044737812494192,base_footprint,3.44444441795,0.0,0.0,0.0,0.0,0.0188552999907
1509044737832549107,139377,1509044737832417694,base_footprint,3.52777767181,0.0,0.0,0.0,0.0,0.0213375377162
1509044737853022025,139378,1509044737852427044,base_footprint,3.60555553436,0.0,0.0,0.0,0.0,0.0247071933323
1509044737872612306,139379,1509044737872518070,base_footprint,3.67777776718,0.0,0.0,0.0,0.0,0.0292864256205
1509044737892681770,139380,1509044737892425452,base_footprint,3.73888897896,0.0,0.0,0.0,0.0,0.0332098011804
1509044737912627295,139381,1509044737912514277,base_footprint,3.79166674614,0.0,0.0,0.0,0.0,0.036728566433
1509044737932534433,139382,1509044737932431420,base_footprint,3.84166669846,0.0,0.0,0.0,0.0,0.038831724871
1509044737952690028,139383,1509044737952456575,base_footprint,3.87777781487,0.0,0.0,0.0,0.0,0.0399395231971
1509044737973033458,139384,1509044737972881051,base_footprint,3.8972222805,0.0,0.0,0.0,0.0,0.0384975031291
1509044737993079649,139385,1509044737992880370,base_footprint,3.90555548668,0.0,0.0,0.0,0.0,0.0349893596802
1509044738012990190,139386,1509044738012858772,base_footprint,3.91111111641,0.0,0.0,0.0,0.0,0.029646667079
1509044738033025059,139387,1509044738032866160,base_footprint,3.919444561,0.0,0.0,0.0,0.0,0.0237065098561
1509044738053049193,139388,1509044738052873907,base_footprint,3.93333339691,0.0,0.0,0.0,0.0,0.0182185732879
1509044738073021436,139389,1509044738072869004,base_footprint,3.96111106873,0.0,0.0,0.0,0.0,0.013494714138
1509044738093013194,139390,1509044738092871084,base_footprint,3.97499990463,0.0,0.0,0.0,0.0,0.00989010159919
1509044738112997445,139391,1509044738112877585,base_footprint,4.01111125946,0.0,0.0,0.0,0.0,0.00829099206385
1509044738133219641,139392,1509044738132879448,base_footprint,4.02222204208,0.0,0.0,0.0,0.0,0.00846792388429
1509044738153022949,139393,1509044738152884046,base_footprint,4.02222204208,0.0,0.0,0.0,0.0,0.00985362591946
1509044738173057287,139394,1509044738172881021,base_footprint,4.02222204208,0.0,0.0,0.0,0.0,0.00985362591946
1509044738193017413,139395,1509044738192887894,base_footprint,4.02500009537,0.0,0.0,0.0,0.0,0.0090900629467
1509044738213021850,139396,1509044738212889092,base_footprint,4.03888893127,0.0,0.0,0.0,0.0,0.00649317679239
1509044738233097083,139397,1509044738232970565,base_footprint,4.04166650772,0.0,0.0,0.0,0.0,0.00170175246976
1509044738253046594,139398,1509044738252896499,base_footprint,4.04722213745,0.0,0.0,0.0,0.0,-0.00526721399743
1509044738273138837,139399,1509044738272928984,base_footprint,4.04722213745,0.0,0.0,0.0,0.0,-0.0137880773476
1509044738293146363,139400,1509044738292977950,base_footprint,4.04722213745,0.0,0.0,0.0,0.0,-0.022309933745
1509044738313822999,139401,1509044738313231561,base_footprint,4.03888893127,0.0,0.0,0.0,0.0,-0.0295325634161
1509044738333616513,139402,1509044738333510042,base_footprint,4.03333330154,0.0,0.0,0.0,0.0,-0.0355161661583
1509044738353647220,139403,1509044738353509051,base_footprint,4.02777767181,0.0,0.0,0.0,0.0,-0.0388614001207
1509044738373817563,139404,1509044738373593284,base_footprint,4.01944446564,0.0,0.0,0.0,0.0,-0.0395508629854
1509044738393621491,139405,1509044738393495533,base_footprint,4.01388883591,0.0,0.0,0.0,0.0,-0.0368823711035
1509044738413625343,139406,1509044738413494326,base_footprint,4.00833320618,0.0,0.0,0.0,0.0,-0.0326862106528
1509044738433641960,139407,1509044738433525364,base_footprint,4.0,0.0,0.0,0.0,0.0,-0.027103802686
1509044738454167838,139408,1509044738453500782,base_footprint,3.98611116409,0.0,0.0,0.0,0.0,-0.0212099916595
1509044738473647776,139409,1509044738473532303,base_footprint,3.97499990463,0.0,0.0,0.0,0.0,-0.0156724048663
1509044738493624062,139410,1509044738493508071,base_footprint,3.96666669846,0.0,0.0,0.0,0.0,-0.0113877959851
1509044738513967717,139411,1509044738513513561,base_footprint,3.96111106873,0.0,0.0,0.0,0.0,-0.00894577592558
1509044738533600098,139412,1509044738533513021,base_footprint,3.955555439,0.0,0.0,0.0,0.0,-0.00863039997416
1509044738553725650,139413,1509044738553523239,base_footprint,3.95000004768,0.0,0.0,0.0,0.0,-0.0108863314384
1509044738573684870,139414,1509044738573520773,base_footprint,3.93611121178,0.0,0.0,0.0,0.0,-0.0146149825119
1509044738593607811,139415,1509044738593522207,base_footprint,3.92777776718,0.0,0.0,0.0,0.0,-0.020147707026
1509044738613630154,139416,1509044738613523423,base_footprint,3.92222213745,0.0,0.0,0.0,0.0,-0.026576783726
1509044738633648029,139417,1509044738633524508,base_footprint,3.92222213745,0.0,0.0,0.0,0.0,-0.033486190257
1509044738653621455,139418,1509044738653529589,base_footprint,3.93055558205,0.0,0.0,0.0,0.0,-0.0391279192648
1509044738674058894,139419,1509044738673952013,base_footprint,3.93333339691,0.0,0.0,0.0,0.0,-0.0439778041672
1509044738694058155,139420,1509044738693957682,base_footprint,3.92499995232,0.0,0.0,0.0,0.0,-0.0465918458187
1509044738714178680,139421,1509044738713985907,base_footprint,3.92222213745,0.0,0.0,0.0,0.0,-0.0464085716859
1509044738734106363,139422,1509044738733985764,base_footprint,3.919444561,0.0,0.0,0.0,0.0,-0.0438225159056
1509044738754091765,139423,1509044738753960812,base_footprint,3.91111111641,0.0,0.0,0.0,0.0,-0.0396835051572
1509044738774131536,139424,1509044738773965094,base_footprint,3.90000009537,0.0,0.0,0.0,0.0,-0.0341927048284
1509044738794119479,139425,1509044738793965563,base_footprint,3.88888883591,0.0,0.0,0.0,0.0,-0.029329295156
1509044738814130434,139426,1509044738813969201,base_footprint,3.88055562973,0.0,0.0,0.0,0.0,-0.0254029061728
1509044738834163612,139427,1509044738833993793,base_footprint,3.86944437027,0.0,0.0,0.0,0.0,-0.022663310573
1509044738854077734,139428,1509044738853974100,base_footprint,3.85555553436,0.0,0.0,0.0,0.0,-0.0234677073049
1509044738874084702,139429,1509044738873979444,base_footprint,3.84722232819,0.0,0.0,0.0,0.0,-0.0253320116787
1509044738894115766,139430,1509044738893983074,base_footprint,3.84166669846,0.0,0.0,0.0,0.0,-0.0305914857138
1509044738914575912,139431,1509044738913997884,base_footprint,3.83611106873,0.0,0.0,0.0,0.0,-0.0367182408504
1509044738934736781,139432,1509044738934593869,base_footprint,3.830555439,0.0,0.0,0.0,0.0,-0.0431222095262
1509044738954707186,139433,1509044738954570534,base_footprint,3.81944441795,0.0,0.0,0.0,0.0,-0.0485591634376
1509044738974784848,139434,1509044738974603556,base_footprint,3.81111121178,0.0,0.0,0.0,0.0,-0.0529819958924
1509044738994715881,139435,1509044738994600571,base_footprint,3.80277776718,0.0,0.0,0.0,0.0,-0.055636371183
1509044739014715786,139436,1509044739014580767,base_footprint,3.78888893127,0.0,0.0,0.0,0.0,-0.0560143059753
1509044739034747627,139437,1509044739034608445,base_footprint,3.77500009537,0.0,0.0,0.0,0.0,-0.0539272864308
1509044739054697903,139438,1509044739054584814,base_footprint,3.76111102104,0.0,0.0,0.0,0.0,-0.0507008621497
1509044739074685597,139439,1509044739074585362,base_footprint,3.7583334446,0.0,0.0,0.0,0.0,-0.0474941269194
1509044739094766685,139440,1509044739094594942,base_footprint,3.75277781487,0.0,0.0,0.0,0.0,-0.0444036702
1509044739114715521,139441,1509044739114595691,base_footprint,3.75,0.0,0.0,0.0,0.0,-0.0423590521404
1509044739134681445,139442,1509044739134591672,base_footprint,3.74444437027,0.0,0.0,0.0,0.0,-0.0415789273126
1509044739154735870,139443,1509044739154597889,base_footprint,3.7416665554,0.0,0.0,0.0,0.0,-0.0422649196567
1509044739174799565,139444,1509044739174601913,base_footprint,3.7416665554,0.0,0.0,0.0,0.0,-0.0444155804771
1509044739194729027,139445,1509044739194604284,base_footprint,3.7416665554,0.0,0.0,0.0,0.0,-0.0469966926883
1509044739214701129,139446,1509044739214602661,base_footprint,3.73333334923,0.0,0.0,0.0,0.0,-0.0493246435411
1509044739234786504,139447,1509044739234630814,base_footprint,3.73055553436,0.0,0.0,0.0,0.0,-0.0512900414176
1509044739254760894,139448,1509044739254632822,base_footprint,3.72222232819,0.0,0.0,0.0,0.0,-0.0536014805236
1509044739274810990,139449,1509044739274645184,base_footprint,3.71388888359,0.0,0.0,0.0,0.0,-0.0557600016776
1509044739294836203,139450,1509044739294634132,base_footprint,3.705555439,0.0,0.0,0.0,0.0,-0.0580507593803
1509044739315648010,139451,1509044739315050804,base_footprint,3.69444441795,0.0,0.0,0.0,0.0,-0.0605691703481
1509044739335182112,139452,1509044739335068214,base_footprint,3.68611121178,0.0,0.0,0.0,0.0,-0.0634023345254
1509044739355154417,139453,1509044739355044651,base_footprint,3.67777776718,0.0,0.0,0.0,0.0,-0.0669284861375
1509044739375232723,139454,1509044739375051198,base_footprint,3.66388893127,0.0,0.0,0.0,0.0,-0.0710357856688
1509044739395182204,139455,1509044739395052750,base_footprint,3.6472222805,0.0,0.0,0.0,0.0,-0.0751945733749
1509044739415223502,139456,1509044739415133934,base_footprint,3.63055562973,0.0,0.0,0.0,0.0,-0.0790352217401
1509044739435414111,139457,1509044739435151115,base_footprint,3.6166665554,0.0,0.0,0.0,0.0,-0.081790656931
1509044739455253411,139458,1509044739455079750,base_footprint,3.6027777195,0.0,0.0,0.0,0.0,-0.0834154419942
1509044739475293142,139459,1509044739475086743,base_footprint,3.58611106873,0.0,0.0,0.0,0.0,-0.0841325390385
1509044739495293007,139460,1509044739495070009,base_footprint,3.57222223282,0.0,0.0,0.0,0.0,-0.0836693508892
1509044739515277989,139461,1509044739515077318,base_footprint,3.56388878822,0.0,0.0,0.0,0.0,-0.0825150430122
1509044739535186920,139462,1509044739535066454,base_footprint,3.55555558205,0.0,0.0,0.0,0.0,-0.0819120480801
1509044739555229270,139463,1509044739555092255,base_footprint,3.55277776718,0.0,0.0,0.0,0.0,-0.0818480534386
1509044739575313975,139464,1509044739575088568,base_footprint,3.54722213745,0.0,0.0,0.0,0.0,-0.0822655303383
1509044739595765076,139465,1509044739595655720,base_footprint,3.544444561,0.0,0.0,0.0,0.0,-0.0849268130852
1509044739615827425,139466,1509044739615678096,base_footprint,3.53611111641,0.0,0.0,0.0,0.0,-0.0881273903407
1509044739635979186,139467,1509044739635725470,base_footprint,3.53055548668,0.0,0.0,0.0,0.0,-0.0928799281053
1509044739655854315,139468,1509044739655752290,base_footprint,3.5222222805,0.0,0.0,0.0,0.0,-0.0982213608153
1509044739675855659,139469,1509044739675690483,base_footprint,3.5222222805,0.0,0.0,0.0,0.0,-0.104057525043
1509044739695853399,139470,1509044739695682884,base_footprint,3.51944446564,0.0,0.0,0.0,0.0,-0.109540071043
1509044739715917103,139471,1509044739715684957,base_footprint,3.5083334446,0.0,0.0,0.0,0.0,-0.113933007167
1509044739735851219,139472,1509044739735673348,base_footprint,3.50277781487,0.0,0.0,0.0,0.0,-0.117134093775
1509044739755862332,139473,1509044739755755550,base_footprint,3.50555562973,0.0,0.0,0.0,0.0,-0.119122891913
1509044739775848784,139474,1509044739775682734,base_footprint,3.50277781487,0.0,0.0,0.0,0.0,-0.119434518939
1509044739795843503,139475,1509044739795708856,base_footprint,3.49444437027,0.0,0.0,0.0,0.0,-0.117665307513
1509044739815857875,139476,1509044739815765247,base_footprint,3.49444437027,0.0,0.0,0.0,0.0,-0.115505826874
1509044739835893600,139477,1509044739835770511,base_footprint,3.4916665554,0.0,0.0,0.0,0.0,-0.113391750517
1509044739855862654,139478,1509044739855772071,base_footprint,3.48888897896,0.0,0.0,0.0,0.0,-0.111820124465
1509044739875861626,139479,1509044739875771918,base_footprint,3.48333334923,0.0,0.0,0.0,0.0,-0.110297741942
1509044739895860919,139480,1509044739895776209,base_footprint,3.46666669846,0.0,0.0,0.0,0.0,-0.110037560804
1509044739917261360,139481,1509044739915778617,base_footprint,3.45000004768,0.0,0.0,0.0,0.0,-0.111639076195
1509044739935951999,139482,1509044739935805800,base_footprint,3.44166660309,0.0,0.0,0.0,0.0,-0.115223450937
1509044739955879527,139483,1509044739955785916,base_footprint,3.43888878822,0.0,0.0,0.0,0.0,-0.120180017605
1509044739975934261,139484,1509044739975785409,base_footprint,3.42777776718,0.0,0.0,0.0,0.0,-0.126288135716
1509044739995868752,139485,1509044739995787254,base_footprint,3.41111111641,0.0,0.0,0.0,0.0,-0.133071373355
1509044740016249793,139486,1509044740016151988,base_footprint,3.3972222805,0.0,0.0,0.0,0.0,-0.140170393081
1509044740036291430,139487,1509044740036183436,base_footprint,3.38888883591,0.0,0.0,0.0,0.0,-0.146801482922
1509044740056284544,139488,1509044740056160244,base_footprint,3.37777781487,0.0,0.0,0.0,0.0,-0.151704964658
1509044740076261567,139489,1509044740076136993,base_footprint,3.3666665554,0.0,0.0,0.0,0.0,-0.1559235524
1509044740096311838,139490,1509044740096165080,base_footprint,3.35833334923,0.0,0.0,0.0,0.0,-0.158677614814
1509044740116236066,139491,1509044740116142408,base_footprint,3.3527777195,0.0,0.0,0.0,0.0,-0.15998334039
1509044740136233422,139492,1509044740136145805,base_footprint,3.34444451332,0.0,0.0,0.0,0.0,-0.160498489101
1509044740156320110,139493,1509044740156175145,base_footprint,3.330555439,0.0,0.0,0.0,0.0,-0.160481351019
1509044740176353460,139494,1509044740176155193,base_footprint,3.31944441795,0.0,0.0,0.0,0.0,-0.160852254733
1509044740196323664,139495,1509044740196179964,base_footprint,3.31388878822,0.0,0.0,0.0,0.0,-0.162134530478
1509044740216853726,139496,1509044740216736189,base_footprint,3.30833339691,0.0,0.0,0.0,0.0,-0.16405792851
1509044740236946692,139497,1509044740236772886,base_footprint,3.29722213745,0.0,0.0,0.0,0.0,-0.165953526225
1509044740256908287,139498,1509044740256767936,base_footprint,3.28611111641,0.0,0.0,0.0,0.0,-0.16834791068
1509044740276844293,139499,1509044740276743913,base_footprint,3.27777767181,0.0,0.0,0.0,0.0,-0.170228158512
1509044740296864061,139500,1509044740296750324,base_footprint,3.2722222805,0.0,0.0,0.0,0.0,-0.171860039287
1509044740316877956,139501,1509044740316754269,base_footprint,3.26388883591,0.0,0.0,0.0,0.0,-0.172572118371
1509044740336868389,139502,1509044740336755936,base_footprint,3.25277781487,0.0,0.0,0.0,0.0,-0.172366678732
1509044740356940461,139503,1509044740356758622,base_footprint,3.23888897896,0.0,0.0,0.0,0.0,-0.171503889595
1509044740377864418,139504,1509044740376787366,base_footprint,3.2277777195,0.0,0.0,0.0,0.0,-0.170283765234
1509044740396920565,139505,1509044740396762875,base_footprint,3.2277777195,0.0,0.0,0.0,0.0,-0.169652101847
1509044740416896531,139506,1509044740416763400,base_footprint,3.22222232819,0.0,0.0,0.0,0.0,-0.169107905235
1509044740436988744,139507,1509044740436812304,base_footprint,3.21111106873,0.0,0.0,0.0,0.0,-0.168524766761
1509044740456959242,139508,1509044740456793731,base_footprint,3.205555439,0.0,0.0,0.0,0.0,-0.168735014998
1509044740476941459,139509,1509044740476772874,base_footprint,3.19722223282,0.0,0.0,0.0,0.0,-0.16929757469
1509044740496924731,139510,1509044740496778052,base_footprint,3.18333339691,0.0,0.0,0.0,0.0,-0.1695592765
1509044740516919501,139511,1509044740516776738,base_footprint,3.17499995232,0.0,0.0,0.0,0.0,-0.170358908858
1509044740537376234,139512,1509044740537224310,base_footprint,3.169444561,0.0,0.0,0.0,0.0,-0.171302575929
1509044740556872584,139513,1509044740556783728,base_footprint,3.16388893127,0.0,0.0,0.0,0.0,-0.171994275818
1509044740577000309,139514,1509044740576792804,base_footprint,3.15555548668,0.0,0.0,0.0,0.0,-0.172530881978
1509044740596887116,139515,1509044740596794602,base_footprint,3.15555548668,0.0,0.0,0.0,0.0,-0.173644524702
1509044740617356171,139516,1509044740617232609,base_footprint,3.15000009537,0.0,0.0,0.0,0.0,-0.174327261407
1509044740637384437,139517,1509044740637249129,base_footprint,3.1333334446,0.0,0.0,0.0,0.0,-0.174634293414
1509044740657326239,139518,1509044740657216001,base_footprint,3.125,0.0,0.0,0.0,0.0,-0.175028396575
1509044740677339535,139519,1509044740677238688,base_footprint,3.11944437027,0.0,0.0,0.0,0.0,-0.175207037859
1509044740697347797,139520,1509044740697225347,base_footprint,3.10833334923,0.0,0.0,0.0,0.0,-0.175559337985
1509044740717338180,139521,1509044740717227988,base_footprint,3.09999990463,0.0,0.0,0.0,0.0,-0.175819151639
1509044740737371481,139522,1509044740737228414,base_footprint,3.08611106873,0.0,0.0,0.0,0.0,-0.175637556655
1509044740765633628,139523,1509044740757232612,base_footprint,3.08333325386,0.0,0.0,0.0,0.0,-0.176085148757
1509044740777888604,139524,1509044740777267395,base_footprint,3.080555439,0.0,0.0,0.0,0.0,-0.176652828931
1509044740797655478,139525,1509044740797236669,base_footprint,3.06944441795,0.0,0.0,0.0,0.0,-0.176739509494
1509044740817362707,139526,1509044740817266124,base_footprint,3.05833339691,0.0,0.0,0.0,0.0,-0.176821121012
1509044740837490690,139527,1509044740837298258,base_footprint,3.04722213745,0.0,0.0,0.0,0.0,-0.176897632082
1509044740857484025,139528,1509044740857249302,base_footprint,3.03888893127,0.0,0.0,0.0,0.0,-0.177011445337
1509044740878034131,139529,1509044740877846949,base_footprint,3.03055548668,0.0,0.0,0.0,0.0,-0.177002848325
1509044740898310919,139530,1509044740897834320,base_footprint,3.01944446564,0.0,0.0,0.0,0.0,-0.176591464913
1509044740918493756,139531,1509044740917859541,base_footprint,3.01388883591,0.0,0.0,0.0,0.0,-0.176503693117
1509044740938129570,139532,1509044740937848157,base_footprint,3.0,0.0,0.0,0.0,0.0,-0.175926387318
1509044740957995812,139533,1509044740957840402,base_footprint,2.98611116409,0.0,0.0,0.0,0.0,-0.175346912809
1509044740978666394,139534,1509044740978429084,base_footprint,2.98055553436,0.0,0.0,0.0,0.0,-0.175372544541
1509044740997981234,139535,1509044740997866924,base_footprint,2.97499990463,0.0,0.0,0.0,0.0,-0.175514004208
1509044741017986670,139536,1509044741017873269,base_footprint,2.96388888359,0.0,0.0,0.0,0.0,-0.175558519706
1509044741038197545,139537,1509044741037850629,base_footprint,2.955555439,0.0,0.0,0.0,0.0,-0.175995875155
