%time,field.header.seq,field.header.stamp,field.header.frame_id,field.pose.position.x,field.pose.position.y,field.pose.position.z,field.pose.orientation.x,field.pose.orientation.y,field.pose.orientation.z,field.pose.orientation.w
1509044729652292751,26459,1509044729638654000,/map,-5.08941841125,15.0012454987,-0.0826369524002,-0.0388004910822,0.0561107302737,0.0434505798008,0.996723710441
1509044729755353747,26460,1509044729743472000,/map,-5.07499265671,15.0006361008,-0.0895023345947,-0.0390619346676,0.0555320857294,0.0437021139941,0.996734908562
1509044729862015437,26461,1509044729848319000,/map,-5.08168983459,14.995388031,-0.0919251441956,-0.0391718960694,0.0555495803785,0.0434201693654,0.996741940309
1509044729970529532,26462,1509044729953159000,/map,-5.08547687531,15.0043334961,-0.0839691162109,-0.038706166218,0.0556661090764,0.0434406099388,0.996752742863
1509044730070389606,26463,1509044730057999000,/map,-5.0808596611,15.0132465363,-0.0830813646317,-0.0385237780373,0.0560625544159,0.0436547302572,0.996728234297
1509044730173808811,26464,1509044730162840000,/map,-5.07934951782,15.0031642914,-0.0738496780396,-0.0384625385021,0.055856786098,0.0433200797948,0.996756752305
1509044730276209752,26465,1509044730267688000,/map,-5.08634376526,15.0085439682,-0.085436463356,-0.0390984071731,0.0559975091168,0.0433820359361,0.996721421706
1509044730382166582,26466,1509044730372557000,/map,-5.09969711304,14.9988460541,-0.0810458660126,-0.0388462427067,0.0559626575417,0.04344739002,0.996730392177
1509044730489114448,26467,1509044730477382000,/map,-5.07497024536,15.0086374283,-0.0936431884766,-0.0389700939385,0.0556087315159,0.043536250124,0.996741488894
1509044730591188491,26468,1509044730582203000,/map,-5.09694004059,14.9897127151,-0.0860756635666,-0.039179000015,0.0560341085725,0.0432649986557,0.996721287284
1509044730698513549,26469,1509044730687074000,/map,-5.08781671524,15.0116462708,-0.0808818340302,-0.0385953034601,0.0558520192282,0.0433810078298,0.996749237601
1509044730802590238,26470,1509044730791909000,/map,-5.08619594574,15.0073490143,-0.0893856287003,-0.0392236123709,0.0558494916591,0.0432508343906,0.996730509134
1509044730905172747,26471,1509044730896759000,/map,-5.06917858124,15.0092487335,-0.0824375152588,-0.038830886575,0.0558169415626,0.0434481218162,0.996739129358
1509044731009816545,26472,1509044731001571000,/map,-5.08361148834,14.9957065582,-0.09097635746,-0.0388537150409,0.0558344055881,0.0436507915499,0.996728406527
1509044731115618486,26473,1509044731106412000,/map,-5.07938957214,15.0044174194,-0.0871567726135,-0.0391610093556,0.0559632377671,0.0434550206061,0.996717709559
1509044731219378745,26474,1509044731211265000,/map,-5.08752250671,15.0094013214,-0.0830657482147,-0.0388319012355,0.055961884469,0.043088504287,0.996746573474
1509044731327733062,26475,1509044731316114000,/map,-5.08894252777,15.005027771,-0.0932793617249,-0.0394985996019,0.0554616068846,0.0431139775733,0.996747237633
1509044731428597774,26476,1509044731420946000,/map,-5.07878780365,14.9992446899,-0.0846687555313,-0.0391238413932,0.055627498649,0.043254019411,0.996746706156
1509044731534105063,26477,1509044731525794000,/map,-5.08418703079,15.0074415207,-0.0819090604782,-0.0392413134983,0.0556344980749,0.0435971361796,0.996726748741
1509044731643500373,26478,1509044731630670000,/map,-5.07929325104,15.0161581039,-0.0779141187668,-0.0385985509289,0.0557798834612,0.0428231830607,0.996777272744
1509044731745773754,26479,1509044731735482000,/map,-5.05414295197,15.0047464371,-0.0841814279556,-0.0389283762311,0.0554955054909,0.0434756442355,0.996752074867
1509044731852103434,26480,1509044731840331000,/map,-5.02846860886,15.0171861649,-0.0809924602509,-0.0384924567978,0.0552274996061,0.0433362146835,0.996789961102
1509044731955400986,26481,1509044731945162000,/map,-5.0089006424,15.0240535736,-0.100595235825,-0.0385338204294,0.0537843304964,0.0436758152774,0.996852453293
1509044732061014966,26482,1509044732049995000,/map,-4.96588611603,15.043803215,-0.0984293222427,-0.0378407261685,0.0522630927672,0.0438548311732,0.996952056199
1509044732167019763,26483,1509044732154865000,/map,-4.8866186142,15.0590238571,-0.095738530159,-0.0369440431161,0.0497552703025,0.0437061580164,0.997120515538
1509044732269322560,26484,1509044732259675000,/map,-4.76078939438,15.0947628021,-0.0886553525925,-0.0366067589008,0.0487507079909,0.0436139401104,0.997186611373
1509044732372529242,26485,1509044732364531000,/map,-4.62288761139,15.1439304352,-0.0759392976761,-0.03613984109,0.0484115938859,0.0433721715771,0.997230707608
1509044732479749508,26486,1509044732469391000,/map,-4.43256425858,15.1934289932,-0.0524681806564,-0.0359219226932,0.0487566936096,0.04185025349,0.997286797557
1509044732584276429,26487,1509044732574218000,/map,-4.21612644196,15.2468280792,-0.0483796596527,-0.0372758564058,0.0493429730467,0.040113561296,0.997279641695
1509044732687120288,26488,1509044732679044000,/map,-3.99192142487,15.2960691452,-0.0322722196579,-0.037043575683,0.04975744636,0.0384339761268,0.997333845566
1509044732793703613,26489,1509044732783886000,/map,-3.71318674088,15.3181972504,-0.0250760316849,-0.036831271925,0.0503427934313,0.0357794776115,0.997411093552
1509044732898491498,26490,1509044732888782000,/map,-3.41561889648,15.4125518799,-0.0036792755127,-0.0368941485944,0.0519138876608,0.0340126435593,0.997390049151
1509044733006264546,26491,1509044732993586000,/map,-3.08590555191,15.5026702881,0.0560495853424,-0.0367919931216,0.0563765449966,0.031674408709,0.997228542637
1509044733106991863,26492,1509044733098423000,/map,-2.74777078629,15.5816030502,0.0817420482635,-0.03610762432,0.0584805291221,0.030269154303,0.997176035351
1509044733211522841,26493,1509044733203259000,/map,-2.41933822632,15.6475696564,0.112697839737,-0.0340727067925,0.0597422311384,0.0296190829398,0.99719237181
1509044733317235960,26494,1509044733308112000,/map,-2.10541415215,15.7023983002,0.139416337013,-0.0331061439025,0.0594636280901,0.0286538726102,0.997269780829
1509044733426836364,26495,1509044733413188000,/map,-1.79070329666,15.7829437256,0.143994808197,-0.0331804339115,0.0581955746809,0.0276336473148,0.997370901635
1509044733530968531,26496,1509044733517795000,/map,-1.43217265606,15.8462285995,0.177163362503,-0.0331037790276,0.0575802809539,0.0258732672478,0.997456377543
1509044733633052976,26497,1509044733622620000,/map,-1.13676071167,15.8976135254,0.184724926949,-0.033601281104,0.05718911646,0.0252624512597,0.997477903225
1509044733738477291,26498,1509044733727464000,/map,-0.807045102119,15.9343261719,0.18719625473,-0.0356777160575,0.0565527453468,0.0250158491354,0.997448291824
1509044733840469331,26499,1509044733832314000,/map,-0.474593043327,15.9897279739,0.22783768177,-0.036262347094,0.0576340173541,0.0243267296894,0.997382360206
1509044733948430548,26500,1509044733937179000,/map,-0.12838435173,16.0874786377,0.26003408432,-0.0353674965919,0.0585855398271,0.0239910814914,0.997367185502
1509044734055530007,26501,1509044734042003000,/map,0.238736629486,16.1355895996,0.272577524185,-0.0339683114675,0.0578014293022,0.0231460240381,0.997481533743
1509044734156179222,26502,1509044734146832000,/map,0.561456680298,16.2084541321,0.308280348778,-0.0329728612377,0.0579329364519,0.022793011288,0.997515435436
1509044734262597277,26503,1509044734251678000,/map,0.850275278091,16.2635936737,0.328064680099,-0.0333472412381,0.0576346682494,0.0226363052599,0.997523836408
1509044734366496699,26504,1509044734356518000,/map,1.18948984146,16.3187294006,0.348742723465,-0.033945536639,0.0577927739632,0.0216847753059,0.997515647165
1509044734469948445,26505,1509044734461362000,/map,1.50505185127,16.3792705536,0.36497604847,-0.0337723736558,0.0572261425319,0.0211405830943,0.997565873081
1509044734575756506,26506,1509044734566206000,/map,1.79963588715,16.4458217621,0.394853234291,-0.0337864277543,0.0576735321584,0.0206896440524,0.99754908632
1509044734682278095,26507,1509044734671041000,/map,2.0807762146,16.5151672363,0.425409078598,-0.0344924823419,0.0587318846044,0.0195487463374,0.997486180811
1509044734789094579,26508,1509044734775987000,/map,2.35949540138,16.569644928,0.436156153679,-0.0345641996011,0.059215656943,0.0192511209949,0.997460884656
1509044734892543004,26509,1509044734880742000,/map,2.59613370895,16.5905971527,0.457148790359,-0.0337532607113,0.0598870397134,0.0193140109938,0.997447356428
1509044734998834418,26510,1509044734985601000,/map,2.84037852287,16.6375675201,0.460512161255,-0.0334230211662,0.0600401410668,0.0193034262328,0.997449477845
1509044735100472748,26511,1509044735090429000,/map,3.10003376007,16.6936359406,0.47677898407,-0.0336768543695,0.0596752456082,0.0185609542569,0.997476929818
1509044735209512252,26512,1509044735195270000,/map,3.35628938675,16.7044487,0.492443323135,-0.0346442210308,0.0592873022857,0.0184504813847,0.997468983715
1509044735316269596,26513,1509044735300122000,/map,3.54583406448,16.7465610504,0.501127123833,-0.0353952023474,0.0595941054288,0.0183805747731,0.997425624656
1509044735415072469,26514,1509044735404971000,/map,3.73544311523,16.7767963409,0.519653916359,-0.0350013206985,0.060101839096,0.0179572284586,0.99741677068
1509044735522775694,26515,1509044735510161000,/map,3.87167549133,16.8046455383,0.524341464043,-0.0353608637617,0.0598815519319,0.0184006264878,0.997409257024
1509044735623458850,26516,1509044735614649000,/map,3.98983097076,16.8336048126,0.538914680481,-0.0358557944586,0.0593493992064,0.0185689804424,0.997420274399
1509044735728249704,26517,1509044735719487000,/map,4.10265827179,16.8594055176,0.541643381119,-0.0366568284095,0.0590187033835,0.0181727900557,0.997418076477
1509044735834469747,26518,1509044735824319000,/map,4.20112609863,16.8649044037,0.535854578018,-0.0371944020297,0.0586066781678,0.0179618567918,0.997426290726
1509044735943354923,26519,1509044735929163000,/map,4.25846338272,16.888420105,0.547653675079,-0.0372605880074,0.0588102877779,0.0180171912742,0.997410837845
1509044736043349610,26520,1509044736034019000,/map,4.32882452011,16.8900489807,0.545814752579,-0.037228427604,0.0583443157943,0.0178562199023,0.997442299285
1509044736148144636,26521,1509044736138837000,/map,4.39350891113,16.9012298584,0.540448665619,-0.0370027647329,0.0570866638401,0.0178635464868,0.997523334023
1509044736254316294,26522,1509044736244093000,/map,4.4444565773,16.9181137085,0.555654764175,-0.036141000609,0.0565361528974,0.0176505047587,0.997590071709
1509044736357221640,26523,1509044736348546000,/map,4.47403907776,16.9116954803,0.55418074131,-0.0362323835459,0.0563486119003,0.0174935215461,0.99760013283
1509044736462435341,26524,1509044736453375000,/map,4.50680446625,16.9143009186,0.557565689087,-0.0360089992929,0.0559505681638,0.0177392069251,0.997626285956
1509044736569560589,26525,1509044736558243000,/map,4.54927110672,16.9248466492,0.561412453651,-0.0358377254904,0.0563918121748,0.0176597462277,0.997609018762
1509044736672966582,26526,1509044736663069000,/map,4.59485912323,16.925365448,0.568227648735,-0.0356220435401,0.0563167925082,0.0172004464499,0.997629005962
1509044736778248628,26527,1509044736767897000,/map,4.61422920227,16.9325771332,0.569636940956,-0.0356788960758,0.0565298838139,0.0173862415329,0.997611701624
1509044736882881712,26528,1509044736872730000,/map,4.6342792511,16.9321613312,0.56854569912,-0.035139813293,0.0556727660393,0.0177520143024,0.997672592904
1509044736987962936,26529,1509044736977577000,/map,4.67843484879,16.9540843964,0.56172311306,-0.0346844749532,0.0544668974688,0.0173563804196,0.997762045949
1509044737092375067,26530,1509044737082414000,/map,4.74479103088,16.9730682373,0.547462582588,-0.0341405653221,0.0516203262497,0.0174097239737,0.997931192632
1509044737202861136,26531,1509044737187257000,/map,4.87946128845,16.981672287,0.548365354538,-0.0338252972629,0.0490215655923,0.0178267983781,0.998065599363
1509044737304437689,26532,1509044737292097000,/map,5.05077028275,17.0310878754,0.557943105698,-0.0328904466053,0.0485021611402,0.0183143063501,0.998113392892
1509044737406722595,26533,1509044737396947000,/map,5.25116682053,17.0739841461,0.573278069496,-0.0323911003936,0.0493757808461,0.0179576884373,0.99809336753
1509044737513629083,26534,1509044737501789000,/map,5.50505447388,17.1215171814,0.579409003258,-0.031918089645,0.0489148010126,0.0164777801502,0.998156831644
1509044737615462922,26535,1509044737606648000,/map,5.77168226242,17.1559677124,0.606012225151,-0.0320440273393,0.0479187507457,0.0160763004251,0.998207656855
1509044737720383396,26536,1509044737711523000,/map,6.05731773376,17.189540863,0.621520519257,-0.0326090653801,0.0473905320518,0.0154195606639,0.998224936312
1509044737828644631,26537,1509044737816332000,/map,6.43753242493,17.2650165558,0.654351234436,-0.0324437258852,0.04665656224,0.0156503136426,0.998261307241
1509044737930667701,26538,1509044737921154000,/map,6.81617593765,17.3329658508,0.669117331505,-0.033085760774,0.0456638799899,0.0165679294107,0.998271328955
1509044738034883529,26539,1509044738026006000,/map,7.21653556824,17.4179000854,0.691070914268,-0.0335799509942,0.0474704914621,0.018015863679,0.998145464342
1509044738139920322,26540,1509044738130832000,/map,7.61355113983,17.4822883606,0.728089928627,-0.0358164988167,0.0512161082847,0.0207915110172,0.997828543255
1509044738246650923,26541,1509044738235698000,/map,8.04030418396,17.5508804321,0.789399981499,-0.0352959700195,0.0563649968417,0.022381459302,0.99753508806
1509044738349473095,26542,1509044738340546000,/map,8.48696613312,17.6270198822,0.82538318634,-0.0359519355409,0.0580521371299,0.0227765966207,0.997405952635
1509044738459230208,26543,1509044738445423000,/map,8.87986373901,17.7125911713,0.883540034294,-0.0384574662393,0.0597414974386,0.0206889481701,0.997258213402
1509044738561119153,26544,1509044738550210000,/map,9.29753684998,17.777053833,0.891947388649,-0.0399345115023,0.0607045212628,0.017543204479,0.997202302377
1509044738668382456,26545,1509044738655045000,/map,9.70320510864,17.835943222,0.919096589088,-0.0385166312984,0.0614863835684,0.017045920412,0.99721879763
1509044738769507724,26546,1509044738759887000,/map,10.1026420593,17.9214820862,0.950481414795,-0.0374427828824,0.0602108688508,0.0164864604621,0.997346923545
1509044738875975842,26547,1509044738864727000,/map,10.5364027023,17.9742431641,0.987074017525,-0.0349254725138,0.0581508732336,0.0134594112364,0.997605899923
1509044738983631415,26548,1509044738969646000,/map,10.9006595612,18.0377483368,1.03018379211,-0.0335931550113,0.0587281273886,0.0123384293858,0.99763233215
1509044739085107761,26549,1509044739074422000,/map,11.2806072235,18.123210907,1.05462408066,-0.0355092713253,0.0584932452392,0.0100543117141,0.997605404319
1509044739189305858,26550,1509044739179280000,/map,11.6653146744,18.188873291,1.06610906124,-0.0375141688988,0.0582869707844,0.00644150433522,0.997573968782
1509044739294362492,26551,1509044739284101000,/map,12.0446453094,18.2373943329,1.07619428635,-0.0375978669326,0.0565983341852,0.00387323131761,0.997681325398
1509044739401403044,26552,1509044739388949000,/map,12.4212989807,18.2936534882,1.09383511543,-0.0375954846504,0.0556849745686,0.00124269142092,0.997739554623
1509044739505188840,26553,1509044739493783000,/map,12.8219566345,18.3609790802,1.12937498093,-0.0374364099135,0.0576645518986,-0.00334506894945,0.997628249991
1509044739609528995,26554,1509044739598623000,/map,13.2316379547,18.3995018005,1.15411198139,-0.0360355332177,0.0595806470749,-0.00763664091438,0.99754361737
1509044739718994798,26555,1509044739703494000,/map,13.5847415924,18.4528846741,1.17912650108,-0.0338999029318,0.0607496328189,-0.0110038451514,0.997516513189
1509044739820221923,26556,1509044739808334000,/map,13.9426193237,18.5091533661,1.18755805492,-0.0329244562981,0.0603000929933,-0.0159785462295,0.99750918042
1509044739923275045,26557,1509044739913167000,/map,14.3122377396,18.5608596802,1.2265291214,-0.0330655967932,0.0589829538125,-0.0232001635741,0.997441441829
1509044740029898875,26558,1509044740018008000,/map,14.6524238586,18.5751667023,1.24743163586,-0.0314096878652,0.0582738127268,-0.0300849041587,0.997352742414
1509044740132454503,26559,1509044740122861000,/map,15.0057229996,18.5712966919,1.28550982475,-0.0297215684386,0.0581347042723,-0.0359049762221,0.997220044529
1509044740239300563,26560,1509044740227682000,/map,15.2782831192,18.5988140106,1.28936314583,-0.0295161157195,0.0567944631212,-0.043670146356,0.996993533675
1509044740346222541,26561,1509044740332521000,/map,15.6489591599,18.6475429535,1.31513440609,-0.0289657454919,0.0556764082937,-0.0532614812694,0.996606410656
1509044740448308154,26562,1509044740437429000,/map,16.0140781403,18.700969696,1.32301223278,-0.0277747454156,0.0552548352319,-0.0627442583449,0.996111753141
1509044740554023600,26563,1509044740542219000,/map,16.3408107758,18.7428340912,1.33078896999,-0.0247796628108,0.0552758671399,-0.070976763257,0.99563690465
1509044740658867640,26564,1509044740647053000,/map,16.6802101135,18.7449760437,1.35774588585,-0.0223361389664,0.0550287912904,-0.0793813937886,0.995073627098
1509044740765704289,26565,1509044740751900000,/map,16.9746761322,18.7620868683,1.38361275196,-0.0217937249192,0.0560876099582,-0.0899398028721,0.994127781235
1509044740868786151,26566,1509044740856737000,/map,17.3466854095,18.7669715881,1.43236780167,-0.0212284447054,0.0588241028965,-0.101083752904,0.992910445585
1509044740972825734,26567,1509044740961598000,/map,17.7024555206,18.7633075714,1.46267926693,-0.0178069422906,0.0597205485655,-0.109896794708,0.991987431069
1509044741077909019,26568,1509044741066423000,/map,18.0118179321,18.7467441559,1.49364650249,-0.0137227821844,0.0600992862012,-0.118124716936,0.9910834033
1509044741182308755,26569,1509044741171276000,/map,18.3002510071,18.7232837677,1.51979374886,-0.0113643388185,0.0598612283848,-0.127042230873,0.990024119259
1509044741285951729,26570,1509044741276134000,/map,18.605304718,18.6992588043,1.54639995098,-0.0116987937787,0.0597426230584,-0.13762609925,0.988611659864
1509044741392582471,26571,1509044741380950000,/map,18.9167041779,18.6339454651,1.56727898121,-0.012529090416,0.060071788351,-0.147939077935,0.987090893159
1509044741496219946,26572,1509044741485781000,/map,19.2378292084,18.5918292999,1.59303033352,-0.0116535534901,0.059976879302,-0.15738177866,0.985645952858
1509044741606556606,26573,1509044741590627000,/map,19.5341529846,18.5493412018,1.61822664738,-0.00541106386006,0.0570140325507,-0.16504196718,0.984622399476
1509044741706914930,26574,1509044741695487000,/map,19.7928085327,18.4990024567,1.64003801346,-0.0028595902147,0.0562399603893,-0.173079607693,0.983296668865
1509044741810292075,26575,1509044741800318000,/map,20.0509300232,18.4545021057,1.63894891739,-0.0017896404582,0.0562445025969,-0.181467906341,0.981785491889
1509044741917421164,26576,1509044741905196000,/map,20.3420467377,18.417963028,1.64896798134,-0.00344737621985,0.0563369071307,-0.189810622498,0.980197019012
1509044742019345247,26577,1509044742010004000,/map,20.6134929657,18.3446350098,1.67285501957,-0.00480964099592,0.0564891762805,-0.198130591819,0.978534674348
1509044742124806588,26578,1509044742114841000,/map,20.8765926361,18.2657012939,1.69675827026,-0.00351296368451,0.0571882795154,-0.205678880908,0.976940815874
1509044742267719547,26579,1509044742219721000,/map,21.1457557678,18.1770210266,1.70759952068,-0.00173878270604,0.0566843525765,-0.213595075823,0.975274835311
1509044742336654613,26580,1509044742324535000,/map,21.4049396515,18.0909461975,1.72465407848,0.00020972442391,0.0566425926728,-0.221740274029,0.97345920489
1509044742438958578,26581,1509044742429375000,/map,21.6808395386,18.0057659149,1.75287127495,0.000816887263609,0.0574603601211,-0.230709169226,0.971324311929
1509044742543480959,26582,1509044742534214000,/map,21.9457073212,17.9357204437,1.77692210674,0.00276570720221,0.0590769804634,-0.239202409748,0.969166893994
1509044742650862256,26583,1509044742639060000,/map,22.2208023071,17.8618907928,1.81712687016,0.00506197722535,0.0604726609343,-0.248099037422,0.966832095711
1509044742754976516,26584,1509044742743884000,/map,22.4838790894,17.753534317,1.85103619099,0.00532285305499,0.0618179187564,-0.259644259356,0.96370901767
1509044742859997010,26585,1509044742848737000,/map,22.7869644165,17.6657218933,1.88393223286,0.00602282979513,0.0619399994797,-0.274463477147,0.959581659734
1509044742963660845,26586,1509044742953587000,/map,23.0690994263,17.5954265594,1.9054492712,0.00690824192444,0.0626980370866,-0.291836028633,0.954386171699
1509044743067438536,26587,1509044743058427000,/map,23.3563556671,17.519109726,1.9156036377,0.00845012267127,0.0638293944703,-0.311093093389,0.948195913867
1509044743174094423,26588,1509044743163298000,/map,23.6512413025,17.3897609711,1.94393265247,0.0118158096496,0.0644516995237,-0.331602984123,0.941140704672
1509044743283048934,26589,1509044743268105000,/map,23.9381866455,17.2572402954,1.96664643288,0.0157590029538,0.0634863760449,-0.352343330236,0.933581979004
1509044743386091756,26590,1509044743372953000,/map,24.2769508362,17.0593738556,1.99230277538,0.0199959378216,0.0632576472087,-0.373870494491,0.925105121535
1509044743489804989,26591,1509044743477810000,/map,24.578540802,16.8684539795,2.03813695908,0.0234565766767,0.0648135921584,-0.395753848521,0.915766279497
1509044743594183427,26592,1509044743582629000,/map,24.801908493,16.6945228577,2.06210637093,0.0259162271516,0.065169803984,-0.415193916619,0.907025499874
1509044743716336105,26593,1509044743687493000,/map,25.0242214203,16.5349082947,2.07621097565,0.0286828234112,0.064443529264,-0.433585359547,0.898347406722
1509044743806870169,26594,1509044743792316000,/map,25.2413101196,16.3613853455,2.08912849426,0.0323674178353,0.0631715010129,-0.451686022188,0.889348890528
1509044743911107317,26595,1509044743897193000,/map,25.4653835297,16.164598465,2.14232850075,0.03827634837,0.0614150113486,-0.469650978326,0.879881285228
1509044744013240115,26596,1509044744001993000,/map,25.6559276581,15.9904441833,2.12451076508,0.0399135876903,0.0609586199156,-0.485026105274,0.8714589086
1509044744119148354,26597,1509044744106861000,/map,25.8213119507,15.7675037384,2.11602401733,0.0418870021536,0.0597510144068,-0.50019740622,0.862831298771
1509044744220810272,26598,1509044744211714000,/map,25.9954586029,15.5542507172,2.12042713165,0.0429042798005,0.0584743218029,-0.514881572594,0.854187884875
1509044744328324633,26599,1509044744316519000,/map,26.1513538361,15.2994089127,2.14803147316,0.045427268816,0.0578463242081,-0.529325381748,0.845224707555
1509044744431179563,26600,1509044744421365000,/map,26.3362236023,15.0473136902,2.14250349998,0.0469289983478,0.0562994634353,-0.544106041965,0.835808982141
1509044744548422155,26601,1509044744526211000,/map,26.4498825073,14.8289575577,2.15696263313,0.0488918617231,0.0573559381533,-0.557361820409,0.826841994196
1509044744640155927,26602,1509044744631070000,/map,26.5877895355,14.6034498215,2.15470600128,0.0501446235345,0.0586408703004,-0.571383296499,0.817048281035
1509044744745233107,26603,1509044744735883000,/map,26.7257823944,14.3544836044,2.15590500832,0.0535373005187,0.057670998495,-0.585137531724,0.807107107114
1509044744854864627,26604,1509044744840731000,/map,26.8709144592,14.1037368774,2.16136431694,0.0565756690885,0.0559874394548,-0.599181842198,0.796646546638
1509044744956280400,26605,1509044744945584000,/map,26.989282608,13.8464460373,2.17773795128,0.0603658496395,0.0539390339844,-0.612716160062,0.786145948288
1509044745111681271,26606,1509044745050593000,/map,27.1273784637,13.5949420929,2.20498347282,0.0625150395992,0.0546146748855,-0.626759306346,0.774778600001
1509044745171043039,26607,1509044745155287000,/map,27.2823143005,13.3070812225,2.24604463577,0.0658924821072,0.0542225160571,-0.640022268597,0.763603035126
1509044745272955168,26608,1509044745260096000,/map,27.4464073181,12.9655685425,2.24190616608,0.0658646498802,0.0547574972995,-0.653617354483,0.751962644221
1509044745377889308,26609,1509044745364940000,/map,27.5687904358,12.6078491211,2.26387119293,0.0675519276132,0.0539940179543,-0.667344735078,0.73971101632
1509044745481296073,26610,1509044745469779000,/map,27.7006721497,12.3003129959,2.25809240341,0.0683003535666,0.054853038709,-0.680314677901,0.727666231784
1509044745587809454,26611,1509044745574651000,/map,27.7977981567,12.0128974915,2.29277133942,0.0718662249051,0.0532036119429,-0.691256988737,0.717055365308
1509044745690894976,26612,1509044745679492000,/map,27.8459186554,11.7190160751,2.30469846725,0.0752549028133,0.0512973085292,-0.701832922418,0.706495459823
1509044745795340199,26613,1509044745784312000,/map,27.9002494812,11.3962192535,2.30977082253,0.0772470569003,0.0506401947227,-0.713391398115,0.694651837955
1509044745900610323,26614,1509044745889148000,/map,27.9492111206,11.1149663925,2.28294563293,0.0777550298542,0.050641110058,-0.723802845841,0.683739039149
1509044746003702351,26615,1509044745994000000,/map,27.9687843323,10.8355541229,2.29430818558,0.0794937141202,0.0499916632787,-0.734290611793,0.672308619944
1509044746108076004,26616,1509044746098845000,/map,27.9734554291,10.5283250809,2.30302667618,0.0812226254136,0.0493294359356,-0.744792282424,0.660495229289
1509044746218827719,26617,1509044746203682000,/map,27.9822635651,10.2123718262,2.29479670525,0.0814111500602,0.0497984363085,-0.755431454848,0.648240431794
1509044746320383377,26618,1509044746308536000,/map,27.9817581177,9.87213134766,2.28528499603,0.0821172690446,0.049689967292,-0.766298004621,0.635275553905
1509044746433580179,26619,1509044746413370000,/map,27.979221344,9.59880065918,2.30303502083,0.0847220254652,0.0495106969668,-0.776344459543,0.622623601724
1509044746527829931,26620,1509044746518213000,/map,27.9632434845,9.30303001404,2.29333019257,0.0866606826033,0.0476691316188,-0.786493081789,0.609627929379
1509044746637301048,26621,1509044746623047000,/map,27.897359848,8.9984664917,2.31102752686,0.0900285528815,0.044083665766,-0.797016026854,0.595581180878
1509044746783371599,26622,1509044746727916000,/map,27.8054141998,8.68776893616,2.28862524033,0.0921206747606,0.0432863100587,-0.808902129015,0.579065991332
1509044746850215711,26623,1509044746832738000,/map,27.7813491821,8.42102432251,2.30681753159,0.0954619745404,0.0419544250656,-0.818958642142,0.564299193775
1509044746948424563,26624,1509044746937585000,/map,27.7221698761,8.16034984589,2.28080153465,0.0969572787464,0.0420591530785,-0.827827274037,0.550937671702
1509044747056362631,26625,1509044747042940000,/map,27.66065979,7.89905548096,2.2789607048,0.099244199875,0.0429568650772,-0.837549579716,0.535552049806
1509044747157563661,26626,1509044747147281000,/map,27.6124038696,7.62385177612,2.2876598835,0.101427647813,0.0435715152161,-0.846941267319,0.52010041822
1509044747263648084,26627,1509044747252099000,/map,27.54570961,7.32945728302,2.29517579079,0.101611554922,0.044113421572,-0.856026030366,0.504924284699
1509044747393028248,26628,1509044747356967000,/map,27.4980010986,7.0070643425,2.28910207748,-0.102305998045,-0.0430994324852,0.863957253971,-0.491175920618
1509044747474565572,26629,1509044747461784000,/map,27.4225883484,6.69011878967,2.29666233063,-0.103720829424,-0.0431048476732,0.869982528709,-0.48011911167
1509044747579474146,26630,1509044747566625000,/map,27.3334159851,6.42073774338,2.29807376862,-0.10501642894,-0.042841096951,0.874147175613,-0.472231834413
1509044747681110341,26631,1509044747671465000,/map,27.213804245,6.16835975647,2.29206967354,-0.104935289753,-0.0429831646306,0.87795235606,-0.465124384451
1509044747787167953,26632,1509044747776320000,/map,27.0806312561,5.92892026901,2.26941299438,-0.105128838741,-0.0414186227446,0.881068203626,-0.459294290749
1509044747891393513,26633,1509044747881164000,/map,26.9558162689,5.69652462006,2.26335883141,-0.105188171093,-0.0395175225595,0.88319226039,-0.455351781879
1509044747999128464,26634,1509044747986000000,/map,26.81208992,5.43970870972,2.26684904099,-0.105790540043,-0.038666441151,0.884784728668,-0.452182763804
1509044748101689093,26635,1509044748090835000,/map,26.6828784943,5.2014799118,2.26191425323,-0.104016149449,-0.0400400316556,0.886174144731,-0.449747508864
1509044748249924548,26636,1509044748195699000,/map,26.5646896362,4.96776199341,2.24900960922,-0.103873495932,-0.0415159015149,0.887947731656,-0.44613400746
1509044748312151353,26637,1509044748300532000,/map,26.4304580688,4.74048089981,2.2302377224,-0.103481170345,-0.0427012613435,0.890275245463,-0.441450152316
1509044748415399528,26638,1509044748405361000,/map,26.29155159,4.48695898056,2.21324062347,-0.10382597381,-0.0438631805395,0.893306861208,-0.435085095441
1509044748522235745,26639,1509044748510242000,/map,26.1699333191,4.2582988739,2.21092128754,-0.103891325442,-0.0441694770401,0.896461409076,-0.428500398871
1509044748625493043,26640,1509044748615045000,/map,26.0445404053,4.02276468277,2.20405888557,-0.102612139881,-0.0449084777035,0.900364790591,-0.42047261652
1509044748730068193,26641,1509044748719899000,/map,25.9201183319,3.81180882454,2.21827435493,-0.102053497847,-0.0454904983564,0.904572017887,-0.41141847624
1509044748837448738,26642,1509044748824731000,/map,25.7363605499,3.60164213181,2.1798915863,-0.102377469986,-0.0471019407404,0.909421488293,-0.400315897072
1509044748945420408,26643,1509044748929582000,/map,25.6298885345,3.40773320198,2.19353294373,-0.10468631099,-0.0453585599009,0.914401836278,-0.388397552961
1509044749075970878,26644,1509044749034460000,/map,25.5110778809,3.21292662621,2.18770933151,-0.107340090677,-0.0426529247872,0.920407455119,-0.373508968436
1509044749156047726,26645,1509044749139254000,/map,25.3375434875,3.02130746841,2.17002534866,-0.109392786996,-0.0399909919732,0.927614903347,-0.354914820489
1509044749254993821,26646,1509044749244108000,/map,25.1483631134,2.85458302498,2.14608454704,-0.111784508615,-0.039361393202,0.933848776646,-0.337463133861
1509044749399026897,26647,1509044749348980000,/map,25.0974349976,2.71205329895,2.14107990265,-0.113022951673,-0.0377557052767,0.940014467127,-0.319645304528
1509044749466867149,26648,1509044749453821000,/map,25.0335826874,2.50992536545,2.13495850563,-0.113779299379,-0.0362431761675,0.946317730289,-0.300372196708
1509044749570914210,26649,1509044749558646000,/map,24.9411849976,2.35673666,2.12685513496,-0.114779932875,-0.0339051291394,0.951927834905,-0.281974123566
1509044749676347539,26650,1509044749663480000,/map,24.8177757263,2.21492433548,2.12072372437,-0.115679393477,-0.032850795899,0.95643997552,-0.266010669638
1509044749779873533,26651,1509044749768349000,/map,24.6912174225,2.09978485107,2.09927964211,-0.115645455909,-0.032426589457,0.960291947418,-0.251821406057
1509044749883095106,26652,1509044749873164000,/map,24.5423965454,1.98715901375,2.10766243935,-0.116036082116,-0.0312400932302,0.963787882529,-0.23806008005
1509044750009987178,26653,1509044749978127000,/map,24.4196586609,1.8418366909,2.12489676476,-0.116508232025,-0.0300231120204,0.966696679468,-0.22588044298
1509044750095211060,26654,1509044750082860000,/map,24.2581787109,1.73393213749,2.11194801331,-0.117583815501,-0.0292788745671,0.969244952778,-0.214198541895
1509044750255474030,26655,1509044750187706000,/map,24.147277832,1.65620040894,2.11583447456,-0.118682271197,-0.0275438550412,0.970847094173,-0.206426195741
1509044750304938518,26656,1509044750292517000,/map,24.0297546387,1.57399237156,2.08403682709,-0.118269454566,-0.0259434088213,0.972320475634,-0.199830348843
1509044750409634730,26657,1509044750397361000,/map,23.9372272491,1.50914716721,2.08113670349,-0.118345882544,-0.0251889860125,0.973303914682,-0.195036552299
1509044750515665632,26658,1509044750502204000,/map,23.7993373871,1.43473172188,2.0701584816,-0.117282168325,-0.0257126016112,0.974310307495,-0.190533933516
1509044750620227814,26659,1509044750607048000,/map,23.7308521271,1.3690726757,2.06951904297,-0.116962930134,-0.0276985666493,0.974629812164,-0.188809935175
1509044750724277536,26660,1509044750711890000,/map,23.6389427185,1.3161867857,2.07357788086,-0.11697533458,-0.0285142376068,0.974829041036,-0.187648741284
1509044750828348031,26661,1509044750816745000,/map,23.5366210938,1.2742331028,2.07509946823,-0.116854717079,-0.0276453646754,0.9751115776,-0.186381651829
1509044750932376038,26662,1509044750921612000,/map,23.4575328827,1.22594344616,2.06352519989,-0.117060847158,-0.0272142403231,0.975309276342,-0.185278057707
1509044751036287184,26663,1509044751026415000,/map,23.3716850281,1.1744478941,2.05473613739,-0.117542260109,-0.0275500987566,0.975341125552,-0.184755237959
1509044751141176074,26664,1509044751131264000,/map,23.3044548035,1.15010261536,2.04209589958,-0.116708249746,-0.0287827948436,0.97555851934,-0.183946488159
1509044751249216507,26665,1509044751236109000,/map,23.2709465027,1.12635660172,2.0489127636,-0.116365608473,-0.0285490428629,0.975504029246,-0.184488173715
1509044751350620052,26666,1509044751340939000,/map,23.2313289642,1.10026299953,2.037307024,-0.116324113557,-0.0280889485524,0.975643307419,-0.183847350436
1509044751457468535,26667,1509044751445799000,/map,23.2162628174,1.08451390266,2.03811264038,-0.116477000533,-0.0282145174865,0.975579876254,-0.184067798373
1509044751561319679,26668,1509044751550624000,/map,23.1986217499,1.07933223248,2.02713036537,-0.116488459385,-0.0285513995723,0.975601259181,-0.183895186171
1509044751665724239,26669,1509044751655466000,/map,23.1887493134,1.07303988934,2.03351593018,-0.116472362748,-0.0282155955442,0.975716014286,-0.183347561612
1509044751770504364,26670,1509044751760308000,/map,23.2046527863,1.07730805874,2.037545681,-0.115936382324,-0.0280733433128,0.975742287223,-0.183569146572
1509044751874858861,26671,1509044751865154000,/map,23.1899623871,1.07513260841,2.04022312164,-0.115203043539,-0.0274023362133,0.975859945932,-0.183506775502
1509044751983372144,26672,1509044751970107000,/map,23.2058410645,1.07772922516,2.04006361961,-0.115145043318,-0.0278252462643,0.975854217625,-0.183510001399
1509044752084736688,26673,1509044752074860000,/map,23.2012500763,1.0743227005,2.04304838181,-0.114992521089,-0.027725843401,0.97584374376,-0.183676306219
1509044752190153722,26674,1509044752179685000,/map,23.1977386475,1.07318949699,2.03105759621,-0.114177335432,-0.0275286851492,0.97589857757,-0.183923010697
1509044752297345221,26675,1509044752284523000,/map,23.1449489594,1.06319260597,2.01928091049,-0.11295764707,-0.0270593694369,0.976174183739,-0.183282087222
1509044752412524996,26676,1509044752389380000,/map,23.09973526,1.03393852711,2.00890207291,-0.110829165782,-0.0262403631331,0.976623880358,-0.182302319428
1509044752506406124,26677,1509044752494204000,/map,23.0257167816,0.974953174591,1.99630999565,-0.107030517591,-0.0252412803117,0.977150321141,-0.181891714945
1509044752610273896,26678,1509044752599047000,/map,22.9402809143,0.938159584999,1.99039924145,-0.106700836241,-0.0246797942491,0.977213978342,-0.181820460438
1509044752720542539,26679,1509044752703946000,/map,22.8190498352,0.871664345264,1.98235952854,-0.106314345684,-0.0240968523683,0.977390445887,-0.181175378838
1509044752822105308,26680,1509044752808731000,/map,22.65076828,0.78880161047,1.96951341629,-0.105831019829,-0.0224018614058,0.977595889301,-0.180566411794
1509044752926403072,26681,1509044752913602000,/map,22.4373416901,0.693669319153,1.96221911907,-0.106236772663,-0.0213731816813,0.977645290932,-0.180184961521
1509044753031190694,26682,1509044753018416000,/map,22.1781673431,0.547533273697,1.93994629383,-0.105501771851,-0.0212587707536,0.977639446934,-0.180661430861
1509044753152446274,26683,1509044753123471000,/map,21.9048843384,0.387112081051,1.92832684517,-0.105618137274,-0.0206840911448,0.977282255629,-0.18258250268
1509044753238907550,26684,1509044753228110000,/map,21.6200866699,0.205301761627,1.90561449528,-0.107122403712,-0.019634342284,0.976537413321,-0.18577934118
1509044753347391414,26685,1509044753333092000,/map,21.2430591583,0.0225805044174,1.89487278461,-0.108096047253,-0.0181084557623,0.97576571485,-0.189390068699
1509044753452545495,26686,1509044753437820000,/map,20.9181461334,-0.20168364048,1.8957426548,-0.109327961753,-0.020819807585,0.974869365946,-0.192986143885
1509044753556387204,26687,1509044753542637000,/map,20.5086078644,-0.436461508274,1.88519585133,-0.112422385217,-0.0275691735802,0.973582609175,-0.196819844228
1509044753658365384,26688,1509044753647477000,/map,20.09715271,-0.687317490578,1.88252472878,-0.115949731102,-0.0310092852947,0.972318312319,-0.200477389279
1509044753763610312,26689,1509044753752325000,/map,19.7149829865,-0.916764736176,1.8590939045,-0.11815547064,-0.0306489607749,0.971392251331,-0.203708173658
1509044753867436237,26690,1509044753857152000,/map,19.333158493,-1.13057148457,1.82067525387,-0.11855072418,-0.0275583629542,0.971150156266,-0.205069833016
1509044753973380877,26691,1509044753962007000,/map,18.9361381531,-1.37007248402,1.81296789646,-0.118546166412,-0.0247020284703,0.971477121168,-0.203884328151
1509044754078356767,26692,1509044754066856000,/map,18.5505924225,-1.58097314835,1.78685081005,-0.117882149455,-0.0258334024104,0.972429421223,-0.199543115391
1509044754183486928,26693,1509044754171712000,/map,18.1651725769,-1.80164551735,1.75242424011,-0.116338506669,-0.0266761809306,0.973570928017,-0.194713588014
1509044754292423021,26694,1509044754276533000,/map,17.8050117493,-2.03441262245,1.72250103951,-0.115120648627,-0.0266977497221,0.974599787262,-0.190235961606
1509044754393657226,26695,1509044754381368000,/map,17.4508552551,-2.23634910583,1.68056607246,-0.114607267822,-0.0257099865951,0.975819251827,-0.184339248441
1509044754498490227,26696,1509044754486207000,/map,17.1265449524,-2.39823198318,1.65690743923,-0.115955912506,-0.0217770884068,0.976769368818,-0.178889868117
1509044754606219702,26697,1509044754591073000,/map,16.777973175,-2.60532999039,1.67280256748,-0.116843369518,-0.0194808497822,0.977853676778,-0.172540749688
1509044754706944562,26698,1509044754695892000,/map,16.4547767639,-2.79505205154,1.65814733505,-0.117668145138,-0.0207080195571,0.979170827824,-0.164164172356
1509044754812415438,26699,1509044754800729000,/map,16.0900878906,-2.97667956352,1.6128474474,-0.117608726227,-0.0203456296976,0.980517930919,-0.156009070291
1509044754922604743,26700,1509044754905654000,/map,15.7485294342,-3.11412143707,1.57804441452,-0.117545826381,-0.0208792098422,0.981763178128,-0.147946271901
1509044755022134159,26701,1509044755010412000,/map,15.4224185944,-3.28540945053,1.5810726881,-0.118150729105,-0.0187112233841,0.983137319856,-0.13831596306
1509044755127897128,26702,1509044755115276000,/map,15.043806076,-3.45281410217,1.58401918411,-0.119085967401,-0.0165318000122,0.984478420348,-0.127857232198
1509044755231946231,26703,1509044755220100000,/map,14.7276058197,-3.61130666733,1.5560939312,-0.120469167599,-0.0153621616977,0.985413359631,-0.119212811003
1509044755335086368,26704,1509044755324951000,/map,14.4045944214,-3.75245261192,1.55259871483,-0.12091516814,-0.0141959959209,0.986544883687,-0.10912006362
1509044755474184323,26705,1509044755429853000,/map,14.0391359329,-3.86534929276,1.57052373886,-0.119858230349,-0.0121116609804,0.987978298179,-0.0968823751464
1509044755545653685,26706,1509044755534640000,/map,13.6863861084,-3.97371721268,1.54123413563,-0.118808289434,-0.0123923632293,0.989248526856,-0.0843704439271
1509044755650522422,26707,1509044755639465000,/map,13.3466835022,-4.06200122833,1.51510119438,-0.118644515844,-0.0128340397325,0.990212005793,-0.0723805904098
1509044755759906257,26708,1509044755744322000,/map,13.0884990692,-4.18409442902,1.50588345528,-0.120568977119,-0.0140268530348,0.990633113912,-0.0625492028018
1509044755910195541,26709,1509044755849183000,/map,12.7736988068,-4.28054666519,1.47213435173,-0.121868999893,-0.0149914194494,0.99109328042,-0.051549138837
1509044755964743539,26710,1509044755954016000,/map,12.4697113037,-4.38962221146,1.47872328758,-0.12309308466,-0.0140995722882,0.991451913899,-0.0408949507355
1509044756069858733,26711,1509044756058837000,/map,12.2113285065,-4.49479055405,1.47359442711,-0.123701673998,-0.0127013148141,0.991699151877,-0.0327011409281
1509044756179120063,26712,1509044756163681000,/map,11.9326190948,-4.54546022415,1.43216443062,-0.122726772642,-0.0119152136328,0.992088329733,-0.0235990035494
1509044756278017278,26713,1509044756268551000,/map,11.6430625916,-4.61975049973,1.42263019085,-0.123627082538,-0.0099601953912,0.992171997307,-0.0145556426031
1509044756415607882,26714,1509044756373432000,/map,11.4185323715,-4.67970180511,1.43135595322,-0.124748803844,-0.00823279313147,0.992129814745,-0.00695613039078
1509044756488996771,26715,1509044756478200000,/map,11.2596120834,-4.71972179413,1.43394172192,-0.125360429378,-0.00619503079772,0.99209191817,-0.000101200261224
1509044756594614655,26716,1509044756583051000,/map,11.1051177979,-4.7183265686,1.42178118229,-0.125904379371,-0.00522046272777,0.99199793809,0.00780543709928
1509044756699595876,26717,1509044756687890000,/map,10.9824609756,-4.74684047699,1.40250825882,-0.125576451459,-0.00415719483825,0.991985005081,0.0133799201762
1509044756805208969,26718,1509044756792737000,/map,10.8687515259,-4.75387477875,1.39131832123,-0.125474488179,-0.00311200128032,0.991913030972,0.0188416361488
1509044756909154197,26719,1509044756897573000,/map,10.7862329483,-4.77238368988,1.37310540676,-0.12464837798,-0.00276770383401,0.991917718172,0.023544894537
1509044757011616816,26720,1509044757002412000,/map,10.7079391479,-4.77643346786,1.36738479137,-0.124883222204,-0.00271195048528,0.991779732079,0.0277450747529
1509044757123858175,26721,1509044757107260000,/map,10.6526031494,-4.78152179718,1.35211932659,-0.125072884258,-0.0035256538484,0.991659658407,0.0309106013727
1509044757222748665,26722,1509044757212137000,/map,10.5996551514,-4.78352594376,1.36147046089,-0.125135181076,-0.00246570939591,0.991599631165,0.0326385999685
1509044757331178714,26723,1509044757316964000,/map,10.6045856476,-4.79133033752,1.35871005058,-0.124472056506,-0.00284922907372,0.991647038277,0.0336859098032
1509044757432246324,26724,1509044757421798000,/map,10.5811033249,-4.78225851059,1.35787379742,-0.124035138243,-0.00248658459677,0.991683248483,0.0342554529426
1509044757535995093,26725,1509044757526625000,/map,10.5620098114,-4.7913107872,1.36465740204,-0.123808404421,-0.00225107046769,0.991715635949,0.0341541958122
1509044757640700892,26726,1509044757631480000,/map,10.5598917007,-4.79083061218,1.3568007946,-0.123162597041,-0.00321970045775,0.991791894002,0.0341971813361
1509044757745634210,26727,1509044757736308000,/map,10.5835113525,-4.78516769409,1.34975814819,-0.122092826359,-0.00331013373757,0.991924855845,0.0341681887695
1509044757855468589,26728,1509044757841209000,/map,10.5645618439,-4.79519271851,1.34136676788,-0.121812232156,-0.00327547109188,0.991959837328,0.0341574664663
1509044757957418095,26729,1509044757945994000,/map,10.5879392624,-4.7947101593,1.34891939163,-0.122083053169,-0.00304528982839,0.991929983644,0.0340787600429
1509044758060313243,26730,1509044758050843000,/map,10.5883378983,-4.79510784149,1.356102705,-0.121986797086,-0.00267116039916,0.991943210275,0.0340698375088
1509044758165469443,26731,1509044758155676000,/map,10.5835437775,-4.81047010422,1.36181354523,-0.122088814274,-0.00238757809368,0.991935962194,0.0339362314815
1509044758271019564,26732,1509044758260517000,/map,10.587020874,-4.7909116745,1.35653340816,-0.122237598407,-0.00273105028486,0.991914915198,0.0339898794831
1509044758377577964,26733,1509044758365437000,/map,10.596581459,-4.80085277557,1.35982525349,-0.121880464795,-0.00258193199007,0.991962069877,0.0339077845671
1509044758479320601,26734,1509044758470230000,/map,10.6000518799,-4.79638195038,1.35307312012,-0.121849222834,-0.00267238126504,0.991962027333,0.0340141382842
1509044758588196524,26735,1509044758575095000,/map,10.5900592804,-4.78528356552,1.35590910912,-0.121879015258,-0.00272374694929,0.991948482666,0.0342971511879
1509044758690057051,26736,1509044758679886000,/map,10.5878791809,-4.78755950928,1.3641371727,-0.122209726634,-0.00221063259488,0.991903923247,0.0344456509053
1509044758811705077,26737,1509044758784759000,/map,10.590839386,-4.79449224472,1.34063696861,-0.121732520384,-0.00309712113239,0.991975358528,0.0340071962093
1509044758898881244,26738,1509044758889609000,/map,10.5881023407,-4.78695392609,1.34300839901,-0.121685867815,-0.00300205410305,0.991980597537,0.0340298597696
1509044759003948465,26739,1509044758994425000,/map,10.5817861557,-4.7891626358,1.34801745415,-0.121637748723,-0.00281594062586,0.991982811394,0.0341530447106
1509044759126757396,26740,1509044759099272000,/map,10.5769844055,-4.78114461899,1.34053421021,-0.121362599779,-0.00363858220637,0.992020631498,0.0339550699737
1509044759213518815,26741,1509044759204102000,/map,10.5682125092,-4.77793169022,1.35021400452,-0.121815376258,-0.00283639919554,0.99195432553,0.0343450871281
1509044759321418612,26742,1509044759308946000,/map,10.6010160446,-4.78869199753,1.35612940788,-0.121952236709,-0.00265169086588,0.991954342981,0.0338703696245
1509044759425509850,26743,1509044759413798000,/map,10.601354599,-4.78893947601,1.34566473961,-0.121772249884,-0.00299189245387,0.991974456179,0.0339005313526
1509044759529667183,26744,1509044759518622000,/map,10.5746307373,-4.79776573181,1.35931825638,-0.122095885146,-0.00272583146375,0.991923227343,0.0342560320216
1509044759634942837,26745,1509044759623479000,/map,10.5828847885,-4.79002094269,1.33739864826,-0.121343105294,-0.00336369153713,0.99201597479,0.0341883333584
1509044759738655883,26746,1509044759728336000,/map,10.5804748535,-4.78560638428,1.35227644444,-0.121953676418,-0.00294806603375,0.991937159361,0.0343406696837
1509044759845439816,26747,1509044759833154000,/map,10.5856313705,-4.78877401352,1.35389399529,-0.122160547915,-0.00251915140302,0.991921593115,0.0340882314185
1509044759947280229,26748,1509044759937993000,/map,10.5916213989,-4.78604650497,1.3457198143,-0.121609678552,-0.00303254911823,0.991985027375,0.0341700920814
1509044760053202816,26749,1509044760042842000,/map,10.5961341858,-4.79538631439,1.34791755676,-0.121834083764,-0.00301192306539,0.991969842019,0.0338114903108
1509044760157127978,26750,1509044760147702000,/map,10.589969635,-4.78940105438,1.34878981113,-0.121835738355,-0.00299381748646,0.991970687334,0.0337823235907
1509044760261563804,26751,1509044760252519000,/map,10.5888729095,-4.79439020157,1.35616564751,-0.121912032668,-0.00262349818466,0.991948484723,0.0341873836812
1509044760367285886,26752,1509044760357373000,/map,10.5843067169,-4.78819608688,1.34196472168,-0.1216253374,-0.00331043646942,0.991984765505,0.0340960894998
1509044760473641336,26753,1509044760462207000,/map,10.5896635056,-4.77892208099,1.34179115295,-0.121566263421,-0.00308026884569,0.99197535961,0.034598287081
1509044760577537601,26754,1509044760567093000,/map,10.5964870453,-4.7863368988,1.34638702869,-0.121810270727,-0.00309392155885,0.991962890261,0.0340926669656
1509044760680910211,26755,1509044760671889000,/map,10.5887880325,-4.8000535965,1.35418486595,-0.121911456006,-0.00263718969969,0.991961110338,0.0338200783856
1509044760789965190,26756,1509044760776786000,/map,10.5898303986,-4.78736686707,1.34601259232,-0.12170601815,-0.00294661072015,0.991981074965,0.0339486309359
1509044760892691640,26757,1509044760881601000,/map,10.6105327606,-4.79179048538,1.35325503349,-0.122014386423,-0.00261239617655,0.991940505619,0.0340543419256
1509044760998198026,26758,1509044760986426000,/map,10.5971488953,-4.79032611847,1.35720598698,-0.12230325319,-0.00223730953419,0.991898524885,0.0342669671256
1509044761101722984,26759,1509044761091257000,/map,10.5896663666,-4.79543113708,1.35158157349,-0.12173856692,-0.00266545431324,0.991974910729,0.0340351753571
1509044761205644258,26760,1509044761196098000,/map,10.5732660294,-4.81154632568,1.35723543167,-0.121998702126,-0.00248122741503,0.991944401377,0.0340068341269
1509044761334382486,26761,1509044761300962000,/map,10.587020874,-4.7861289978,1.35556530952,-0.121830644258,-0.00273099851322,0.991957909435,0.0341956382717
1509044761415071071,26762,1509044761405782000,/map,10.5959644318,-4.79467773438,1.35411262512,-0.121607741303,-0.00270029127583,0.991995730545,0.0338930119942
