%time,field.transforms0.header.seq,field.transforms0.header.stamp,field.transforms0.header.frame_id,field.transforms0.child_frame_id,field.transforms0.transform.translation.x,field.transforms0.transform.translation.y,field.transforms0.transform.translation.z,field.transforms0.transform.rotation.x,field.transforms0.transform.rotation.y,field.transforms0.transform.rotation.z,field.transforms0.transform.rotation.w
1509044729559939734,0,1509044729569871172,velodyne,camera,0.710706008953,-0.0233497393934,-0.318154357045,-0.466762758929,0.456634726636,-0.532385867558,0.538685939423
1509044729567580092,0,1509044729577141771,base_link,velodyne,1.9,0.0,1.6,0.0,0.0,0.0,1.0
1509044729567588011,0,1509044729577434479,/world,/map,0.0,0.0,0.0,0.0,0.0,0.0,1.0
1509044729571741469,0,1509044729579937818,velodyne,camera,0.710706008953,-0.0233497393934,-0.318154357045,-0.466762758929,0.456634726636,-0.532385867558,0.538685939423
1509044729578179853,0,1509044729587215201,base_link,velodyne,1.9,0.0,1.6,0.0,0.0,0.0,1.0
1509044729578182706,0,1509044729587504108,/world,/map,0.0,0.0,0.0,0.0,0.0,0.0,1.0
1509044729580082098,0,1509044729590008569,velodyne,camera,0.710706008953,-0.0233497393934,-0.318154357045,-0.466762758929,0.456634726636,-0.532385867558,0.538685939423
1509044729587399486,0,1509044729597287053,base_link,velodyne,1.9,0.0,1.6,0.0,0.0,0.0,1.0
1509044729587646098,0,1509044729597572296,/world,/map,0.0,0.0,0.0,0.0,0.0,0.0,1.0
1509044729590261986,0,1509044729600079075,velodyne,camera,0.710706008953,-0.0233497393934,-0.318154357045,-0.466762758929,0.456634726636,-0.532385867558,0.538685939423
1509044729597437598,0,1509044729607357895,base_link,velodyne,1.9,0.0,1.6,0.0,0.0,0.0,1.0
1509044729601249236,0,1509044729610149994,velodyne,camera,0.710706008953,-0.0233497393934,-0.318154357045,-0.466762758929,0.456634726636,-0.532385867558,0.538685939423
1509044729601304695,0,1509044729607640886,/world,/map,0.0,0.0,0.0,0.0,0.0,0.0,1.0
1509044729607514778,0,1509044729617430536,base_link,velodyne,1.9,0.0,1.6,0.0,0.0,0.0,1.0
1509044729612051769,0,1509044729620219198,velodyne,camera,0.710706008953,-0.0233497393934,-0.318154357045,-0.466762758929,0.456634726636,-0.532385867558,0.538685939423
1509044729612083719,0,1509044729617710204,/world,/map,0.0,0.0,0.0,0.0,0.0,0.0,1.0
1509044729618004010,0,1509044729627505707,base_link,velodyne,1.9,0.0,1.6,0.0,0.0,0.0,1.0
1509044729618060058,0,1509044729627741719,/world,/map,0.0,0.0,0.0,0.0,0.0,0.0,1.0
1509044729620635494,0,1509044729630293891,velodyne,camera,0.710706008953,-0.0233497393934,-0.318154357045,-0.466762758929,0.456634726636,-0.532385867558,0.538685939423
1509044729627695534,0,1509044729637576103,base_link,velodyne,1.9,0.0,1.6,0.0,0.0,0.0,1.0
1509044729627898541,0,1509044729637810961,/world,/map,0.0,0.0,0.0,0.0,0.0,0.0,1.0
1509044729634140454,0,1509044729640364199,velodyne,camera,0.710706008953,-0.0233497393934,-0.318154357045,-0.466762758929,0.456634726636,-0.532385867558,0.538685939423
1509044729637789010,0,1509044729647648024,base_link,velodyne,1.9,0.0,1.6,0.0,0.0,0.0,1.0
1509044729637961454,0,1509044729647880094,/world,/map,0.0,0.0,0.0,0.0,0.0,0.0,1.0
1509044729640667442,0,1509044729650435239,velodyne,camera,0.710706008953,-0.0233497393934,-0.318154357045,-0.466762758929,0.456634726636,-0.532385867558,0.538685939423
1509044729648354977,0,1509044729657718629,base_link,velodyne,1.9,0.0,1.6,0.0,0.0,0.0,1.0
1509044729648392952,0,1509044729657951917,/world,/map,0.0,0.0,0.0,0.0,0.0,0.0,1.0
1509044729650864399,0,1509044729660505875,velodyne,camera,0.710706008953,-0.0233497393934,-0.318154357045,-0.466762758929,0.456634726636,-0.532385867558,0.538685939423
1509044729652107106,0,1509044729638654000,/map,/base_link,-5.08941841125,15.0012454987,-0.0826369524002,-0.0388004910822,0.0561107302737,0.0434505798008,0.996723710441
1509044729657938661,0,1509044729667789228,base_link,velodyne,1.9,0.0,1.6,0.0,0.0,0.0,1.0
1509044729658103153,0,1509044729668019715,/world,/map,0.0,0.0,0.0,0.0,0.0,0.0,1.0
1509044729660747031,0,1509044729670577130,velodyne,camera,0.710706008953,-0.0233497393934,-0.318154357045,-0.466762758929,0.456634726636,-0.532385867558,0.538685939423
1509044729668214773,0,1509044729677859340,base_link,velodyne,1.9,0.0,1.6,0.0,0.0,0.0,1.0
1509044729668278574,0,1509044729678087984,/world,/map,0.0,0.0,0.0,0.0,0.0,0.0,1.0
1509044729671329502,0,1509044729680648281,velodyne,camera,0.710706008953,-0.0233497393934,-0.318154357045,-0.466762758929,0.456634726636,-0.532385867558,0.538685939423
1509044729678048669,0,1509044729687931124,base_link,velodyne,1.9,0.0,1.6,0.0,0.0,0.0,1.0
1509044729678236206,0,1509044729688155627,/world,/map,0.0,0.0,0.0,0.0,0.0,0.0,1.0
1509044729680804768,0,1509044729690718947,velodyne,camera,0.710706008953,-0.0233497393934,-0.318154357045,-0.466762758929,0.456634726636,-0.532385867558,0.538685939423
1509044729688101015,0,1509044729698002692,base_link,velodyne,1.9,0.0,1.6,0.0,0.0,0.0,1.0
1509044729688344030,0,1509044729698223081,/world,/map,0.0,0.0,0.0,0.0,0.0,0.0,1.0
1509044729690927769,0,1509044729700791016,velodyne,camera,0.710706008953,-0.0233497393934,-0.318154357045,-0.466762758929,0.456634726636,-0.532385867558,0.538685939423
1509044729698392096,0,1509044729708072649,base_link,velodyne,1.9,0.0,1.6,0.0,0.0,0.0,1.0
1509044729698561571,0,1509044729708445782,/world,/map,0.0,0.0,0.0,0.0,0.0,0.0,1.0
1509044729700984522,0,1509044729710862168,velodyne,camera,0.710706008953,-0.0233497393934,-0.318154357045,-0.466762758929,0.456634726636,-0.532385867558,0.538685939423
1509044729708311456,0,1509044729718142483,base_link,velodyne,1.9,0.0,1.6,0.0,0.0,0.0,1.0
1509044729708613504,0,1509044729718512792,/world,/map,0.0,0.0,0.0,0.0,0.0,0.0,1.0
1509044729711043396,0,1509044729720934016,velodyne,camera,0.710706008953,-0.0233497393934,-0.318154357045,-0.466762758929,0.456634726636,-0.532385867558,0.538685939423
1509044729718336173,0,1509044729728214503,base_link,velodyne,1.9,0.0,1.6,0.0,0.0,0.0,1.0
1509044729718659593,0,1509044729728580340,/world,/map,0.0,0.0,0.0,0.0,0.0,0.0,1.0
1509044729721120261,0,1509044729731019656,velodyne,camera,0.710706008953,-0.0233497393934,-0.318154357045,-0.466762758929,0.456634726636,-0.532385867558,0.538685939423
1509044729728434918,0,1509044729738288005,base_link,velodyne,1.9,0.0,1.6,0.0,0.0,0.0,1.0
1509044729728734999,0,1509044729738647507,/world,/map,0.0,0.0,0.0,0.0,0.0,0.0,1.0
1509044729731183275,0,1509044729741090433,velodyne,camera,0.710706008953,-0.0233497393934,-0.318154357045,-0.466762758929,0.456634726636,-0.532385867558,0.538685939423
1509044729738492767,0,1509044729748362002,base_link,velodyne,1.9,0.0,1.6,0.0,0.0,0.0,1.0
1509044729739145609,0,1509044729748816543,/world,/map,0.0,0.0,0.0,0.0,0.0,0.0,1.0
1509044729741273115,0,1509044729751160365,velodyne,camera,0.710706008953,-0.0233497393934,-0.318154357045,-0.466762758929,0.456634726636,-0.532385867558,0.538685939423
1509044729749108903,0,1509044729758739080,base_link,velodyne,1.9,0.0,1.6,0.0,0.0,0.0,1.0
1509044729753863158,0,1509044729763743056,/world,/map,0.0,0.0,0.0,0.0,0.0,0.0,1.0
1509044729753926114,0,1509044729763839121,velodyne,camera,0.710706008953,-0.0233497393934,-0.318154357045,-0.466762758929,0.456634726636,-0.532385867558,0.538685939423
1509044729755405442,0,1509044729743472000,/map,/base_link,-5.07499265671,15.0006361008,-0.0895023345947,-0.0390619346676,0.0555320857294,0.0437021139941,0.996734908562
1509044729758951644,0,1509044729768809822,base_link,velodyne,1.9,0.0,1.6,0.0,0.0,0.0,1.0
1509044729764198400,0,1509044729773867629,/world,/map,0.0,0.0,0.0,0.0,0.0,0.0,1.0
1509044729764240655,0,1509044729773925984,velodyne,camera,0.710706008953,-0.0233497393934,-0.318154357045,-0.466762758929,0.456634726636,-0.532385867558,0.538685939423
1509044729770830230,0,1509044729778880665,base_link,velodyne,1.9,0.0,1.6,0.0,0.0,0.0,1.0
1509044729774284034,0,1509044729783998776,velodyne,camera,0.710706008953,-0.0233497393934,-0.318154357045,-0.466762758929,0.456634726636,-0.532385867558,0.538685939423
1509044729774309673,0,1509044729783937265,/world,/map,0.0,0.0,0.0,0.0,0.0,0.0,1.0
1509044729779420068,0,1509044729789131947,base_link,velodyne,1.9,0.0,1.6,0.0,0.0,0.0,1.0
1509044729784234076,0,1509044729794066809,velodyne,camera,0.710706008953,-0.0233497393934,-0.318154357045,-0.466762758929,0.456634726636,-0.532385867558,0.538685939423
1509044729784240970,0,1509044729794007826,/world,/map,0.0,0.0,0.0,0.0,0.0,0.0,1.0
1509044729789792448,0,1509044729799202192,base_link,velodyne,1.9,0.0,1.6,0.0,0.0,0.0,1.0
1509044729794364633,0,1509044729804075232,/world,/map,0.0,0.0,0.0,0.0,0.0,0.0,1.0
1509044729794373349,0,1509044729804246180,velodyne,camera,0.710706008953,-0.0233497393934,-0.318154357045,-0.466762758929,0.456634726636,-0.532385867558,0.538685939423
1509044729799378941,0,1509044729809272716,base_link,velodyne,1.9,0.0,1.6,0.0,0.0,0.0,1.0
1509044729804263493,0,1509044729814146134,/world,/map,0.0,0.0,0.0,0.0,0.0,0.0,1.0
1509044729804408415,0,1509044729814315883,velodyne,camera,0.710706008953,-0.0233497393934,-0.318154357045,-0.466762758929,0.456634726636,-0.532385867558,0.538685939423
1509044729810472915,0,1509044729819718925,base_link,velodyne,1.9,0.0,1.6,0.0,0.0,0.0,1.0
1509044729814581690,0,1509044729824384757,velodyne,camera,0.710706008953,-0.0233497393934,-0.318154357045,-0.466762758929,0.456634726636,-0.532385867558,0.538685939423
1509044729814589229,0,1509044729824218111,/world,/map,0.0,0.0,0.0,0.0,0.0,0.0,1.0
1509044729819964097,0,1509044729829808279,base_link,velodyne,1.9,0.0,1.6,0.0,0.0,0.0,1.0
1509044729824465022,0,1509044729834291721,/world,/map,0.0,0.0,0.0,0.0,0.0,0.0,1.0
1509044729824580421,0,1509044729834454744,velodyne,camera,0.710706008953,-0.0233497393934,-0.318154357045,-0.466762758929,0.456634726636,-0.532385867558,0.538685939423
1509044729830085316,0,1509044729839880887,base_link,velodyne,1.9,0.0,1.6,0.0,0.0,0.0,1.0
1509044729834669418,0,1509044729844529424,velodyne,camera,0.710706008953,-0.0233497393934,-0.318154357045,-0.466762758929,0.456634726636,-0.532385867558,0.538685939423
1509044729834688931,0,1509044729844364509,/world,/map,0.0,0.0,0.0,0.0,0.0,0.0,1.0
1509044729840125798,0,1509044729849958894,base_link,velodyne,1.9,0.0,1.6,0.0,0.0,0.0,1.0
1509044729844670171,0,1509044729854516715,/world,/map,0.0,0.0,0.0,0.0,0.0,0.0,1.0
1509044729844844965,0,1509044729854755223,velodyne,camera,0.710706008953,-0.0233497393934,-0.318154357045,-0.466762758929,0.456634726636,-0.532385867558,0.538685939423
1509044729850177813,0,1509044729860034125,base_link,velodyne,1.9,0.0,1.6,0.0,0.0,0.0,1.0
1509044729859181806,0,1509044729865355938,/world,/map,0.0,0.0,0.0,0.0,0.0,0.0,1.0
1509044729860244525,0,1509044729870154082,base_link,velodyne,1.9,0.0,1.6,0.0,0.0,0.0,1.0
1509044729861946002,0,1509044729865418485,velodyne,camera,0.710706008953,-0.0233497393934,-0.318154357045,-0.466762758929,0.456634726636,-0.532385867558,0.538685939423
1509044729861981818,0,1509044729848319000,/map,/base_link,-5.08168983459,14.995388031,-0.0919251441956,-0.0391718960694,0.0555495803785,0.0434201693654,0.996741940309
1509044729865563962,0,1509044729875430899,/world,/map,0.0,0.0,0.0,0.0,0.0,0.0,1.0
1509044729865668428,0,1509044729875501830,velodyne,camera,0.710706008953,-0.0233497393934,-0.318154357045,-0.466762758929,0.456634726636,-0.532385867558,0.538685939423
1509044729870407727,0,1509044729880226856,base_link,velodyne,1.9,0.0,1.6,0.0,0.0,0.0,1.0
1509044729875990312,0,1509044729885603211,velodyne,camera,0.710706008953,-0.0233497393934,-0.318154357045,-0.466762758929,0.456634726636,-0.532385867558,0.538685939423
1509044729875994737,0,1509044729885525805,/world,/map,0.0,0.0,0.0,0.0,0.0,0.0,1.0
1509044729881877629,0,1509044729890299259,base_link,velodyne,1.9,0.0,1.6,0.0,0.0,0.0,1.0
1509044729885842372,0,1509044729895603252,/world,/map,0.0,0.0,0.0,0.0,0.0,0.0,1.0
1509044729885851311,0,1509044729895675085,velodyne,camera,0.710706008953,-0.0233497393934,-0.318154357045,-0.466762758929,0.456634726636,-0.532385867558,0.538685939423
1509044729890839032,0,1509044729900542553,base_link,velodyne,1.9,0.0,1.6,0.0,0.0,0.0,1.0
1509044729895841483,0,1509044729905679538,/world,/map,0.0,0.0,0.0,0.0,0.0,0.0,1.0
1509044729895887105,0,1509044729905748157,velodyne,camera,0.710706008953,-0.0233497393934,-0.318154357045,-0.466762758929,0.456634726636,-0.532385867558,0.538685939423
1509044729902381647,0,1509044729910617301,base_link,velodyne,1.9,0.0,1.6,0.0,0.0,0.0,1.0
1509044729905970762,0,1509044729915819938,velodyne,camera,0.710706008953,-0.0233497393934,-0.318154357045,-0.466762758929,0.456634726636,-0.532385867558,0.538685939423
1509044729906062714,0,1509044729915745950,/world,/map,0.0,0.0,0.0,0.0,0.0,0.0,1.0
1509044729910916232,0,1509044729920676184,base_link,velodyne,1.9,0.0,1.6,0.0,0.0,0.0,1.0
1509044729916136493,0,1509044729925892403,velodyne,camera,0.710706008953,-0.0233497393934,-0.318154357045,-0.466762758929,0.456634726636,-0.532385867558,0.538685939423
1509044729916141023,0,1509044729925825883,/world,/map,0.0,0.0,0.0,0.0,0.0,0.0,1.0
1509044729920879314,0,1509044729930752741,base_link,velodyne,1.9,0.0,1.6,0.0,0.0,0.0,1.0
1509044729926120017,0,1509044729935877597,/world,/map,0.0,0.0,0.0,0.0,0.0,0.0,1.0
1509044729926195252,0,1509044729935964120,velodyne,camera,0.710706008953,-0.0233497393934,-0.318154357045,-0.466762758929,0.456634726636,-0.532385867558,0.538685939423
1509044729934210907,0,1509044729940832504,base_link,velodyne,1.9,0.0,1.6,0.0,0.0,0.0,1.0
1509044729936342242,0,1509044729946038928,velodyne,camera,0.710706008953,-0.0233497393934,-0.318154357045,-0.466762758929,0.456634726636,-0.532385867558,0.538685939423
1509044729936369209,0,1509044729945956387,/world,/map,0.0,0.0,0.0,0.0,0.0,0.0,1.0
1509044729941797128,0,1509044729950914070,base_link,velodyne,1.9,0.0,1.6,0.0,0.0,0.0,1.0
1509044729946180825,0,1509044729956030433,/world,/map,0.0,0.0,0.0,0.0,0.0,0.0,1.0
1509044729946256686,0,1509044729956111448,velodyne,camera,0.710706008953,-0.0233497393934,-0.318154357045,-0.466762758929,0.456634726636,-0.532385867558,0.538685939423
1509044729951098906,0,1509044729960986279,base_link,velodyne,1.9,0.0,1.6,0.0,0.0,0.0,1.0
1509044729956267732,0,1509044729966159213,/world,/map,0.0,0.0,0.0,0.0,0.0,0.0,1.0
1509044729956573496,0,1509044729966183437,velodyne,camera,0.710706008953,-0.0233497393934,-0.318154357045,-0.466762758929,0.456634726636,-0.532385867558,0.538685939423
1509044729961182123,0,1509044729971062179,base_link,velodyne,1.9,0.0,1.6,0.0,0.0,0.0,1.0
1509044729966490837,0,1509044729976255604,velodyne,camera,0.710706008953,-0.0233497393934,-0.318154357045,-0.466762758929,0.456634726636,-0.532385867558,0.538685939423
1509044729966497152,0,1509044729976235199,/world,/map,0.0,0.0,0.0,0.0,0.0,0.0,1.0
1509044729970525012,0,1509044729953159000,/map,/base_link,-5.08547687531,15.0043334961,-0.0839691162109,-0.038706166218,0.0556661090764,0.0434406099388,0.996752742863
1509044729971260773,0,1509044729981139494,base_link,velodyne,1.9,0.0,1.6,0.0,0.0,0.0,1.0
1509044729976426623,0,1509044729986308519,/world,/map,0.0,0.0,0.0,0.0,0.0,0.0,1.0
1509044729976498966,0,1509044729986329558,velodyne,camera,0.710706008953,-0.0233497393934,-0.318154357045,-0.466762758929,0.456634726636,-0.532385867558,0.538685939423
1509044729981374151,0,1509044729991212299,base_link,velodyne,1.9,0.0,1.6,0.0,0.0,0.0,1.0
1509044729986539639,0,1509044729996401736,velodyne,camera,0.710706008953,-0.0233497393934,-0.318154357045,-0.466762758929,0.456634726636,-0.532385867558,0.538685939423
1509044729986800950,0,1509044729996694968,/world,/map,0.0,0.0,0.0,0.0,0.0,0.0,1.0
1509044729991454907,0,1509044730001286971,base_link,velodyne,1.9,0.0,1.6,0.0,0.0,0.0,1.0
1509044729996602655,0,1509044730006476590,velodyne,camera,0.710706008953,-0.0233497393934,-0.318154357045,-0.466762758929,0.456634726636,-0.532385867558,0.538685939423
1509044729996862188,0,1509044730006767529,/world,/map,0.0,0.0,0.0,0.0,0.0,0.0,1.0
1509044730001552586,0,1509044730011361541,base_link,velodyne,1.9,0.0,1.6,0.0,0.0,0.0,1.0
1509044730006693611,0,1509044730016605024,velodyne,camera,0.710706008953,-0.0233497393934,-0.318154357045,-0.466762758929,0.456634726636,-0.532385867558,0.538685939423
1509044730006941600,0,1509044730016836134,/world,/map,0.0,0.0,0.0,0.0,0.0,0.0,1.0
1509044730012141956,0,1509044730021437168,base_link,velodyne,1.9,0.0,1.6,0.0,0.0,0.0,1.0
1509044730016772166,0,1509044730026679203,velodyne,camera,0.710706008953,-0.0233497393934,-0.318154357045,-0.466762758929,0.456634726636,-0.532385867558,0.538685939423
1509044730016989466,0,1509044730026906308,/world,/map,0.0,0.0,0.0,0.0,0.0,0.0,1.0
1509044730021656202,0,1509044730031512709,base_link,velodyne,1.9,0.0,1.6,0.0,0.0,0.0,1.0
1509044730026873924,0,1509044730036751872,velodyne,camera,0.710706008953,-0.0233497393934,-0.318154357045,-0.466762758929,0.456634726636,-0.532385867558,0.538685939423
1509044730027061833,0,1509044730036975381,/world,/map,0.0,0.0,0.0,0.0,0.0,0.0,1.0
1509044730031705816,0,1509044730041586754,base_link,velodyne,1.9,0.0,1.6,0.0,0.0,0.0,1.0
1509044730036916377,0,1509044730046825845,velodyne,camera,0.710706008953,-0.0233497393934,-0.318154357045,-0.466762758929,0.456634726636,-0.532385867558,0.538685939423
1509044730037128845,0,1509044730047044135,/world,/map,0.0,0.0,0.0,0.0,0.0,0.0,1.0
1509044730041992301,0,1509044730051658981,base_link,velodyne,1.9,0.0,1.6,0.0,0.0,0.0,1.0
1509044730047023427,0,1509044730056898558,velodyne,camera,0.710706008953,-0.0233497393934,-0.318154357045,-0.466762758929,0.456634726636,-0.532385867558,0.538685939423
1509044730047386489,0,1509044730057113413,/world,/map,0.0,0.0,0.0,0.0,0.0,0.0,1.0
1509044730051826264,0,1509044730061732326,base_link,velodyne,1.9,0.0,1.6,0.0,0.0,0.0,1.0
1509044730057130839,0,1509044730066970652,velodyne,camera,0.710706008953,-0.0233497393934,-0.318154357045,-0.466762758929,0.456634726636,-0.532385867558,0.538685939423
1509044730057291458,0,1509044730067180222,/world,/map,0.0,0.0,0.0,0.0,0.0,0.0,1.0
1509044730067374819,0,1509044730077041708,velodyne,camera,0.710706008953,-0.0233497393934,-0.318154357045,-0.466762758929,0.456634726636,-0.532385867558,0.538685939423
1509044730067388576,0,1509044730071803532,base_link,velodyne,1.9,0.0,1.6,0.0,0.0,0.0,1.0
1509044730067617458,0,1509044730077352999,/world,/map,0.0,0.0,0.0,0.0,0.0,0.0,1.0
1509044730070397692,0,1509044730057999000,/map,/base_link,-5.0808596611,15.0132465363,-0.0830813646317,-0.0385237780373,0.0560625544159,0.0436547302572,0.996728234297
1509044730071957407,0,1509044730081875237,base_link,velodyne,1.9,0.0,1.6,0.0,0.0,0.0,1.0
1509044730078703559,0,1509044730087115986,velodyne,camera,0.710706008953,-0.0233497393934,-0.318154357045,-0.466762758929,0.456634726636,-0.532385867558,0.538685939423
1509044730078718208,0,1509044730088338634,/world,/map,0.0,0.0,0.0,0.0,0.0,0.0,1.0
1509044730082321764,0,1509044730091944323,base_link,velodyne,1.9,0.0,1.6,0.0,0.0,0.0,1.0
1509044730087304810,0,1509044730097187913,velodyne,camera,0.710706008953,-0.0233497393934,-0.318154357045,-0.466762758929,0.456634726636,-0.532385867558,0.538685939423
1509044730088503797,0,1509044730098407413,/world,/map,0.0,0.0,0.0,0.0,0.0,0.0,1.0
1509044730092097726,0,1509044730102014297,base_link,velodyne,1.9,0.0,1.6,0.0,0.0,0.0,1.0
1509044730097346076,0,1509044730107258037,velodyne,camera,0.710706008953,-0.0233497393934,-0.318154357045,-0.466762758929,0.456634726636,-0.532385867558,0.538685939423
1509044730098758527,0,1509044730108475212,/world,/map,0.0,0.0,0.0,0.0,0.0,0.0,1.0
1509044730102215444,0,1509044730112082842,base_link,velodyne,1.9,0.0,1.6,0.0,0.0,0.0,1.0
1509044730107483108,0,1509044730117329608,velodyne,camera,0.710706008953,-0.0233497393934,-0.318154357045,-0.466762758929,0.456634726636,-0.532385867558,0.538685939423
1509044730108984794,0,1509044730118544929,/world,/map,0.0,0.0,0.0,0.0,0.0,0.0,1.0
1509044730112247487,0,1509044730122154227,base_link,velodyne,1.9,0.0,1.6,0.0,0.0,0.0,1.0
1509044730117503457,0,1509044730127404391,velodyne,camera,0.710706008953,-0.0233497393934,-0.318154357045,-0.466762758929,0.456634726636,-0.532385867558,0.538685939423
1509044730118715344,0,1509044730128613145,/world,/map,0.0,0.0,0.0,0.0,0.0,0.0,1.0
1509044730122346665,0,1509044730132223628,base_link,velodyne,1.9,0.0,1.6,0.0,0.0,0.0,1.0
1509044730127571766,0,1509044730137474622,velodyne,camera,0.710706008953,-0.0233497393934,-0.318154357045,-0.466762758929,0.456634726636,-0.532385867558,0.538685939423
1509044730128759014,0,1509044730138680220,/world,/map,0.0,0.0,0.0,0.0,0.0,0.0,1.0
1509044730132847657,0,1509044730142294892,base_link,velodyne,1.9,0.0,1.6,0.0,0.0,0.0,1.0
1509044730137664024,0,1509044730147544950,velodyne,camera,0.710706008953,-0.0233497393934,-0.318154357045,-0.466762758929,0.456634726636,-0.532385867558,0.538685939423
1509044730138846887,0,1509044730148746302,/world,/map,0.0,0.0,0.0,0.0,0.0,0.0,1.0
1509044730142479517,0,1509044730152366410,base_link,velodyne,1.9,0.0,1.6,0.0,0.0,0.0,1.0
1509044730148012880,0,1509044730157613697,velodyne,camera,0.710706008953,-0.0233497393934,-0.318154357045,-0.466762758929,0.456634726636,-0.532385867558,0.538685939423
1509044730148930534,0,1509044730158812744,/world,/map,0.0,0.0,0.0,0.0,0.0,0.0,1.0
1509044730152537922,0,1509044730162438268,base_link,velodyne,1.9,0.0,1.6,0.0,0.0,0.0,1.0
1509044730157788739,0,1509044730167682649,velodyne,camera,0.710706008953,-0.0233497393934,-0.318154357045,-0.466762758929,0.456634726636,-0.532385867558,0.538685939423
1509044730158961270,0,1509044730168878029,/world,/map,0.0,0.0,0.0,0.0,0.0,0.0,1.0
1509044730162643939,0,1509044730172509315,base_link,velodyne,1.9,0.0,1.6,0.0,0.0,0.0,1.0
1509044730169217155,0,1509044730178945046,/world,/map,0.0,0.0,0.0,0.0,0.0,0.0,1.0
1509044730170524802,0,1509044730179797678,velodyne,camera,0.710706008953,-0.0233497393934,-0.318154357045,-0.466762758929,0.456634726636,-0.532385867558,0.538685939423
1509044730172681884,0,1509044730182581186,base_link,velodyne,1.9,0.0,1.6,0.0,0.0,0.0,1.0
1509044730173849289,0,1509044730162840000,/map,/base_link,-5.07934951782,15.0031642914,-0.0738496780396,-0.0384625385021,0.055856786098,0.0433200797948,0.996756752305
1509044730179163296,0,1509044730189014314,/world,/map,0.0,0.0,0.0,0.0,0.0,0.0,1.0
1509044730179947977,0,1509044730189865144,velodyne,camera,0.710706008953,-0.0233497393934,-0.318154357045,-0.466762758929,0.456634726636,-0.532385867558,0.538685939423
1509044730182745388,0,1509044730192649702,base_link,velodyne,1.9,0.0,1.6,0.0,0.0,0.0,1.0
1509044730189218005,0,1509044730199084326,/world,/map,0.0,0.0,0.0,0.0,0.0,0.0,1.0
1509044730190002418,0,1509044730199930168,velodyne,camera,0.710706008953,-0.0233497393934,-0.318154357045,-0.466762758929,0.456634726636,-0.532385867558,0.538685939423
1509044730192814220,0,1509044730202719441,base_link,velodyne,1.9,0.0,1.6,0.0,0.0,0.0,1.0
1509044730199283198,0,1509044730209154544,/world,/map,0.0,0.0,0.0,0.0,0.0,0.0,1.0
1509044730200064882,0,1509044730209995777,velodyne,camera,0.710706008953,-0.0233497393934,-0.318154357045,-0.466762758929,0.456634726636,-0.532385867558,0.538685939423
1509044730202979100,0,1509044730212786214,base_link,velodyne,1.9,0.0,1.6,0.0,0.0,0.0,1.0
1509044730209452395,0,1509044730219224926,/world,/map,0.0,0.0,0.0,0.0,0.0,0.0,1.0
1509044730210197857,0,1509044730220063139,velodyne,camera,0.710706008953,-0.0233497393934,-0.318154357045,-0.466762758929,0.456634726636,-0.532385867558,0.538685939423
1509044730213000624,0,1509044730222856064,base_link,velodyne,1.9,0.0,1.6,0.0,0.0,0.0,1.0
1509044730219501630,0,1509044730229298525,/world,/map,0.0,0.0,0.0,0.0,0.0,0.0,1.0
1509044730220335854,0,1509044730230132943,velodyne,camera,0.710706008953,-0.0233497393934,-0.318154357045,-0.466762758929,0.456634726636,-0.532385867558,0.538685939423
1509044730223141144,0,1509044730232926326,base_link,velodyne,1.9,0.0,1.6,0.0,0.0,0.0,1.0
1509044730229520507,0,1509044730239371442,/world,/map,0.0,0.0,0.0,0.0,0.0,0.0,1.0
1509044730230383455,0,1509044730240202338,velodyne,camera,0.710706008953,-0.0233497393934,-0.318154357045,-0.466762758929,0.456634726636,-0.532385867558,0.538685939423
1509044730233415989,0,1509044730243245273,base_link,velodyne,1.9,0.0,1.6,0.0,0.0,0.0,1.0
1509044730239585610,0,1509044730249441781,/world,/map,0.0,0.0,0.0,0.0,0.0,0.0,1.0
1509044730240344579,0,1509044730250272192,velodyne,camera,0.710706008953,-0.0233497393934,-0.318154357045,-0.466762758929,0.456634726636,-0.532385867558,0.538685939423
1509044730243420748,0,1509044730253313997,base_link,velodyne,1.9,0.0,1.6,0.0,0.0,0.0,1.0
1509044730249667396,0,1509044730259531722,/world,/map,0.0,0.0,0.0,0.0,0.0,0.0,1.0
1509044730250438885,0,1509044730260338463,velodyne,camera,0.710706008953,-0.0233497393934,-0.318154357045,-0.466762758929,0.456634726636,-0.532385867558,0.538685939423
1509044730253490974,0,1509044730263408338,base_link,velodyne,1.9,0.0,1.6,0.0,0.0,0.0,1.0
1509044730259696950,0,1509044730269598206,/world,/map,0.0,0.0,0.0,0.0,0.0,0.0,1.0
1509044730260481966,0,1509044730270404746,velodyne,camera,0.710706008953,-0.0233497393934,-0.318154357045,-0.466762758929,0.456634726636,-0.532385867558,0.538685939423
1509044730263581736,0,1509044730273501416,base_link,velodyne,1.9,0.0,1.6,0.0,0.0,0.0,1.0
1509044730269792322,0,1509044730279666734,/world,/map,0.0,0.0,0.0,0.0,0.0,0.0,1.0
1509044730270559057,0,1509044730280472664,velodyne,camera,0.710706008953,-0.0233497393934,-0.318154357045,-0.466762758929,0.456634726636,-0.532385867558,0.538685939423
1509044730273664146,0,1509044730283570054,base_link,velodyne,1.9,0.0,1.6,0.0,0.0,0.0,1.0
1509044730276182467,0,1509044730267688000,/map,/base_link,-5.08634376526,15.0085439682,-0.085436463356,-0.0390984071731,0.0559975091168,0.0433820359361,0.996721421706
1509044730279818352,0,1509044730289734994,/world,/map,0.0,0.0,0.0,0.0,0.0,0.0,1.0
1509044730280596256,0,1509044730290540172,velodyne,camera,0.710706008953,-0.0233497393934,-0.318154357045,-0.466762758929,0.456634726636,-0.532385867558,0.538685939423
1509044730283714283,0,1509044730293607312,base_link,velodyne,1.9,0.0,1.6,0.0,0.0,0.0,1.0
1509044730289938357,0,1509044730299801419,/world,/map,0.0,0.0,0.0,0.0,0.0,0.0,1.0
1509044730290708346,0,1509044730300605181,velodyne,camera,0.710706008953,-0.0233497393934,-0.318154357045,-0.466762758929,0.456634726636,-0.532385867558,0.538685939423
1509044730293753622,0,1509044730303673268,base_link,velodyne,1.9,0.0,1.6,0.0,0.0,0.0,1.0
1509044730300012371,0,1509044730309871187,/world,/map,0.0,0.0,0.0,0.0,0.0,0.0,1.0
1509044730300731285,0,1509044730310670780,velodyne,camera,0.710706008953,-0.0233497393934,-0.318154357045,-0.466762758929,0.456634726636,-0.532385867558,0.538685939423
1509044730303849241,0,1509044730313765213,base_link,velodyne,1.9,0.0,1.6,0.0,0.0,0.0,1.0
1509044730310107140,0,1509044730319941290,/world,/map,0.0,0.0,0.0,0.0,0.0,0.0,1.0
1509044730310854032,0,1509044730320735971,velodyne,camera,0.710706008953,-0.0233497393934,-0.318154357045,-0.466762758929,0.456634726636,-0.532385867558,0.538685939423
1509044730313960955,0,1509044730323829439,base_link,velodyne,1.9,0.0,1.6,0.0,0.0,0.0,1.0
1509044730320097729,0,1509044730330009026,/world,/map,0.0,0.0,0.0,0.0,0.0,0.0,1.0
1509044730320937470,0,1509044730330828651,velodyne,camera,0.710706008953,-0.0233497393934,-0.318154357045,-0.466762758929,0.456634726636,-0.532385867558,0.538685939423
1509044730324030929,0,1509044730333892897,base_link,velodyne,1.9,0.0,1.6,0.0,0.0,0.0,1.0
1509044730330168422,0,1509044730340076445,/world,/map,0.0,0.0,0.0,0.0,0.0,0.0,1.0
1509044730330965494,0,1509044730340895965,velodyne,camera,0.710706008953,-0.0233497393934,-0.318154357045,-0.466762758929,0.456634726636,-0.532385867558,0.538685939423
1509044730334047172,0,1509044730343956298,base_link,velodyne,1.9,0.0,1.6,0.0,0.0,0.0,1.0
1509044730340203387,0,1509044730350142035,/world,/map,0.0,0.0,0.0,0.0,0.0,0.0,1.0
1509044730341185994,0,1509044730350964189,velodyne,camera,0.710706008953,-0.0233497393934,-0.318154357045,-0.466762758929,0.456634726636,-0.532385867558,0.538685939423
1509044730344089931,0,1509044730354020873,base_link,velodyne,1.9,0.0,1.6,0.0,0.0,0.0,1.0
1509044730350323671,0,1509044730360233513,/world,/map,0.0,0.0,0.0,0.0,0.0,0.0,1.0
1509044730351175155,0,1509044730361052792,velodyne,camera,0.710706008953,-0.0233497393934,-0.318154357045,-0.466762758929,0.456634726636,-0.532385867558,0.538685939423
1509044730354219397,0,1509044730364109940,base_link,velodyne,1.9,0.0,1.6,0.0,0.0,0.0,1.0
1509044730360440628,0,1509044730370300642,/world,/map,0.0,0.0,0.0,0.0,0.0,0.0,1.0
1509044730361237510,0,1509044730371142448,velodyne,camera,0.710706008953,-0.0233497393934,-0.318154357045,-0.466762758929,0.456634726636,-0.532385867558,0.538685939423
1509044730364281974,0,1509044730374176854,base_link,velodyne,1.9,0.0,1.6,0.0,0.0,0.0,1.0
1509044730370571466,0,1509044730380368121,/world,/map,0.0,0.0,0.0,0.0,0.0,0.0,1.0
1509044730371370657,0,1509044730381237954,velodyne,camera,0.710706008953,-0.0233497393934,-0.318154357045,-0.466762758929,0.456634726636,-0.532385867558,0.538685939423
1509044730374375467,0,1509044730384269092,base_link,velodyne,1.9,0.0,1.6,0.0,0.0,0.0,1.0
1509044730380527325,0,1509044730390438591,/world,/map,0.0,0.0,0.0,0.0,0.0,0.0,1.0
1509044730381415405,0,1509044730391303728,velodyne,camera,0.710706008953,-0.0233497393934,-0.318154357045,-0.466762758929,0.456634726636,-0.532385867558,0.538685939423
1509044730382087417,0,1509044730372557000,/map,/base_link,-5.09969711304,14.9988460541,-0.0810458660126,-0.0388462427067,0.0559626575417,0.04344739002,0.996730392177
1509044730384412952,0,1509044730394336865,base_link,velodyne,1.9,0.0,1.6,0.0,0.0,0.0,1.0
1509044730390613469,0,1509044730400507918,/world,/map,0.0,0.0,0.0,0.0,0.0,0.0,1.0
1509044730391506390,0,1509044730401361267,velodyne,camera,0.710706008953,-0.0233497393934,-0.318154357045,-0.466762758929,0.456634726636,-0.532385867558,0.538685939423
1509044730394527954,0,1509044730404430234,base_link,velodyne,1.9,0.0,1.6,0.0,0.0,0.0,1.0
1509044730400685105,0,1509044730410580175,/world,/map,0.0,0.0,0.0,0.0,0.0,0.0,1.0
1509044730401531446,0,1509044730411426762,velodyne,camera,0.710706008953,-0.0233497393934,-0.318154357045,-0.466762758929,0.456634726636,-0.532385867558,0.538685939423
1509044730404633741,0,1509044730414519675,base_link,velodyne,1.9,0.0,1.6,0.0,0.0,0.0,1.0
1509044730410821621,0,1509044730420672023,/world,/map,0.0,0.0,0.0,0.0,0.0,0.0,1.0
1509044730411604858,0,1509044730421514682,velodyne,camera,0.710706008953,-0.0233497393934,-0.318154357045,-0.466762758929,0.456634726636,-0.532385867558,0.538685939423
1509044730414698892,0,1509044730424587572,base_link,velodyne,1.9,0.0,1.6,0.0,0.0,0.0,1.0
1509044730420819698,0,1509044730430739050,/world,/map,0.0,0.0,0.0,0.0,0.0,0.0,1.0
1509044730421758601,0,1509044730431583247,velodyne,camera,0.710706008953,-0.0233497393934,-0.318154357045,-0.466762758929,0.456634726636,-0.532385867558,0.538685939423
1509044730424741201,0,1509044730434664385,base_link,velodyne,1.9,0.0,1.6,0.0,0.0,0.0,1.0
1509044730430897186,0,1509044730440806686,/world,/map,0.0,0.0,0.0,0.0,0.0,0.0,1.0
1509044730431769634,0,1509044730441650895,velodyne,camera,0.710706008953,-0.0233497393934,-0.318154357045,-0.466762758929,0.456634726636,-0.532385867558,0.538685939423
1509044730434836908,0,1509044730444733398,base_link,velodyne,1.9,0.0,1.6,0.0,0.0,0.0,1.0
1509044730441122379,0,1509044730451037555,/world,/map,0.0,0.0,0.0,0.0,0.0,0.0,1.0
1509044730441824613,0,1509044730451718014,velodyne,camera,0.710706008953,-0.0233497393934,-0.318154357045,-0.466762758929,0.456634726636,-0.532385867558,0.538685939423
1509044730444885276,0,1509044730454804110,base_link,velodyne,1.9,0.0,1.6,0.0,0.0,0.0,1.0
1509044730451233393,0,1509044730461109186,/world,/map,0.0,0.0,0.0,0.0,0.0,0.0,1.0
1509044730451928454,0,1509044730461802834,velodyne,camera,0.710706008953,-0.0233497393934,-0.318154357045,-0.466762758929,0.456634726636,-0.532385867558,0.538685939423
1509044730455021788,0,1509044730464876326,base_link,velodyne,1.9,0.0,1.6,0.0,0.0,0.0,1.0
1509044730461283082,0,1509044730471209919,/world,/map,0.0,0.0,0.0,0.0,0.0,0.0,1.0
1509044730461960508,0,1509044730471869061,velodyne,camera,0.710706008953,-0.0233497393934,-0.318154357045,-0.466762758929,0.456634726636,-0.532385867558,0.538685939423
1509044730465111730,0,1509044730474946762,base_link,velodyne,1.9,0.0,1.6,0.0,0.0,0.0,1.0
1509044730471362178,0,1509044730481278791,/world,/map,0.0,0.0,0.0,0.0,0.0,0.0,1.0
1509044730472109933,0,1509044730481923511,velodyne,camera,0.710706008953,-0.0233497393934,-0.318154357045,-0.466762758929,0.456634726636,-0.532385867558,0.538685939423
1509044730475132288,0,1509044730485019286,base_link,velodyne,1.9,0.0,1.6,0.0,0.0,0.0,1.0
1509044730481455667,0,1509044730491348806,/world,/map,0.0,0.0,0.0,0.0,0.0,0.0,1.0
1509044730482110684,0,1509044730492031458,velodyne,camera,0.710706008953,-0.0233497393934,-0.318154357045,-0.466762758929,0.456634726636,-0.532385867558,0.538685939423
1509044730485207651,0,1509044730495088540,base_link,velodyne,1.9,0.0,1.6,0.0,0.0,0.0,1.0
1509044730489069923,0,1509044730477382000,/map,/base_link,-5.07497024536,15.0086374283,-0.0936431884766,-0.0389700939385,0.0556087315159,0.043536250124,0.996741488894
1509044730491541531,0,1509044730501420946,/world,/map,0.0,0.0,0.0,0.0,0.0,0.0,1.0
1509044730492181017,0,1509044730502101059,velodyne,camera,0.710706008953,-0.0233497393934,-0.318154357045,-0.466762758929,0.456634726636,-0.532385867558,0.538685939423
1509044730495238025,0,1509044730505157824,base_link,velodyne,1.9,0.0,1.6,0.0,0.0,0.0,1.0
1509044730501565233,0,1509044730511490238,/world,/map,0.0,0.0,0.0,0.0,0.0,0.0,1.0
1509044730502233931,0,1509044730512167603,velodyne,camera,0.710706008953,-0.0233497393934,-0.318154357045,-0.466762758929,0.456634726636,-0.532385867558,0.538685939423
1509044730505310484,0,1509044730515222626,base_link,velodyne,1.9,0.0,1.6,0.0,0.0,0.0,1.0
1509044730511653564,0,1509044730521579692,/world,/map,0.0,0.0,0.0,0.0,0.0,0.0,1.0
1509044730512350917,0,1509044730522231689,velodyne,camera,0.710706008953,-0.0233497393934,-0.318154357045,-0.466762758929,0.456634726636,-0.532385867558,0.538685939423
1509044730515408919,0,1509044730525285616,base_link,velodyne,1.9,0.0,1.6,0.0,0.0,0.0,1.0
1509044730521798727,0,1509044730531645707,/world,/map,0.0,0.0,0.0,0.0,0.0,0.0,1.0
1509044730522444445,0,1509044730532317484,velodyne,camera,0.710706008953,-0.0233497393934,-0.318154357045,-0.466762758929,0.456634726636,-0.532385867558,0.538685939423
1509044730525516253,0,1509044730535378855,base_link,velodyne,1.9,0.0,1.6,0.0,0.0,0.0,1.0
1509044730531856114,0,1509044730541736763,/world,/map,0.0,0.0,0.0,0.0,0.0,0.0,1.0
1509044730532509206,0,1509044730542405347,velodyne,camera,0.710706008953,-0.0233497393934,-0.318154357045,-0.466762758929,0.456634726636,-0.532385867558,0.538685939423
1509044730535568084,0,1509044730545477078,base_link,velodyne,1.9,0.0,1.6,0.0,0.0,0.0,1.0
1509044730541934766,0,1509044730551857048,/world,/map,0.0,0.0,0.0,0.0,0.0,0.0,1.0
1509044730543478487,0,1509044730552471459,velodyne,camera,0.710706008953,-0.0233497393934,-0.318154357045,-0.466762758929,0.456634726636,-0.532385867558,0.538685939423
1509044730545628241,0,1509044730555544287,base_link,velodyne,1.9,0.0,1.6,0.0,0.0,0.0,1.0
1509044730552024282,0,1509044730561927665,/world,/map,0.0,0.0,0.0,0.0,0.0,0.0,1.0
1509044730552615272,0,1509044730562536919,velodyne,camera,0.710706008953,-0.0233497393934,-0.318154357045,-0.466762758929,0.456634726636,-0.532385867558,0.538685939423
1509044730555682655,0,1509044730565612295,base_link,velodyne,1.9,0.0,1.6,0.0,0.0,0.0,1.0
1509044730562090545,0,1509044730571995269,/world,/map,0.0,0.0,0.0,0.0,0.0,0.0,1.0
1509044730562680886,0,1509044730572606674,velodyne,camera,0.710706008953,-0.0233497393934,-0.318154357045,-0.466762758929,0.456634726636,-0.532385867558,0.538685939423
1509044730565802873,0,1509044730575679097,base_link,velodyne,1.9,0.0,1.6,0.0,0.0,0.0,1.0
1509044730572394988,0,1509044730582164952,/world,/map,0.0,0.0,0.0,0.0,0.0,0.0,1.0
1509044730572744875,0,1509044730582670793,velodyne,camera,0.710706008953,-0.0233497393934,-0.318154357045,-0.466762758929,0.456634726636,-0.532385867558,0.538685939423
1509044730575832774,0,1509044730585744891,base_link,velodyne,1.9,0.0,1.6,0.0,0.0,0.0,1.0
1509044730582304737,0,1509044730592230144,/world,/map,0.0,0.0,0.0,0.0,0.0,0.0,1.0
1509044730582857451,0,1509044730592733784,velodyne,camera,0.710706008953,-0.0233497393934,-0.318154357045,-0.466762758929,0.456634726636,-0.532385867558,0.538685939423
1509044730585922366,0,1509044730595810379,base_link,velodyne,1.9,0.0,1.6,0.0,0.0,0.0,1.0
1509044730591164099,0,1509044730582203000,/map,/base_link,-5.09694004059,14.9897127151,-0.0860756635666,-0.039179000015,0.0560341085725,0.0432649986557,0.996721287284
1509044730592398806,0,1509044730602297804,/world,/map,0.0,0.0,0.0,0.0,0.0,0.0,1.0
1509044730592971562,0,1509044730602796367,velodyne,camera,0.710706008953,-0.0233497393934,-0.318154357045,-0.466762758929,0.456634726636,-0.532385867558,0.538685939423
1509044730595987466,0,1509044730605876932,base_link,velodyne,1.9,0.0,1.6,0.0,0.0,0.0,1.0
1509044730602453483,0,1509044730612388618,/world,/map,0.0,0.0,0.0,0.0,0.0,0.0,1.0
1509044730602979663,0,1509044730612883857,velodyne,camera,0.710706008953,-0.0233497393934,-0.318154357045,-0.466762758929,0.456634726636,-0.532385867558,0.538685939423
1509044730606063112,0,1509044730615940331,base_link,velodyne,1.9,0.0,1.6,0.0,0.0,0.0,1.0
1509044730612655604,0,1509044730622559265,/world,/map,0.0,0.0,0.0,0.0,0.0,0.0,1.0
1509044730613047675,0,1509044730622948262,velodyne,camera,0.710706008953,-0.0233497393934,-0.318154357045,-0.466762758929,0.456634726636,-0.532385867558,0.538685939423
1509044730616130546,0,1509044730626029870,base_link,velodyne,1.9,0.0,1.6,0.0,0.0,0.0,1.0
1509044730622795355,0,1509044730632669746,/world,/map,0.0,0.0,0.0,0.0,0.0,0.0,1.0
1509044730623152088,0,1509044730633008092,velodyne,camera,0.710706008953,-0.0233497393934,-0.318154357045,-0.466762758929,0.456634726636,-0.532385867558,0.538685939423
1509044730626190527,0,1509044730636089359,base_link,velodyne,1.9,0.0,1.6,0.0,0.0,0.0,1.0
1509044730632802475,0,1509044730642734021,/world,/map,0.0,0.0,0.0,0.0,0.0,0.0,1.0
1509044730633123923,0,1509044730643069397,velodyne,camera,0.710706008953,-0.0233497393934,-0.318154357045,-0.466762758929,0.456634726636,-0.532385867558,0.538685939423
1509044730636286034,0,1509044730646176078,base_link,velodyne,1.9,0.0,1.6,0.0,0.0,0.0,1.0
1509044730642909149,0,1509044730652800917,/world,/map,0.0,0.0,0.0,0.0,0.0,0.0,1.0
1509044730643209577,0,1509044730653132837,velodyne,camera,0.710706008953,-0.0233497393934,-0.318154357045,-0.466762758929,0.456634726636,-0.532385867558,0.538685939423
1509044730646385056,0,1509044730656245596,base_link,velodyne,1.9,0.0,1.6,0.0,0.0,0.0,1.0
1509044730652983264,0,1509044730662869503,/world,/map,0.0,0.0,0.0,0.0,0.0,0.0,1.0
1509044730653297317,0,1509044730663201054,velodyne,camera,0.710706008953,-0.0233497393934,-0.318154357045,-0.466762758929,0.456634726636,-0.532385867558,0.538685939423
1509044730656430580,0,1509044730666318871,base_link,velodyne,1.9,0.0,1.6,0.0,0.0,0.0,1.0
1509044730665344675,0,1509044730673269050,velodyne,camera,0.710706008953,-0.0233497393934,-0.318154357045,-0.466762758929,0.456634726636,-0.532385867558,0.538685939423
1509044730665358577,0,1509044730672939517,/world,/map,0.0,0.0,0.0,0.0,0.0,0.0,1.0
1509044730666539603,0,1509044730676389497,base_link,velodyne,1.9,0.0,1.6,0.0,0.0,0.0,1.0
1509044730673096821,0,1509044730683011284,/world,/map,0.0,0.0,0.0,0.0,0.0,0.0,1.0
1509044730673427272,0,1509044730683336338,velodyne,camera,0.710706008953,-0.0233497393934,-0.318154357045,-0.466762758929,0.456634726636,-0.532385867558,0.538685939423
1509044730676595940,0,1509044730686462628,base_link,velodyne,1.9,0.0,1.6,0.0,0.0,0.0,1.0
1509044730683177132,0,1509044730693080141,/world,/map,0.0,0.0,0.0,0.0,0.0,0.0,1.0
1509044730683537413,0,1509044730693403982,velodyne,camera,0.710706008953,-0.0233497393934,-0.318154357045,-0.466762758929,0.456634726636,-0.532385867558,0.538685939423
1509044730686705413,0,1509044730696532490,base_link,velodyne,1.9,0.0,1.6,0.0,0.0,0.0,1.0
1509044730693305275,0,1509044730703150982,/world,/map,0.0,0.0,0.0,0.0,0.0,0.0,1.0
1509044730693608216,0,1509044730703469535,velodyne,camera,0.710706008953,-0.0233497393934,-0.318154357045,-0.466762758929,0.456634726636,-0.532385867558,0.538685939423
1509044730696689779,0,1509044730706603096,base_link,velodyne,1.9,0.0,1.6,0.0,0.0,0.0,1.0
1509044730698474702,0,1509044730687074000,/map,/base_link,-5.08781671524,15.0116462708,-0.0808818340302,-0.0385953034601,0.0558520192282,0.0433810078298,0.996749237601
1509044730703350957,0,1509044730713219520,/world,/map,0.0,0.0,0.0,0.0,0.0,0.0,1.0
1509044730703674969,0,1509044730713567589,velodyne,camera,0.710706008953,-0.0233497393934,-0.318154357045,-0.466762758929,0.456634726636,-0.532385867558,0.538685939423
1509044730706785015,0,1509044730716669723,base_link,velodyne,1.9,0.0,1.6,0.0,0.0,0.0,1.0
1509044730713369738,0,1509044730723301827,/world,/map,0.0,0.0,0.0,0.0,0.0,0.0,1.0
1509044730713694462,0,1509044730723635288,velodyne,camera,0.710706008953,-0.0233497393934,-0.318154357045,-0.466762758929,0.456634726636,-0.532385867558,0.538685939423
1509044730716822314,0,1509044730726735949,base_link,velodyne,1.9,0.0,1.6,0.0,0.0,0.0,1.0
1509044730723519783,0,1509044730733372584,/world,/map,0.0,0.0,0.0,0.0,0.0,0.0,1.0
1509044730723770910,0,1509044730733702826,velodyne,camera,0.710706008953,-0.0233497393934,-0.318154357045,-0.466762758929,0.456634726636,-0.532385867558,0.538685939423
1509044730726958221,0,1509044730736824781,base_link,velodyne,1.9,0.0,1.6,0.0,0.0,0.0,1.0
1509044730733527881,0,1509044730743443494,/world,/map,0.0,0.0,0.0,0.0,0.0,0.0,1.0
1509044730733903680,0,1509044730743752904,velodyne,camera,0.710706008953,-0.0233497393934,-0.318154357045,-0.466762758929,0.456634726636,-0.532385867558,0.538685939423
1509044730736999235,0,1509044730746916601,base_link,velodyne,1.9,0.0,1.6,0.0,0.0,0.0,1.0
1509044730743671230,0,1509044730753539694,/world,/map,0.0,0.0,0.0,0.0,0.0,0.0,1.0
1509044730743926471,0,1509044730753816539,velodyne,camera,0.710706008953,-0.0233497393934,-0.318154357045,-0.466762758929,0.456634726636,-0.532385867558,0.538685939423
1509044730747131654,0,1509044730757010275,base_link,velodyne,1.9,0.0,1.6,0.0,0.0,0.0,1.0
1509044730753688136,0,1509044730763608926,/world,/map,0.0,0.0,0.0,0.0,0.0,0.0,1.0
1509044730753944433,0,1509044730763880893,velodyne,camera,0.710706008953,-0.0233497393934,-0.318154357045,-0.466762758929,0.456634726636,-0.532385867558,0.538685939423
1509044730757185822,0,1509044730767077646,base_link,velodyne,1.9,0.0,1.6,0.0,0.0,0.0,1.0
1509044730763773232,0,1509044730773678090,/world,/map,0.0,0.0,0.0,0.0,0.0,0.0,1.0
1509044730764025435,0,1509044730773947667,velodyne,camera,0.710706008953,-0.0233497393934,-0.318154357045,-0.466762758929,0.456634726636,-0.532385867558,0.538685939423
1509044730767310447,0,1509044730777173014,base_link,velodyne,1.9,0.0,1.6,0.0,0.0,0.0,1.0
1509044730773892588,0,1509044730783767853,/world,/map,0.0,0.0,0.0,0.0,0.0,0.0,1.0
1509044730774102541,0,1509044730784015451,velodyne,camera,0.710706008953,-0.0233497393934,-0.318154357045,-0.466762758929,0.456634726636,-0.532385867558,0.538685939423
1509044730777381421,0,1509044730787245204,base_link,velodyne,1.9,0.0,1.6,0.0,0.0,0.0,1.0
1509044730783988566,0,1509044730793861808,/world,/map,0.0,0.0,0.0,0.0,0.0,0.0,1.0
1509044730784229480,0,1509044730794081370,velodyne,camera,0.710706008953,-0.0233497393934,-0.318154357045,-0.466762758929,0.456634726636,-0.532385867558,0.538685939423
1509044730787410482,0,1509044730797320920,base_link,velodyne,1.9,0.0,1.6,0.0,0.0,0.0,1.0
1509044730794058275,0,1509044730803932577,/world,/map,0.0,0.0,0.0,0.0,0.0,0.0,1.0
1509044730794389050,0,1509044730804152689,velodyne,camera,0.710706008953,-0.0233497393934,-0.318154357045,-0.466762758929,0.456634726636,-0.532385867558,0.538685939423
1509044730797515970,0,1509044730807390576,base_link,velodyne,1.9,0.0,1.6,0.0,0.0,0.0,1.0
1509044730802567104,0,1509044730791909000,/map,/base_link,-5.08619594574,15.0073490143,-0.0893856287003,-0.0392236123709,0.0558494916591,0.0432508343906,0.996730509134
1509044730804163426,0,1509044730814002883,/world,/map,0.0,0.0,0.0,0.0,0.0,0.0,1.0
1509044730804304797,0,1509044730814225055,velodyne,camera,0.710706008953,-0.0233497393934,-0.318154357045,-0.466762758929,0.456634726636,-0.532385867558,0.538685939423
1509044730807706232,0,1509044730817464976,base_link,velodyne,1.9,0.0,1.6,0.0,0.0,0.0,1.0
1509044730814182338,0,1509044730824074065,/world,/map,0.0,0.0,0.0,0.0,0.0,0.0,1.0
1509044730814368406,0,1509044730824292503,velodyne,camera,0.710706008953,-0.0233497393934,-0.318154357045,-0.466762758929,0.456634726636,-0.532385867558,0.538685939423
1509044730817612230,0,1509044730827537642,base_link,velodyne,1.9,0.0,1.6,0.0,0.0,0.0,1.0
1509044730824209921,0,1509044730834140065,/world,/map,0.0,0.0,0.0,0.0,0.0,0.0,1.0
1509044730824434497,0,1509044730834357792,velodyne,camera,0.710706008953,-0.0233497393934,-0.318154357045,-0.466762758929,0.456634726636,-0.532385867558,0.538685939423
1509044730827693968,0,1509044730837610013,base_link,velodyne,1.9,0.0,1.6,0.0,0.0,0.0,1.0
1509044730834366224,0,1509044730844229595,/world,/map,0.0,0.0,0.0,0.0,0.0,0.0,1.0
1509044730834527559,0,1509044730844422193,velodyne,camera,0.710706008953,-0.0233497393934,-0.318154357045,-0.466762758929,0.456634726636,-0.532385867558,0.538685939423
1509044730837757692,0,1509044730847676014,base_link,velodyne,1.9,0.0,1.6,0.0,0.0,0.0,1.0
1509044730844819829,0,1509044730854295527,/world,/map,0.0,0.0,0.0,0.0,0.0,0.0,1.0
1509044730844837962,0,1509044730854517447,velodyne,camera,0.710706008953,-0.0233497393934,-0.318154357045,-0.466762758929,0.456634726636,-0.532385867558,0.538685939423
1509044730847870156,0,1509044730857741106,base_link,velodyne,1.9,0.0,1.6,0.0,0.0,0.0,1.0
1509044730854501370,0,1509044730864389306,/world,/map,0.0,0.0,0.0,0.0,0.0,0.0,1.0
1509044730854717389,0,1509044730864584433,velodyne,camera,0.710706008953,-0.0233497393934,-0.318154357045,-0.466762758929,0.456634726636,-0.532385867558,0.538685939423
1509044730857891048,0,1509044730867811275,base_link,velodyne,1.9,0.0,1.6,0.0,0.0,0.0,1.0
1509044730864529747,0,1509044730874454349,/world,/map,0.0,0.0,0.0,0.0,0.0,0.0,1.0
1509044730864718183,0,1509044730874650184,velodyne,camera,0.710706008953,-0.0233497393934,-0.318154357045,-0.466762758929,0.456634726636,-0.532385867558,0.538685939423
1509044730867952428,0,1509044730877878940,base_link,velodyne,1.9,0.0,1.6,0.0,0.0,0.0,1.0
1509044730874597085,0,1509044730884519972,/world,/map,0.0,0.0,0.0,0.0,0.0,0.0,1.0
1509044730874788101,0,1509044730884716255,velodyne,camera,0.710706008953,-0.0233497393934,-0.318154357045,-0.466762758929,0.456634726636,-0.532385867558,0.538685939423
1509044730878009996,0,1509044730887945351,base_link,velodyne,1.9,0.0,1.6,0.0,0.0,0.0,1.0
1509044730884674401,0,1509044730894587327,/world,/map,0.0,0.0,0.0,0.0,0.0,0.0,1.0
1509044730884849418,0,1509044730894780112,velodyne,camera,0.710706008953,-0.0233497393934,-0.318154357045,-0.466762758929,0.456634726636,-0.532385867558,0.538685939423
1509044730888088093,0,1509044730898010270,base_link,velodyne,1.9,0.0,1.6,0.0,0.0,0.0,1.0
1509044730894726437,0,1509044730904653309,/world,/map,0.0,0.0,0.0,0.0,0.0,0.0,1.0
1509044730894910835,0,1509044730904843995,velodyne,camera,0.710706008953,-0.0233497393934,-0.318154357045,-0.466762758929,0.456634726636,-0.532385867558,0.538685939423
1509044730898165337,0,1509044730908073111,base_link,velodyne,1.9,0.0,1.6,0.0,0.0,0.0,1.0
1509044730904838530,0,1509044730914719216,/world,/map,0.0,0.0,0.0,0.0,0.0,0.0,1.0
1509044730904988367,0,1509044730914908918,velodyne,camera,0.710706008953,-0.0233497393934,-0.318154357045,-0.466762758929,0.456634726636,-0.532385867558,0.538685939423
1509044730905146282,0,1509044730896759000,/map,/base_link,-5.06917858124,15.0092487335,-0.0824375152588,-0.038830886575,0.0558169415626,0.0434481218162,0.996739129358
1509044730908292957,0,1509044730918138429,base_link,velodyne,1.9,0.0,1.6,0.0,0.0,0.0,1.0
1509044730914916636,0,1509044730924786408,/world,/map,0.0,0.0,0.0,0.0,0.0,0.0,1.0
1509044730915067645,0,1509044730924974247,velodyne,camera,0.710706008953,-0.0233497393934,-0.318154357045,-0.466762758929,0.456634726636,-0.532385867558,0.538685939423
1509044730918309252,0,1509044730928205962,base_link,velodyne,1.9,0.0,1.6,0.0,0.0,0.0,1.0
1509044730924987655,0,1509044730934854252,/world,/map,0.0,0.0,0.0,0.0,0.0,0.0,1.0
1509044730925127897,0,1509044730935039502,velodyne,camera,0.710706008953,-0.0233497393934,-0.318154357045,-0.466762758929,0.456634726636,-0.532385867558,0.538685939423
1509044730928404651,0,1509044730938274212,base_link,velodyne,1.9,0.0,1.6,0.0,0.0,0.0,1.0
1509044730935064101,0,1509044730944922910,/world,/map,0.0,0.0,0.0,0.0,0.0,0.0,1.0
1509044730935210570,0,1509044730945103555,velodyne,camera,0.710706008953,-0.0233497393934,-0.318154357045,-0.466762758929,0.456634726636,-0.532385867558,0.538685939423
1509044730938489515,0,1509044730948363981,base_link,velodyne,1.9,0.0,1.6,0.0,0.0,0.0,1.0
1509044730945063204,0,1509044730954991467,/world,/map,0.0,0.0,0.0,0.0,0.0,0.0,1.0
1509044730945241012,0,1509044730955167716,velodyne,camera,0.710706008953,-0.0233497393934,-0.318154357045,-0.466762758929,0.456634726636,-0.532385867558,0.538685939423
1509044730948492533,0,1509044730958428491,base_link,velodyne,1.9,0.0,1.6,0.0,0.0,0.0,1.0
1509044730955121813,0,1509044730965057710,/world,/map,0.0,0.0,0.0,0.0,0.0,0.0,1.0
1509044730955297683,0,1509044730965233462,velodyne,camera,0.710706008953,-0.0233497393934,-0.318154357045,-0.466762758929,0.456634726636,-0.532385867558,0.538685939423
1509044730958592802,0,1509044730968493037,base_link,velodyne,1.9,0.0,1.6,0.0,0.0,0.0,1.0
1509044730965219898,0,1509044730975123033,/world,/map,0.0,0.0,0.0,0.0,0.0,0.0,1.0
1509044730965364722,0,1509044730975298436,velodyne,camera,0.710706008953,-0.0233497393934,-0.318154357045,-0.466762758929,0.456634726636,-0.532385867558,0.538685939423
1509044730968638259,0,1509044730978557155,base_link,velodyne,1.9,0.0,1.6,0.0,0.0,0.0,1.0
1509044730975276584,0,1509044730985189262,/world,/map,0.0,0.0,0.0,0.0,0.0,0.0,1.0
1509044730975432328,0,1509044730985365969,velodyne,camera,0.710706008953,-0.0233497393934,-0.318154357045,-0.466762758929,0.456634726636,-0.532385867558,0.538685939423
1509044730978713024,0,1509044730988622858,base_link,velodyne,1.9,0.0,1.6,0.0,0.0,0.0,1.0
1509044730985344066,0,1509044730995256643,/world,/map,0.0,0.0,0.0,0.0,0.0,0.0,1.0
1509044730985498231,0,1509044730995432212,velodyne,camera,0.710706008953,-0.0233497393934,-0.318154357045,-0.466762758929,0.456634726636,-0.532385867558,0.538685939423
1509044730988762631,0,1509044730998690002,base_link,velodyne,1.9,0.0,1.6,0.0,0.0,0.0,1.0
1509044730995442928,0,1509044731005344114,/world,/map,0.0,0.0,0.0,0.0,0.0,0.0,1.0
1509044730995576845,0,1509044731005498012,velodyne,camera,0.710706008953,-0.0233497393934,-0.318154357045,-0.466762758929,0.456634726636,-0.532385867558,0.538685939423
1509044730998824436,0,1509044731008754866,base_link,velodyne,1.9,0.0,1.6,0.0,0.0,0.0,1.0
1509044731005482610,0,1509044731015409898,/world,/map,0.0,0.0,0.0,0.0,0.0,0.0,1.0
1509044731005634758,0,1509044731015563516,velodyne,camera,0.710706008953,-0.0233497393934,-0.318154357045,-0.466762758929,0.456634726636,-0.532385867558,0.538685939423
1509044731008892115,0,1509044731018819720,base_link,velodyne,1.9,0.0,1.6,0.0,0.0,0.0,1.0
1509044731009763799,0,1509044731001571000,/map,/base_link,-5.08361148834,14.9957065582,-0.09097635746,-0.0388537150409,0.0558344055881,0.0436507915499,0.996728406527
1509044731015550227,0,1509044731025476767,/world,/map,0.0,0.0,0.0,0.0,0.0,0.0,1.0
1509044731015695143,0,1509044731025627223,velodyne,camera,0.710706008953,-0.0233497393934,-0.318154357045,-0.466762758929,0.456634726636,-0.532385867558,0.538685939423
1509044731019017030,0,1509044731028885338,base_link,velodyne,1.9,0.0,1.6,0.0,0.0,0.0,1.0
1509044731025703819,0,1509044731035544506,/world,/map,0.0,0.0,0.0,0.0,0.0,0.0,1.0
1509044731025793285,0,1509044731035691097,velodyne,camera,0.710706008953,-0.0233497393934,-0.318154357045,-0.466762758929,0.456634726636,-0.532385867558,0.538685939423
1509044731029020906,0,1509044731038948848,base_link,velodyne,1.9,0.0,1.6,0.0,0.0,0.0,1.0
1509044731035647659,0,1509044731045572143,/world,/map,0.0,0.0,0.0,0.0,0.0,0.0,1.0
1509044731035828382,0,1509044731045757750,velodyne,camera,0.710706008953,-0.0233497393934,-0.318154357045,-0.466762758929,0.456634726636,-0.532385867558,0.538685939423
1509044731039154632,0,1509044731049041219,base_link,velodyne,1.9,0.0,1.6,0.0,0.0,0.0,1.0
1509044731045797954,0,1509044731055643870,/world,/map,0.0,0.0,0.0,0.0,0.0,0.0,1.0
1509044731045909983,0,1509044731055826318,velodyne,camera,0.710706008953,-0.0233497393934,-0.318154357045,-0.466762758929,0.456634726636,-0.532385867558,0.538685939423
1509044731049180930,0,1509044731059107182,base_link,velodyne,1.9,0.0,1.6,0.0,0.0,0.0,1.0
1509044731055886357,0,1509044731065715360,/world,/map,0.0,0.0,0.0,0.0,0.0,0.0,1.0
1509044731056002201,0,1509044731065898227,velodyne,camera,0.710706008953,-0.0233497393934,-0.318154357045,-0.466762758929,0.456634726636,-0.532385867558,0.538685939423
1509044731059254172,0,1509044731069153564,base_link,velodyne,1.9,0.0,1.6,0.0,0.0,0.0,1.0
1509044731065854480,0,1509044731075787365,/world,/map,0.0,0.0,0.0,0.0,0.0,0.0,1.0
1509044731066028612,0,1509044731075968662,velodyne,camera,0.710706008953,-0.0233497393934,-0.318154357045,-0.466762758929,0.456634726636,-0.532385867558,0.538685939423
1509044731069401103,0,1509044731079249382,base_link,velodyne,1.9,0.0,1.6,0.0,0.0,0.0,1.0
1509044731076048762,0,1509044731085879936,/world,/map,0.0,0.0,0.0,0.0,0.0,0.0,1.0
1509044731076167621,0,1509044731086032133,velodyne,camera,0.710706008953,-0.0233497393934,-0.318154357045,-0.466762758929,0.456634726636,-0.532385867558,0.538685939423
1509044731079401236,0,1509044731089313982,base_link,velodyne,1.9,0.0,1.6,0.0,0.0,0.0,1.0
1509044731086009954,0,1509044731095945264,/world,/map,0.0,0.0,0.0,0.0,0.0,0.0,1.0
1509044731086179765,0,1509044731096094764,velodyne,camera,0.710706008953,-0.0233497393934,-0.318154357045,-0.466762758929,0.456634726636,-0.532385867558,0.538685939423
1509044731089489631,0,1509044731099379585,base_link,velodyne,1.9,0.0,1.6,0.0,0.0,0.0,1.0
1509044731096139501,0,1509044731106038299,/world,/map,0.0,0.0,0.0,0.0,0.0,0.0,1.0
1509044731096234215,0,1509044731106157586,velodyne,camera,0.710706008953,-0.0233497393934,-0.318154357045,-0.466762758929,0.456634726636,-0.532385867558,0.538685939423
1509044731099602679,0,1509044731109446194,base_link,velodyne,1.9,0.0,1.6,0.0,0.0,0.0,1.0
1509044731106185045,0,1509044731116103065,/world,/map,0.0,0.0,0.0,0.0,0.0,0.0,1.0
1509044731106293799,0,1509044731116221697,velodyne,camera,0.710706008953,-0.0233497393934,-0.318154357045,-0.466762758929,0.456634726636,-0.532385867558,0.538685939423
1509044731109676034,0,1509044731119514329,base_link,velodyne,1.9,0.0,1.6,0.0,0.0,0.0,1.0
1509044731115597699,0,1509044731106412000,/map,/base_link,-5.07938957214,15.0044174194,-0.0871567726135,-0.0391610093556,0.0559632377671,0.0434550206061,0.996717709559
1509044731116257847,0,1509044731126170014,/world,/map,0.0,0.0,0.0,0.0,0.0,0.0,1.0
1509044731116588515,0,1509044731126286293,velodyne,camera,0.710706008953,-0.0233497393934,-0.318154357045,-0.466762758929,0.456634726636,-0.532385867558,0.538685939423
1509044731119629234,0,1509044731129540519,base_link,velodyne,1.9,0.0,1.6,0.0,0.0,0.0,1.0
1509044731126398069,0,1509044731136239728,/world,/map,0.0,0.0,0.0,0.0,0.0,0.0,1.0
1509044731126465699,0,1509044731136353591,velodyne,camera,0.710706008953,-0.0233497393934,-0.318154357045,-0.466762758929,0.456634726636,-0.532385867558,0.538685939423
1509044731129712803,0,1509044731139609167,base_link,velodyne,1.9,0.0,1.6,0.0,0.0,0.0,1.0
1509044731136425982,0,1509044731146314058,/world,/map,0.0,0.0,0.0,0.0,0.0,0.0,1.0
1509044731136488187,0,1509044731146424878,velodyne,camera,0.710706008953,-0.0233497393934,-0.318154357045,-0.466762758929,0.456634726636,-0.532385867558,0.538685939423
1509044731139795571,0,1509044731149679482,base_link,velodyne,1.9,0.0,1.6,0.0,0.0,0.0,1.0
1509044731146458652,0,1509044731156383537,/world,/map,0.0,0.0,0.0,0.0,0.0,0.0,1.0
1509044731146561652,0,1509044731156493158,velodyne,camera,0.710706008953,-0.0233497393934,-0.318154357045,-0.466762758929,0.456634726636,-0.532385867558,0.538685939423
1509044731149824186,0,1509044731159744581,base_link,velodyne,1.9,0.0,1.6,0.0,0.0,0.0,1.0
1509044731156568584,0,1509044731166452341,/world,/map,0.0,0.0,0.0,0.0,0.0,0.0,1.0
1509044731156633807,0,1509044731166558205,velodyne,camera,0.710706008953,-0.0233497393934,-0.318154357045,-0.466762758929,0.456634726636,-0.532385867558,0.538685939423
1509044731159904539,0,1509044731169808295,base_link,velodyne,1.9,0.0,1.6,0.0,0.0,0.0,1.0
1509044731166589958,0,1509044731176518732,/world,/map,0.0,0.0,0.0,0.0,0.0,0.0,1.0
1509044731166691379,0,1509044731176624644,velodyne,camera,0.710706008953,-0.0233497393934,-0.318154357045,-0.466762758929,0.456634726636,-0.532385867558,0.538685939423
1509044731169972078,0,1509044731179871214,base_link,velodyne,1.9,0.0,1.6,0.0,0.0,0.0,1.0
1509044731177125877,0,1509044731186705037,velodyne,camera,0.710706008953,-0.0233497393934,-0.318154357045,-0.466762758929,0.456634726636,-0.532385867558,0.538685939423
1509044731177128525,0,1509044731186584988,/world,/map,0.0,0.0,0.0,0.0,0.0,0.0,1.0
1509044731180026348,0,1509044731189934798,base_link,velodyne,1.9,0.0,1.6,0.0,0.0,0.0,1.0
1509044731186725921,0,1509044731196656825,/world,/map,0.0,0.0,0.0,0.0,0.0,0.0,1.0
1509044731186837674,0,1509044731196771154,velodyne,camera,0.710706008953,-0.0233497393934,-0.318154357045,-0.466762758929,0.456634726636,-0.532385867558,0.538685939423
1509044731190181142,0,1509044731200002319,base_link,velodyne,1.9,0.0,1.6,0.0,0.0,0.0,1.0
1509044731196808333,0,1509044731206721584,/world,/map,0.0,0.0,0.0,0.0,0.0,0.0,1.0
1509044731196898192,0,1509044731206836871,velodyne,camera,0.710706008953,-0.0233497393934,-0.318154357045,-0.466762758929,0.456634726636,-0.532385867558,0.538685939423
1509044731200161805,0,1509044731210070388,base_link,velodyne,1.9,0.0,1.6,0.0,0.0,0.0,1.0
1509044731206880190,0,1509044731216791043,/world,/map,0.0,0.0,0.0,0.0,0.0,0.0,1.0
1509044731206963818,0,1509044731216901543,velodyne,camera,0.710706008953,-0.0233497393934,-0.318154357045,-0.466762758929,0.456634726636,-0.532385867558,0.538685939423
1509044731210255592,0,1509044731220133881,base_link,velodyne,1.9,0.0,1.6,0.0,0.0,0.0,1.0
1509044731216962042,0,1509044731226857413,/world,/map,0.0,0.0,0.0,0.0,0.0,0.0,1.0
1509044731217069750,0,1509044731226966363,velodyne,camera,0.710706008953,-0.0233497393934,-0.318154357045,-0.466762758929,0.456634726636,-0.532385867558,0.538685939423
1509044731219358776,0,1509044731211265000,/map,/base_link,-5.08752250671,15.0094013214,-0.0830657482147,-0.0388319012355,0.055961884469,0.043088504287,0.996746573474
1509044731220294369,0,1509044731230197591,base_link,velodyne,1.9,0.0,1.6,0.0,0.0,0.0,1.0
1509044731227024306,0,1509044731236923921,/world,/map,0.0,0.0,0.0,0.0,0.0,0.0,1.0
1509044731227137113,0,1509044731237065609,velodyne,camera,0.710706008953,-0.0233497393934,-0.318154357045,-0.466762758929,0.456634726636,-0.532385867558,0.538685939423
1509044731230400364,0,1509044731240262715,base_link,velodyne,1.9,0.0,1.6,0.0,0.0,0.0,1.0
1509044731237061618,0,1509044731246989647,/world,/map,0.0,0.0,0.0,0.0,0.0,0.0,1.0
1509044731237228620,0,1509044731247138140,velodyne,camera,0.710706008953,-0.0233497393934,-0.318154357045,-0.466762758929,0.456634726636,-0.532385867558,0.538685939423
1509044731240402131,0,1509044731250331536,base_link,velodyne,1.9,0.0,1.6,0.0,0.0,0.0,1.0
1509044731247195491,0,1509044731257110073,/world,/map,0.0,0.0,0.0,0.0,0.0,0.0,1.0
1509044731247291216,0,1509044731257205724,velodyne,camera,0.710706008953,-0.0233497393934,-0.318154357045,-0.466762758929,0.456634726636,-0.532385867558,0.538685939423
1509044731250605568,0,1509044731260406104,base_link,velodyne,1.9,0.0,1.6,0.0,0.0,0.0,1.0
