%time,field.header.seq,field.header.stamp,field.header.frame_id,field.steering_wheel_angle,field.steering_wheel_angle_cmd,field.steering_wheel_torque,field.speed,field.enabled,field.override,field.timeout,field.fault_wdc,field.fault_bus1,field.fault_bus2,field.fault_calibration
1509044729618937493,138967,1509044729618330735,,0.0663225129247,-2.93738913536,-0.1875,0.0,0,0,0,0,0,0,0
1509044729639633178,138968,1509044729638752963,,0.0663225129247,-2.93738913536,-0.1875,0.0,0,0,0,0,0,0,0
1509044729659421504,138969,1509044729658753457,,0.0663225129247,-2.93738913536,-0.1875,0.0,0,0,0,0,0,0,0
1509044729679021400,138970,1509044729678761180,,0.0663225129247,-2.93738913536,-0.1875,0.0,0,0,0,0,0,0,0
1509044729698975774,138971,1509044729698758298,,0.0663225129247,-2.93738913536,-0.1875,0.0,0,0,0,0,0,0,0
1509044729721439964,138972,1509044729718766309,,0.0663225129247,-2.93738913536,-0.1875,0.0,0,0,0,0,0,0,0
1509044729739180853,138973,1509044729738770251,,0.0663225129247,-2.93738913536,-0.1875,0.0,0,0,0,0,0,0,0
1509044729759024920,138974,1509044729758768441,,0.0663225129247,-2.93738913536,-0.1875,0.0,0,0,0,0,0,0,0
1509044729779363541,138975,1509044729778772661,,0.0663225129247,-2.93738913536,-0.1875,0.0,0,0,0,0,0,0,0
1509044729799033067,138976,1509044729798773318,,0.0663225129247,-2.93738913536,-0.1875,0.0,0,0,0,0,0,0,0
1509044729819262314,138977,1509044729818788897,,0.0663225129247,-2.93738913536,-0.1875,0.0,0,0,0,0,0,0,0
1509044729839146838,138978,1509044729838784111,,0.0663225129247,-2.93738913536,-0.1875,0.0,0,0,0,0,0,0,0
1509044729859196257,138979,1509044729858787117,,0.0663225129247,-2.93738913536,-0.1875,0.0,0,0,0,0,0,0,0
1509044729879086930,138980,1509044729878792422,,0.0663225129247,-2.93738913536,-0.1875,0.0,0,0,0,0,0,0,0
1509044729902419987,138981,1509044729899374432,,0.0663225129247,-2.93738913536,-0.1875,0.0,0,0,0,0,0,0,0
1509044729920016278,138982,1509044729919383132,,0.0663225129247,-2.93738913536,-0.1875,0.0,0,0,0,0,0,0,0
1509044729939874107,138983,1509044729939383691,,0.0663225129247,-2.93738913536,-0.1875,0.0,0,0,0,0,0,0,0
1509044729959930970,138984,1509044729959565285,,0.0663225129247,-2.93738913536,-0.1875,0.0,0,0,0,0,0,0,0
1509044729979927097,138985,1509044729979389798,,0.0663225129247,-2.93738913536,-0.1875,0.0,0,0,0,0,0,0,0
1509044730001454035,138986,1509044729999388609,,0.0663225129247,-2.93738913536,-0.1875,0.0,0,0,0,0,0,0,0
1509044730019791423,138987,1509044730019389154,,0.0663225129247,-2.93738913536,-0.1875,0.0,0,0,0,0,0,0,0
1509044730039734050,138988,1509044730039392119,,0.0663225129247,-2.93738913536,-0.1875,0.0,0,0,0,0,0,0,0
1509044730059661601,138989,1509044730059391176,,0.0663225129247,-2.93738913536,-0.1875,0.0,0,0,0,0,0,0,0
1509044730082338267,138990,1509044730081923205,,0.0663225129247,-2.93738913536,-0.1875,0.0,0,0,0,0,0,0,0
1509044730099619318,138991,1509044730099399321,,0.0663225129247,-2.93738913536,-0.1875,0.0,0,0,0,0,0,0,0
1509044730119637664,138992,1509044730119399484,,0.0663225129247,-2.93738913536,-0.1875,0.0,0,0,0,0,0,0,0
1509044730141172981,138993,1509044730140820640,,0.0663225129247,-2.93738913536,-0.1875,0.0,0,0,0,0,0,0,0
1509044730159567481,138994,1509044730159401318,,0.0663225129247,-2.93738913536,-0.1875,0.0,0,0,0,0,0,0,0
1509044730179577423,138995,1509044730179402333,,0.0663225129247,-2.93738913536,-0.1875,0.0,0,0,0,0,0,0,0
1509044730199625836,138996,1509044730199406223,,0.0663225129247,-2.93738913536,-0.1875,0.0,0,0,0,0,0,0,0
1509044730219725259,138997,1509044730219410122,,0.0663225129247,-2.93738913536,-0.1875,0.0,0,0,0,0,0,0,0
1509044730239599551,138998,1509044730239414062,,0.0663225129247,-2.93738913536,-0.1875,0.0,0,0,0,0,0,0,0
1509044730260018737,138999,1509044730259832758,,0.0663225129247,-2.93738913536,-0.1875,0.0,0,0,0,0,0,0,0
1509044730279977809,139000,1509044730279835843,,0.0663225129247,-2.93738913536,-0.1875,0.0,0,0,0,0,0,0,0
1509044730300349510,139001,1509044730299865192,,0.0663225129247,-2.93738913536,-0.1875,0.0,0,0,0,0,0,0,0
1509044730319984619,139002,1509044730319842167,,0.0663225129247,-2.93738913536,-0.1875,0.0,0,0,0,0,0,0,0
1509044730340102602,139003,1509044730339849701,,0.0663225129247,-2.93738913536,-0.1875,0.0,0,0,0,0,0,0,0
1509044730360002769,139004,1509044730359841657,,0.0663225129247,-2.93738913536,-0.1875,0.0,0,0,0,0,0,0,0
1509044730380073779,139005,1509044730379853984,,0.0663225129247,-2.93738913536,-0.1875,0.0,0,0,0,0,0,0,0
1509044730400158005,139006,1509044730399881143,,0.0663225129247,-2.93738913536,-0.1875,0.0,0,0,0,0,0,0,0
1509044730420050840,139007,1509044730419928354,,0.0663225129247,-2.93738913536,-0.1875,0.0,0,0,0,0,0,0,0
1509044730440472573,139008,1509044730439954774,,0.0663225129247,-2.93738913536,-0.1875,0.0,0,0,0,0,0,0,0
1509044730460581233,139009,1509044730460436782,,0.0663225129247,-2.93738913536,-0.1875,0.0,0,0,0,0,0,0,0
1509044730480825238,139010,1509044730480445431,,0.0663225129247,-2.93738913536,-0.1875,0.0,0,0,0,0,0,0,0
1509044730500560157,139011,1509044730500441500,,0.0663225129247,-2.93738913536,-0.1875,0.0,0,0,0,0,0,0,0
1509044730520094986,139012,1509044730519998698,,0.0663225129247,-2.93738913536,-0.1875,0.0,0,0,0,0,0,0,0
1509044730540128558,139013,1509044730539974240,,0.0663225129247,-2.93738913536,-0.1875,0.0,0,0,0,0,0,0,0
1509044730560652021,139014,1509044730560472706,,0.0663225129247,-2.93738913536,-0.1875,0.0,0,0,0,0,0,0,0
1509044730580350780,139015,1509044730580107574,,0.0663225129247,-2.93738913536,-0.1875,0.0,0,0,0,0,0,0,0
1509044730600651912,139016,1509044730600506662,,0.0663225129247,-2.93738913536,-0.1875,0.0,0,0,0,0,0,0,0
1509044730620213869,139017,1509044730620055464,,0.0663225129247,-2.93738913536,-0.1875,0.0,0,0,0,0,0,0,0
1509044730640730516,139018,1509044730640550265,,0.0663225129247,-2.93738913536,-0.1875,0.0,0,0,0,0,0,0,0
1509044730660655099,139019,1509044730660462951,,0.0663225129247,-2.93738913536,-0.1875,0.0,0,0,0,0,0,0,0
1509044730680680371,139020,1509044730680463609,,0.0663225129247,-2.93738913536,-0.1875,0.0,0,0,0,0,0,0,0
1509044730700596917,139021,1509044730700464952,,0.0663225129247,-2.93738913536,-0.1875,0.0,0,0,0,0,0,0,0
1509044730720633088,139022,1509044730720467889,,0.0663225129247,-2.93738913536,-0.1875,0.0,0,0,0,0,0,0,0
1509044730740627371,139023,1509044730740491687,,0.0663225129247,-2.93738913536,-0.1875,0.0,0,0,0,0,0,0,0
1509044730760617386,139024,1509044730760475218,,0.0663225129247,-2.93738913536,-0.1875,0.0,0,0,0,0,0,0,0
1509044730780670335,139025,1509044730780505622,,0.0663225129247,-2.93738913536,-0.1875,0.0,0,0,0,0,0,0,0
1509044730801445302,139026,1509044730800482978,,0.0663225129247,-2.93738913536,-0.1875,0.0,0,0,0,0,0,0,0
1509044730820632609,139027,1509044730820479830,,0.0663225129247,-2.93738913536,-0.1875,0.0,0,0,0,0,0,0,0
1509044730840611421,139028,1509044730840506156,,0.0663225129247,-2.93738913536,-0.1875,0.0,0,0,0,0,0,0,0
1509044730860642401,139029,1509044730860487512,,0.0663225129247,-2.93738913536,-0.1875,0.0,0,0,0,0,0,0,0
1509044730880606767,139030,1509044730880488049,,0.0663225129247,-2.93738913536,-0.1875,0.0,0,0,0,0,0,0,0
1509044730901108123,139031,1509044730900491725,,0.0663225129247,-2.93738913536,-0.1875,0.0,0,0,0,0,0,0,0
1509044730921315708,139032,1509044730920941319,,0.0663225129247,-2.93738913536,-0.1875,0.0,0,0,0,0,0,0,0
1509044730941087527,139033,1509044730940916145,,0.0663225129247,-2.93738913536,-0.1875,0.0,0,0,0,0,0,0,0
1509044730961034747,139034,1509044730960939645,,0.0663225129247,-2.93738913536,-0.1875,0.0,0,0,0,0,0,0,0
1509044730981047842,139035,1509044730980920424,,0.0663225129247,-2.93738913536,-0.1875,0.0,0,0,0,0,0,0,0
1509044731001041950,139036,1509044731000925342,,0.0663225129247,-2.93738913536,-0.1875,0.0,0,0,0,0,0,0,0
1509044731021126323,139037,1509044731020949916,,0.0663225129247,-2.93738913536,-0.1875,0.0,0,0,0,0,0,0,0
1509044731041115642,139038,1509044731040928083,,0.0663225129247,-2.93738913536,-0.1875,0.0,0,0,0,0,0,0,0
1509044731061050293,139039,1509044731060931096,,0.0663225129247,-2.93738913536,-0.1875,0.0,0,0,0,0,0,0,0
1509044731081166597,139040,1509044731080956708,,0.0663225129247,-2.93738913536,-0.1875,0.0,0,0,0,0,0,0,0
1509044731101210368,139041,1509044731100982882,,0.0663225129247,-2.93738913536,-0.1875,0.0,0,0,0,0,0,0,0
1509044731121074633,139042,1509044731120939282,,0.0663225129247,-2.93738913536,-0.1875,0.0,0,0,0,0,0,0,0
1509044731141064140,139043,1509044731140941776,,0.0663225129247,-2.93738913536,-0.1875,0.0,0,0,0,0,0,0,0
1509044731161172417,139044,1509044731160966139,,0.0663225129247,-2.93738913536,-0.1875,0.0,0,0,0,0,0,0,0
1509044731181072159,139045,1509044731180947971,,0.0663225129247,-2.93738913536,-0.1875,0.0,0,0,0,0,0,0,0
1509044731201633864,139046,1509044731201529689,,0.0663225129247,-2.93738913536,-0.1875,0.0,0,0,0,0,0,0,0
1509044731221700822,139047,1509044731221538150,,0.0663225129247,-2.93738913536,-0.1875,0.0,0,0,0,0,0,0,0
1509044731242020113,139048,1509044731241569933,,0.0663225129247,-2.93738913536,-0.1875,0.0,0,0,0,0,0,0,0
1509044731261780224,139049,1509044731261541747,,0.0663225129247,-2.93738913536,-0.1875,0.0,0,0,0,0,0,0,0
1509044731281683903,139050,1509044731281542510,,0.0663225129247,-2.93738913536,-0.1875,0.0,0,0,0,0,0,0,0
1509044731301677978,139051,1509044731301570207,,0.0663225129247,-2.93738913536,-0.1875,0.0,0,0,0,0,0,0,0
1509044731321587839,139052,1509044731321442225,,0.0663225129247,-2.93738913536,-0.1875,0.0,0,0,0,0,0,0,0
1509044731341896964,139053,1509044731341572475,,0.0663225129247,-2.93738913536,-0.1875,0.0,0,0,0,0,0,0,0
1509044731361775018,139054,1509044731361553789,,0.0663225129247,-2.93738913536,-0.25,0.0,0,0,0,0,0,0,0
1509044731381666976,139055,1509044731381554717,,0.0680678412318,-2.93738913536,-0.1875,0.0,0,0,0,0,0,0,0
1509044731401666208,139056,1509044731401558587,,0.0680678412318,-2.93738913536,-0.125,0.0,0,0,0,0,0,0,0
1509044731421760020,139057,1509044731421567542,,0.0680678412318,-2.93738913536,-0.125,0.0,0,0,0,0,0,0,0
1509044731441865808,139058,1509044731441574626,,0.069813169539,-2.93738913536,-0.0625,0.0,0,0,0,0,0,0,0
1509044731461691311,139059,1509044731461568341,,0.0715584978461,-2.93738913536,0.0,0.0,0,0,0,0,0,0,0
1509044731481691852,139060,1509044731481571763,,0.0733038261533,-2.93738913536,0.0,0.0,0,0,0,0,0,0,0
1509044731501786680,139061,1509044731501574281,,0.0750491544604,-2.93738913536,-0.125,0.0,0,0,0,0,0,0,0
1509044731521722034,139062,1509044731521578991,,0.0750491544604,-2.93738913536,-0.25,0.0,0,0,0,0,0,0,0
1509044731541721738,139063,1509044731541582038,,0.0750491544604,-2.93738913536,-0.3125,0.0,0,0,0,0,0,0,0
1509044731562112753,139064,1509044731562001515,,0.0750491544604,-2.93738913536,-0.4375,0.0,0,0,0,0,0,0,0
1509044731582121732,139065,1509044731582003435,,0.0733038261533,-2.93738913536,-0.5,0.0,0,0,0,0,0,0,0
1509044731602221097,139066,1509044731602008900,,0.0733038261533,-2.93738913536,-0.5,0.0,0,0,0,0,0,0,0
1509044731622161127,139067,1509044731622013996,,0.0733038261533,-2.93738913536,-0.5,0.0,0,0,0,0,0,0,0
1509044731642300819,139068,1509044731642042242,,0.0733038261533,-2.93738913536,-0.4375,0.0,0,0,0,0,0,0,0
1509044731662187093,139069,1509044731662020459,,0.0733038261533,-2.93738913536,-0.5,0.0,0,0,0,0,0,0,0
1509044731682284921,139070,1509044731682020638,,0.0733038261533,-2.93738913536,-0.5,0.0,0,0,0,0,0,0,0
1509044731702188296,139071,1509044731702022827,,0.0733038261533,-2.93738913536,-0.5,0.0,0,0,0,0,0,0,0
1509044731722186344,139072,1509044731722024748,,0.0733038261533,-2.93738913536,-0.4375,0.0,0,0,0,0,0,0,0
1509044731742225422,139073,1509044731742023666,,0.0733038261533,-2.93738913536,-0.4375,0.0,0,0,0,0,0,0,0
1509044731762151091,139074,1509044731762026584,,0.0733038261533,-2.93738913536,-0.375,0.0,0,0,0,0,0,0,0
1509044731783840844,139075,1509044731782036494,,0.0733038261533,-2.93738913536,-0.375,0.0,0,0,0,0,0,0,0
1509044731802322171,139076,1509044731802037725,,0.0733038261533,-2.93738913536,-0.3125,0.0,0,0,0,0,0,0,0
1509044731822744852,139077,1509044731822618281,,0.0733038261533,-2.93738913536,-0.25,0.0,0,0,0,0,0,0,0
1509044731843067826,139078,1509044731842635055,,0.0733038261533,-2.93738913536,-0.1875,0.0,0,0,0,0,0,0,0
1509044731862840971,139079,1509044731862643110,,0.0733038261533,-2.93738913536,-0.125,0.0,0,0,0,0,0,0,0
1509044731882945348,139080,1509044731882660702,,0.0733038261533,-2.93738913536,-0.0625,0.0,0,0,0,0,0,0,0
1509044731902753469,139081,1509044731902628112,,0.0733038261533,-2.93738913536,0.0,0.0,0,0,0,0,0,0,0
1509044731922766161,139082,1509044731922635952,,0.0715584978461,-2.93738913536,0.0625,0.0,0,0,0,0,0,0,0
1509044731942792604,139083,1509044731942635316,,0.069813169539,-2.93738913536,0.125,0.0,0,0,0,0,0,0,0
1509044731962775112,139084,1509044731962636432,,0.0663225129247,-2.93738913536,0.125,0.0,0,0,0,0,0,0,0
1509044731982820976,139085,1509044731982646314,,0.0610865242779,-2.93738913536,0.1875,0.0,0,0,0,0,0,0,0
1509044732002908968,139086,1509044732002664721,,0.0558505356312,-2.93738913536,0.1875,0.241666659713,0,0,0,0,0,0,0
1509044732022768727,139087,1509044732022640234,,0.0488692186773,-2.93738913536,0.125,0.300000011921,0,0,0,0,0,0,0
1509044732044166147,139088,1509044732042656075,,0.0401425734162,0.0401425734162,0.125,0.355555564165,0,0,0,0,0,0,0
1509044732062795614,139089,1509044732062652036,,0.0296705979854,0.0401425734162,0.25,0.413888901472,0,0,0,0,0,0,0
1509044732082857715,139090,1509044732082654738,,0.0191986225545,0.0401425734162,0.5,0.480555564165,0,0,0,0,0,0,0
1509044732103384504,139091,1509044732103105060,,0.00872664619237,0.0401425734162,0.5625,0.558333337307,0,0,0,0,0,0,0
1509044732122875066,139092,1509044732122661953,,-0.0139626339078,0.0401425734162,0.25,0.666666686535,0,0,0,0,0,0,0
1509044732142900062,139093,1509044732142700273,,-0.0383972451091,-0.0383972451091,0.5625,0.844444453716,0,0,0,0,0,0,0
1509044732162991715,139094,1509044732162672599,,-0.0645771846175,-0.0383972451091,0.375,1.00277781487,0,0,0,0,0,0,0
1509044732182882749,139095,1509044732182677061,,-0.0925024524331,-0.0383972451091,0.5,1.15555560589,0,0,0,0,0,0,0
1509044732202809356,139096,1509044732202665268,,-0.123918376863,-0.0383972451091,0.5,1.29722225666,0,0,0,0,0,0,0
1509044732223306933,139097,1509044732223107773,,-0.160570293665,-0.0383972451091,0.1875,1.43888890743,0,0,0,0,0,0,0
1509044732243722473,139098,1509044732243109612,,-0.200712859631,-0.200712859631,0.375,1.58333337307,0,0,0,0,0,0,0
1509044732265950179,139099,1509044732263105743,,-0.235619455576,-0.200712859631,0.125,1.7277777195,0,0,0,0,0,0,0
1509044732283310656,139100,1509044732283203537,,-0.274016678333,-0.200712859631,-0.25,1.95000004768,0,0,0,0,0,0,0
1509044732303314792,139101,1509044732303208850,,-0.305432617664,-0.200712859631,0.4375,2.06388878822,0,0,0,0,0,0,0
1509044732323256126,139102,1509044732323100901,,-0.331612557173,-0.200712859631,0.125,2.10833334923,0,0,0,0,0,0,0
1509044732343253948,139103,1509044732343105471,,-0.36477380991,-0.36477380991,-0.25,2.23611116409,0,0,0,0,0,0,0
1509044732363316311,139104,1509044732363190614,,-0.392699092627,-0.36477380991,0.375,2.4777777195,0,0,0,0,0,0,0
1509044732383287538,139105,1509044732383114367,,-0.413643032312,-0.36477380991,-0.5,2.55555558205,0,0,0,0,0,0,0
1509044732403387921,139106,1509044732403218277,,-0.431096315384,-0.36477380991,0.1875,2.73611116409,0,0,0,0,0,0,0
1509044732423383461,139107,1509044732423226335,,-0.441568315029,-0.36477380991,0.4375,2.84999990463,0,0,0,0,0,0,0
1509044732444107834,139108,1509044732443133673,,-0.453785598278,-0.453785598278,0.1875,2.90833330154,0,0,0,0,0,0,0
1509044732463292718,139109,1509044732463124522,,-0.471238911152,-0.453785598278,0.125,3.10555553436,0,0,0,0,0,0,0
1509044732483880764,139110,1509044732483704506,,-0.485201537609,-0.453785598278,0.125,3.51388883591,0,0,0,0,0,0,0
1509044732503854232,139111,1509044732503706259,,-0.492182850838,-0.453785598278,0.1875,3.63611102104,0,0,0,0,0,0,0
1509044732523327540,139112,1509044732523211833,,-0.495673507452,-0.453785598278,0.3125,3.99722218513,0,0,0,0,0,0,0
1509044732543885081,139113,1509044732543718151,,-0.499164164066,-0.453785598278,-0.25,4.09722232819,0,0,0,0,0,0,0
1509044732563850940,139114,1509044732563715399,,-0.506145477295,-0.453785598278,0.0,4.38055562973,0,0,0,0,0,0,0
1509044732584264333,139115,1509044732583716749,,-0.504400134087,-0.453785598278,0.5625,4.54166650772,0,1,0,0,0,0,0
1509044732603928292,139116,1509044732603743187,,-0.500909507275,-0.453785598278,0.0,4.66666650772,0,1,0,0,0,0,0
1509044732623925329,139117,1509044732623720413,,-0.500909507275,-0.453785598278,0.8125,4.76388883591,0,1,0,0,0,0,0
1509044732644685646,139118,1509044732644437506,,-0.502654850483,-0.453785598278,0.625,4.80833339691,0,1,0,0,0,0,0
1509044732663951087,139119,1509044732663754025,,-0.507890820503,-0.453785598278,0.375,4.95833349228,0,1,0,0,0,0,0
1509044732684098796,139120,1509044732683811903,,-0.518362760544,-0.453785598278,-0.125,5.01944446564,0,1,0,0,0,0,0
1509044732703919482,139121,1509044732703755650,,-0.525344133377,-0.453785598278,0.375,5.03888893127,0,1,0,0,0,0,0
1509044732723856285,139122,1509044732723734964,,-0.525344133377,-0.453785598278,0.0625,4.76111125946,0,1,0,0,0,0,0
1509044732743961398,139123,1509044732743766858,,-0.523598790169,-0.453785598278,0.6875,4.64166688919,0,1,0,0,0,0,0
1509044732764076570,139124,1509044732763790331,,-0.525344133377,-0.453785598278,-0.1875,4.06388902664,0,1,0,0,0,0,0
1509044732783927422,139125,1509044732783823171,,-0.532325446606,-0.453785598278,0.4375,3.70277786255,0,1,0,0,0,0,0
1509044732803961085,139126,1509044732803831624,,-0.530580103397,-0.453785598278,-0.0625,3.43333339691,0,1,0,0,0,0,0
1509044732823931038,139127,1509044732823831576,,-0.528834760189,-0.453785598278,-0.0625,3.24722218513,0,1,0,0,0,0,0
1509044732844539616,139128,1509044732843764150,,-0.527089416981,-0.453785598278,-0.0625,3.18611121178,0,1,0,0,0,0,0
1509044732863962716,139129,1509044732863847361,,-0.52185344696,-0.453785598278,0.0,3.07222223282,0,1,0,0,0,0,0
1509044732884354838,139130,1509044732884200074,,-0.514872133732,-0.453785598278,-0.125,3.04166674614,0,1,0,0,0,0,0
1509044732904310052,139131,1509044732904200545,,-0.506145477295,-0.453785598278,-0.0625,3.0222222805,0,1,0,0,0,0,0
1509044732924358828,139132,1509044732924209164,,-0.49741885066,-0.453785598278,-0.0625,3.01388883591,0,1,0,0,0,0,0
1509044732944425331,139133,1509044732944214225,,-0.486946851015,-0.453785598278,-0.0625,3.01111102104,0,1,0,0,0,0,0
1509044732964323275,139134,1509044732964213548,,-0.476474881172,-0.453785598278,-0.125,3.0083334446,0,1,0,0,0,0,0
1509044732984395517,139135,1509044732984189006,,-0.462512254715,-0.453785598278,-0.1875,3.00555562973,0,1,0,0,0,0,0
1509044733004341200,139136,1509044733004198244,,-0.448549628258,-0.453785598278,-0.1875,3.00555562973,0,1,0,0,0,0,0
1509044733024334491,139137,1509044733024193354,,-0.431096315384,-0.453785598278,-0.125,3.01111102104,0,1,0,0,0,0,0
1509044733044432594,139138,1509044733044208073,,-0.415388375521,-0.453785598278,-0.125,3.01666665077,0,1,0,0,0,0,0
1509044733064313763,139139,1509044733064200700,,-0.396189749241,-0.453785598278,-0.125,3.03055548668,0,1,0,0,0,0,0
1509044733084286738,139140,1509044733084202142,,-0.376991122961,-0.453785598278,-0.0625,3.03888893127,0,1,0,0,0,0,0
1509044733104941318,139141,1509044733104816041,,-0.357792496681,-0.453785598278,0.0,3.04722213745,0,1,0,0,0,0,0
1509044733125039451,139142,1509044733124836166,,-0.338593870401,-0.453785598278,0.0,3.05555558205,0,1,0,0,0,0,0
1509044733144976958,139143,1509044733144871334,,-0.32114058733,-0.453785598278,0.125,3.05833339691,0,1,0,0,0,0,0
1509044733164901351,139144,1509044733164793976,,-0.303687304258,-0.453785598278,0.1875,3.07222223282,0,1,0,0,0,0,0
1509044733184936887,139145,1509044733184799069,,-0.287979334593,-0.453785598278,0.125,3.080555439,0,1,0,0,0,0,0
1509044733205127689,139146,1509044733204811574,,-0.27750736475,-0.453785598278,0.1875,3.08888888359,0,1,0,0,0,0,0
1509044733224924729,139147,1509044733224801671,,-0.268780708313,-0.453785598278,0.3125,3.09722232819,0,1,0,0,0,0,0
1509044733245096222,139148,1509044733244954606,,-0.261799395084,-0.453785598278,0.0625,3.1027777195,0,1,0,0,0,0,0
1509044733264951500,139149,1509044733264808322,,-0.260054051876,-0.453785598278,0.125,3.10555553436,0,1,0,0,0,0,0
1509044733284917473,139150,1509044733284811120,,-0.25830873847,-0.453785598278,0.0625,3.10555553436,0,1,0,0,0,0,0
1509044733304909167,139151,1509044733304813413,,-0.25830873847,-0.453785598278,0.0625,3.11111116409,0,1,0,0,0,0,0
1509044733325023723,139152,1509044733324819300,,-0.25830873847,-0.453785598278,-0.0625,3.11944437027,0,1,0,0,0,0,0
1509044733345033555,139153,1509044733344896897,,-0.25830873847,-0.453785598278,-0.0625,3.125,0,1,0,0,0,0,0
1509044733365021437,139154,1509044733364850044,,-0.25830873847,-0.453785598278,0.0,3.125,0,1,0,0,0,0,0
1509044733385017680,139155,1509044733384844160,,-0.256563395262,-0.453785598278,-0.1875,3.125,0,1,0,0,0,0,0
1509044733404985802,139156,1509044733404831717,,-0.254818081856,-0.453785598278,-0.1875,3.13055562973,0,1,0,0,0,0,0
1509044733425143891,139157,1509044733424947355,,-0.251327425241,-0.453785598278,-0.25,3.13888883591,0,1,0,0,0,0,0
1509044733447412017,139158,1509044733444916435,,-0.244346097112,-0.453785598278,-0.1875,3.1472222805,0,1,0,0,0,0,0
1509044733465584860,139159,1509044733465324938,,-0.235619455576,-0.453785598278,-0.125,3.1472222805,0,1,0,0,0,0,0
1509044733485063620,139160,1509044733484850492,,-0.228638127446,-0.453785598278,-0.25,3.15000009537,0,1,0,0,0,0,0
1509044733505505388,139161,1509044733505279296,,-0.221656814218,-0.453785598278,0.0,3.15555548668,0,1,0,0,0,0,0
1509044733525384621,139162,1509044733525260463,,-0.212930172682,-0.453785598278,0.0625,3.15833330154,0,1,0,0,0,0,0
1509044733545203631,139163,1509044733544998666,,-0.205948844552,-0.453785598278,-0.1875,3.15833330154,0,1,0,0,0,0,0
1509044733565425774,139164,1509044733565274427,,-0.200712859631,-0.453785598278,0.0625,3.15833330154,0,1,0,0,0,0,0
1509044733585428019,139165,1509044733585271794,,-0.193731546402,-0.453785598278,0.125,3.16111111641,0,1,0,0,0,0,0
1509044733605502011,139166,1509044733605299689,,-0.191986218095,-0.453785598278,0.0,3.16666674614,0,1,0,0,0,0,0
1509044733625431056,139167,1509044733625283780,,-0.190240889788,-0.453785598278,0.125,3.169444561,0,1,0,0,0,0,0
1509044733645401066,139168,1509044733645277302,,-0.188495561481,-0.453785598278,0.0,3.169444561,0,1,0,0,0,0,0
1509044733665440117,139169,1509044733665289854,,-0.188495561481,-0.453785598278,0.0,3.17222213745,0,1,0,0,0,0,0
1509044733685386553,139170,1509044733685281649,,-0.188495561481,-0.453785598278,-0.1875,3.17499995232,0,1,0,0,0,0,0
1509044733705457787,139171,1509044733705314593,,-0.188495561481,-0.453785598278,-0.1875,3.17222213745,0,1,0,0,0,0,0
1509044733725418327,139172,1509044733725290431,,-0.186750233173,-0.453785598278,0.0,3.169444561,0,1,0,0,0,0,0
1509044733745432344,139173,1509044733745311285,,-0.186750233173,-0.453785598278,0.0,3.169444561,0,1,0,0,0,0,0
1509044733765455757,139174,1509044733765300540,,-0.186750233173,-0.453785598278,-0.1875,3.16666674614,0,1,0,0,0,0,0
1509044733786049952,139175,1509044733785899005,,-0.186750233173,-0.453785598278,-0.1875,3.169444561,0,1,0,0,0,0,0
1509044733805969927,139176,1509044733805877498,,-0.185004904866,-0.453785598278,-0.125,3.16388893127,0,1,0,0,0,0,0
1509044733826035708,139177,1509044733825903716,,-0.181514248252,-0.453785598278,-0.25,3.16111111641,0,1,0,0,0,0,0
1509044733846053369,139178,1509044733845884461,,-0.178023576736,-0.453785598278,-0.25,3.16111111641,0,1,0,0,0,0,0
1509044733866061924,139179,1509044733865892462,,-0.172787591815,-0.453785598278,-0.25,3.16111111641,0,1,0,0,0,0,0
1509044733885997407,139180,1509044733885891145,,-0.165806278586,-0.453785598278,-0.1875,3.16111111641,0,1,0,0,0,0,0
1509044733906178301,139181,1509044733905896477,,-0.158824965358,-0.453785598278,-0.1875,3.15555548668,0,1,0,0,0,0,0
1509044733926099704,139182,1509044733925924209,,-0.150098308921,-0.453785598278,-0.125,3.15277767181,0,1,0,0,0,0,0
1509044733946089972,139183,1509044733945923019,,-0.143116995692,-0.453785598278,0.0,3.15555548668,0,1,0,0,0,0,0
1509044733966082394,139184,1509044733965907053,,-0.136135682464,-0.453785598278,-0.0625,3.15555548668,0,1,0,0,0,0,0
1509044733986194974,139185,1509044733985904998,,-0.129154369235,-0.453785598278,-0.0625,3.15277767181,0,1,0,0,0,0,0
1509044734006082406,139186,1509044734005910285,,-0.125663712621,-0.453785598278,0.0,3.15277767181,0,1,0,0,0,0,0
1509044734026083771,139187,1509044734025934978,,-0.120427720249,-0.453785598278,-0.0625,3.15000009537,0,1,0,0,0,0,0
1509044734046406920,139188,1509044734045933008,,-0.116937056184,-0.453785598278,0.0,3.15000009537,0,1,0,0,0,0,0
1509044734066068350,139189,1509044734065914152,,-0.11344639957,-0.453785598278,0.0625,3.14444446564,0,1,0,0,0,0,0
1509044734086026228,139190,1509044734085916681,,-0.11344639957,-0.453785598278,0.0,3.14444446564,0,1,0,0,0,0,0
1509044734106074325,139191,1509044734105941947,,-0.11344639957,-0.453785598278,0.0,3.14166665077,0,1,0,0,0,0,0
1509044734126114368,139192,1509044734125926976,,-0.11344639957,-0.453785598278,0.0,3.13888883591,0,1,0,0,0,0,0
1509044734146461052,139193,1509044734146343101,,-0.11344639957,-0.453785598278,0.0,3.1333334446,0,1,0,0,0,0,0
1509044734166471282,139194,1509044734166345986,,-0.11344639957,-0.453785598278,0.0,3.13055562973,0,1,0,0,0,0,0
1509044734186474433,139195,1509044734186350933,,-0.11344639957,-0.453785598278,0.0,3.12777781487,0,1,0,0,0,0,0
1509044734206468730,139196,1509044734206352526,,-0.11344639957,-0.453785598278,0.0,3.12777781487,0,1,0,0,0,0,0
1509044734226566856,139197,1509044734226385749,,-0.11344639957,-0.453785598278,-0.1875,3.12222218513,0,1,0,0,0,0,0
1509044734246500897,139198,1509044734246360365,,-0.11344639957,-0.453785598278,-0.0625,3.11944437027,0,1,0,0,0,0,0
1509044734266466053,139199,1509044734266360615,,-0.11344639957,-0.453785598278,-0.0625,3.1166665554,0,1,0,0,0,0,0
1509044734286482549,139200,1509044734286361945,,-0.11344639957,-0.453785598278,-0.125,3.1166665554,0,1,0,0,0,0,0
1509044734306685600,139201,1509044734306518647,,-0.11344639957,-0.453785598278,-0.125,3.1166665554,0,1,0,0,0,0,0
1509044734326640169,139202,1509044734326454733,,-0.11344639957,-0.453785598278,-0.1875,3.11111116409,0,1,0,0,0,0,0
1509044734346534180,139203,1509044734346370443,,-0.11344639957,-0.453785598278,-0.125,3.1027777195,0,1,0,0,0,0,0
1509044734366591860,139204,1509044734366374811,,-0.111701071262,-0.453785598278,-0.125,3.09999990463,0,1,0,0,0,0,0
1509044734386480432,139205,1509044734386377076,,-0.109955742955,-0.453785598278,-0.1875,3.09999990463,0,1,0,0,0,0,0
1509044734406501575,139206,1509044734406377170,,-0.108210414648,-0.453785598278,0.0,3.09444451332,0,1,0,0,0,0,0
1509044734426569280,139207,1509044734426463024,,-0.108210414648,-0.453785598278,-0.0625,3.08611106873,0,1,0,0,0,0,0
1509044734447125893,139208,1509044734446969341,,-0.108210414648,-0.453785598278,-0.0625,3.07500004768,0,1,0,0,0,0,0
1509044734467127913,139209,1509044734466970564,,-0.108210414648,-0.453785598278,0.0,3.05833339691,0,1,0,0,0,0,0
1509044734487130247,139210,1509044734486970740,,-0.108210414648,-0.453785598278,0.0,3.03333330154,0,1,0,0,0,0,0
1509044734507110618,139211,1509044734506972082,,-0.108210414648,-0.453785598278,-0.0625,3.01111102104,0,1,0,0,0,0,0
1509044734527086104,139212,1509044734526976637,,-0.108210414648,-0.453785598278,0.0,2.99444437027,0,1,0,0,0,0,0
1509044734547084638,139213,1509044734546978663,,-0.108210414648,-0.453785598278,0.0625,2.98333334923,0,1,0,0,0,0,0
1509044734569200229,139214,1509044734566987648,,-0.108210414648,-0.453785598278,0.0625,2.9777777195,0,1,0,0,0,0,0
1509044734589796456,139215,1509044734586993311,,-0.109955742955,-0.453785598278,-0.1875,2.96666669846,0,1,0,0,0,0,0
1509044734607161650,139216,1509044734606986050,,-0.111701071262,-0.453785598278,-0.1875,2.94444441795,0,1,0,0,0,0,0
1509044734627074222,139217,1509044734626988348,,-0.109955742955,-0.453785598278,-0.1875,2.92222213745,0,1,0,0,0,0,0
1509044734647182395,139218,1509044734646997943,,-0.109955742955,-0.453785598278,-0.3125,2.8972222805,0,1,0,0,0,0,0
1509044734667117948,139219,1509044734666994927,,-0.109955742955,-0.453785598278,-0.25,2.8666665554,0,1,0,0,0,0,0
1509044734687147323,139220,1509044734687000971,,-0.108210414648,-0.453785598278,-0.3125,2.83611106873,0,1,0,0,0,0,0
1509044734707108871,139221,1509044734707000590,,-0.104719758034,-0.453785598278,-0.25,2.80833339691,0,1,0,0,0,0,0
1509044734727105947,139222,1509044734727000906,,-0.101229093969,-0.453785598278,-0.25,2.78055548668,0,1,0,0,0,0,0
1509044734747268327,139223,1509044734747047051,,-0.0959931090474,-0.453785598278,-0.3125,2.75555562973,0,1,0,0,0,0,0
1509044734767333771,139224,1509044734767042616,,-0.0890117883682,-0.453785598278,-0.25,2.73055553436,0,1,0,0,0,0,0
1509044734787199099,139225,1509044734787025357,,-0.0785398185253,-0.453785598278,-0.125,2.70000004768,0,1,0,0,0,0,0
1509044734807661463,139226,1509044734807467811,,-0.069813169539,-0.453785598278,-0.1875,2.66666674614,0,1,0,0,0,0,0
1509044734827812231,139227,1509044734827505050,,-0.0628318563104,-0.453785598278,-0.1875,2.63611102104,0,1,0,0,0,0,0
1509044734849912353,139228,1509044734847466195,,-0.0558505356312,-0.453785598278,0.0625,2.60833334923,0,1,0,0,0,0,0
1509044734867614399,139229,1509044734867454034,,-0.0506145469844,-0.453785598278,0.125,2.57777786255,0,1,0,0,0,0,0
1509044734887586638,139230,1509044734887446959,,-0.045378562063,-0.453785598278,0.0,2.544444561,0,1,0,0,0,0,0
1509044734907618095,139231,1509044734907475092,,-0.045378562063,-0.453785598278,-0.1875,2.51388883591,0,1,0,0,0,0,0
1509044734927593984,139232,1509044734927478444,,-0.045378562063,-0.453785598278,-0.125,2.48333334923,0,1,0,0,0,0,0
1509044734947617725,139233,1509044734947478532,,-0.045378562063,-0.453785598278,0.0,2.44722223282,0,1,0,0,0,0,0
1509044734967628402,139234,1509044734967482008,,-0.045378562063,-0.453785598278,-0.0625,2.41666674614,0,1,0,0,0,0,0
1509044734989127379,139235,1509044734988058631,,-0.045378562063,-0.453785598278,-0.125,2.38611102104,0,1,0,0,0,0,0
1509044735007731646,139236,1509044735007521629,,-0.045378562063,-0.453785598278,-0.0625,2.35555553436,0,1,0,0,0,0,0
1509044735027725416,139237,1509044735027471133,,-0.045378562063,-0.453785598278,0.125,2.32500004768,0,1,0,0,0,0,0
1509044735047682557,139238,1509044735047470770,,-0.045378562063,-0.453785598278,0.0625,2.294444561,0,1,0,0,0,0,0
1509044735068307448,139239,1509044735068081584,,-0.045378562063,-0.453785598278,-0.125,2.26111102104,0,1,0,0,0,0,0
1509044735088226764,139240,1509044735088054226,,-0.0471238903701,-0.453785598278,-0.1875,2.22499990463,0,1,0,0,0,0,0
1509044735108370233,139241,1509044735108082926,,-0.0471238903701,-0.453785598278,-0.0625,2.19444441795,0,1,0,0,0,0,0
1509044735128184834,139242,1509044735128058584,,-0.045378562063,-0.453785598278,-0.0625,2.16111111641,0,1,0,0,0,0,0
1509044735148237310,139243,1509044735148061870,,-0.045378562063,-0.453785598278,-0.0625,2.12777781487,0,1,0,0,0,0,0
1509044735168377154,139244,1509044735168097470,,-0.045378562063,-0.453785598278,-0.125,2.09444451332,0,1,0,0,0,0,0
1509044735188269394,139245,1509044735188096293,,-0.045378562063,-0.453785598278,-0.0625,2.06388878822,0,1,0,0,0,0,0
1509044735208341779,139246,1509044735208073470,,-0.045378562063,-0.453785598278,-0.1875,2.03333330154,0,1,0,0,0,0,0
1509044735228318768,139247,1509044735228101189,,-0.045378562063,-0.453785598278,-0.1875,2.0,0,1,0,0,0,0,0
1509044735248324825,139248,1509044735248083760,,-0.045378562063,-0.453785598278,-0.125,1.96666669846,0,1,0,0,0,0,0
1509044735268334678,139249,1509044735268103325,,-0.0436332300305,-0.453785598278,-0.1875,1.93055558205,0,1,0,0,0,0,0
1509044735288335637,139250,1509044735288133539,,-0.0436332300305,-0.453785598278,-0.1875,1.89444446564,0,1,0,0,0,0,0
1509044735308568419,139251,1509044735308108842,,-0.0436332300305,-0.453785598278,-0.1875,1.85833334923,0,1,0,0,0,0,0
1509044735328266086,139252,1509044735328110168,,-0.0436332300305,-0.453785598278,-0.1875,1.82222223282,0,1,0,0,0,0,0
1509044735348228764,139253,1509044735348089902,,-0.0436332300305,-0.453785598278,-0.1875,1.78333330154,0,1,0,0,0,0,0
1509044735368266048,139254,1509044735368090495,,-0.0436332300305,-0.453785598278,-0.125,1.74444448948,0,1,0,0,0,0,0
1509044735388304985,139255,1509044735388094698,,-0.0436332300305,-0.453785598278,-0.0625,1.71111106873,0,1,0,0,0,0,0
1509044735409127579,139256,1509044735408129046,,-0.0436332300305,-0.453785598278,-0.125,1.67777776718,0,1,0,0,0,0,0
1509044735428336821,139257,1509044735428121229,,-0.0436332300305,-0.453785598278,-0.125,1.63888883591,0,1,0,0,0,0,0
1509044735448706397,139258,1509044735448528949,,-0.0436332300305,-0.453785598278,0.0,1.6027777195,0,1,0,0,0,0,0
1509044735468684250,139259,1509044735468553849,,-0.0436332300305,-0.453785598278,-0.0625,1.5666667223,0,1,0,0,0,0,0
1509044735488726226,139260,1509044735488547583,,-0.0436332300305,-0.453785598278,-0.0625,1.53055560589,0,1,0,0,0,0,0
1509044735508737116,139261,1509044735508557593,,-0.0436332300305,-0.453785598278,-0.125,1.49444448948,0,1,0,0,0,0,0
1509044735528685795,139262,1509044735528531600,,-0.0436332300305,-0.453785598278,-0.1875,1.45833337307,0,1,0,0,0,0,0
1509044735548811035,139263,1509044735548547049,,-0.0418879017234,-0.453785598278,-0.0625,1.4194444418,0,1,0,0,0,0,0
1509044735568874654,139264,1509044735568584508,,-0.0418879017234,-0.453785598278,-0.125,1.38055551052,0,1,0,0,0,0,0
1509044735588692528,139265,1509044735588541442,,-0.0401425734162,-0.453785598278,-0.1875,1.34166669846,0,1,0,0,0,0,0
1509044735608743218,139266,1509044735608569555,,-0.0401425734162,-0.453785598278,-0.125,1.30277776718,0,1,0,0,0,0,0
1509044735629304550,139267,1509044735629151296,,-0.0383972451091,-0.453785598278,-0.125,1.26388883591,0,1,0,0,0,0,0
1509044735649315633,139268,1509044735649150530,,-0.0383972451091,-0.453785598278,-0.125,1.2277777195,0,1,0,0,0,0,0
1509044735668738007,139269,1509044735668576979,,-0.0383972451091,-0.453785598278,-0.125,1.19722223282,0,1,0,0,0,0,0
1509044735688735659,139270,1509044735688580322,,-0.0383972451091,-0.453785598278,-0.1875,1.16111111641,0,1,0,0,0,0,0
1509044735709270361,139271,1509044735709140102,,-0.0366519130766,-0.453785598278,-0.1875,1.12222218513,0,1,0,0,0,0,0
1509044735729562483,139272,1509044735729450393,,-0.0366519130766,-0.453785598278,-0.25,1.0805555582,0,1,0,0,0,0,0
1509044735749294183,139273,1509044735749139170,,-0.0366519130766,-0.453785598278,-0.25,1.04166662693,0,1,0,0,0,0,0
1509044735769379045,139274,1509044735769166895,,-0.0366519130766,-0.453785598278,-0.25,1.00555551052,0,1,0,0,0,0,0
1509044735789292179,139275,1509044735789145786,,-0.0366519130766,-0.453785598278,-0.25,0.966666638851,0,1,0,0,0,0,0
1509044735809276957,139276,1509044735809150139,,-0.0349065847695,-0.453785598278,-0.1875,0.930555582047,0,1,0,0,0,0,0
1509044735829782285,139277,1509044735829170059,,-0.0349065847695,-0.453785598278,-0.1875,0.899999976158,0,1,0,0,0,0,0
1509044735849370531,139278,1509044735849181608,,-0.0331612564623,-0.453785598278,-0.1875,0.869444429874,0,1,0,0,0,0,0
1509044735869370655,139279,1509044735869180329,,-0.0314159281552,-0.453785598278,-0.1875,0.841666638851,0,1,0,0,0,0,0
1509044735889461657,139280,1509044735889214521,,-0.0296705979854,-0.453785598278,-0.1875,0.813888907433,0,1,0,0,0,0,0
1509044735909320851,139281,1509044735909169552,,-0.0279252678156,-0.453785598278,-0.125,0.783333361149,0,1,0,0,0,0,0
1509044735929302866,139282,1509044735929164115,,-0.0244346093386,-0.453785598278,-0.125,0.755555570126,0,1,0,0,0,0,0
1509044735949343426,139283,1509044735949217520,,-0.0226892810315,-0.453785598278,-0.0625,0.727777779102,0,1,0,0,0,0,0
1509044735969306465,139284,1509044735969169480,,-0.0226892810315,-0.453785598278,-0.0625,0.699999988079,0,1,0,0,0,0,0
1509044735989366529,139285,1509044735989172272,,-0.0226892810315,-0.453785598278,-0.125,0.675000011921,0,1,0,0,0,0,0
1509044736009356479,139286,1509044736009204832,,-0.0226892810315,-0.453785598278,-0.125,0.647222220898,0,1,0,0,0,0,0
1509044736029390880,139287,1509044736029202021,,-0.0226892810315,-0.453785598278,-0.125,0.625,0,1,0,0,0,0,0
1509044736049384664,139288,1509044736049208185,,-0.0226892810315,-0.453785598278,-0.125,0.600000023842,0,1,0,0,0,0,0
1509044736069355293,139289,1509044736069182207,,-0.0226892810315,-0.453785598278,-0.125,0.574999988079,0,1,0,0,0,0,0
1509044736089811137,139290,1509044736089653940,,-0.0226892810315,-0.453785598278,-0.125,0.552777767181,0,1,0,0,0,0,0
1509044736111240104,139291,1509044736109627750,,-0.0226892810315,-0.453785598278,-0.125,0.530555546284,0,1,0,0,0,0,0
1509044736129766748,139292,1509044736129632369,,-0.0209439508617,-0.453785598278,-0.125,0.513888895512,0,1,0,0,0,0,0
1509044736149771577,139293,1509044736149634356,,-0.0209439508617,-0.453785598278,-0.125,0.497222214937,0,1,0,0,0,0,0
1509044736169799195,139294,1509044736169636575,,-0.0209439508617,-0.453785598278,-0.0625,0.480555564165,0,1,0,0,0,0,0
1509044736189778628,139295,1509044736189618184,,-0.0191986225545,-0.453785598278,-0.0625,0.469444453716,0,1,0,0,0,0,0
1509044736209805966,139296,1509044736209642369,,-0.0174532923847,-0.453785598278,-0.0625,0.455555558205,0,1,0,0,0,0,0
1509044736229792591,139297,1509044736229653812,,-0.0174532923847,-0.453785598278,-0.125,0.444444447756,0,1,0,0,0,0,0
1509044736249788718,139298,1509044736249626343,,-0.0174532923847,-0.453785598278,-0.125,0.433333337307,0,1,0,0,0,0,0
1509044736269786335,139299,1509044736269629277,,-0.0174532923847,-0.453785598278,-0.125,0.422222226858,0,1,0,0,0,0,0
1509044736289817876,139300,1509044736289654177,,-0.0157079640776,-0.453785598278,-0.0625,0.411111116409,0,1,0,0,0,0,0
1509044736309806521,139301,1509044736309657358,,-0.0157079640776,-0.453785598278,-0.0625,0.402777791023,0,1,0,0,0,0,0
1509044736331656816,139302,1509044736329639080,,-0.0157079640776,-0.453785598278,-0.0625,0.397222220898,0,1,0,0,0,0,0
1509044736350419098,139303,1509044736350248854,,-0.0157079640776,-0.453785598278,-0.0625,0.388888895512,0,1,0,0,0,0,0
1509044736370398729,139304,1509044736370222643,,-0.0157079640776,-0.453785598278,-0.0625,0.383333325386,0,1,0,0,0,0,0
1509044736390492242,139305,1509044736390259993,,-0.0157079640776,-0.453785598278,-0.0625,0.377777785063,0,1,0,0,0,0,0
1509044736410434955,139306,1509044736410256824,,-0.0157079640776,-0.453785598278,-0.0625,0.372222214937,0,1,0,0,0,0,0
1509044736430477643,139307,1509044736430261217,,-0.0157079640776,-0.453785598278,-0.125,0.366666674614,0,1,0,0,0,0,0
1509044736450464034,139308,1509044736450262500,,-0.0157079640776,-0.453785598278,-0.0625,0.363888889551,0,1,0,0,0,0,0
1509044736470468601,139309,1509044736470258675,,-0.0157079640776,-0.453785598278,-0.125,0.358333319426,0,1,0,0,0,0,0
1509044736490467194,139310,1509044736490270787,,-0.0157079640776,-0.453785598278,-0.1875,0.358333319426,0,1,0,0,0,0,0
1509044736511164429,139311,1509044736510282643,,-0.0157079640776,-0.453785598278,-0.1875,0.355555564165,0,1,0,0,0,0,0
1509044736530453166,139312,1509044736530273838,,-0.0157079640776,-0.453785598278,-0.0625,0.352777779102,0,1,0,0,0,0,0
1509044736550425741,139313,1509044736550249742,,-0.0139626339078,-0.453785598278,-0.0625,0.352777779102,0,1,0,0,0,0,0
1509044736570434690,139314,1509044736570273795,,-0.0139626339078,-0.453785598278,-0.1875,0.352777779102,0,1,0,0,0,0,0
1509044736590547043,139315,1509044736590275916,,-0.0122173046693,-0.0122173046693,-0.3125,0.352777779102,0,0,0,0,0,0,0
1509044736610400116,139316,1509044736610255803,,-0.0122173046693,-0.0122173046693,-0.3125,0.352777779102,0,0,0,0,0,0,0
1509044736630405410,139317,1509044736630257447,,-0.0122173046693,-0.0122173046693,-0.25,0.352777779102,0,0,0,0,0,0,0
1509044736650462593,139318,1509044736650290920,,-0.0122173046693,-0.0122173046693,-0.3125,0.352777779102,0,0,0,0,0,0,0
1509044736670458433,139319,1509044736670295230,,-0.0122173046693,-0.0122173046693,-0.4375,0.352777779102,0,0,0,0,0,0,0
1509044736690440176,139320,1509044736690295150,,-0.0122173046693,0.00523598771542,-0.4375,0.352777779102,1,0,0,0,0,0,0
1509044736715640152,139321,1509044736710296825,,-0.0122173046693,0.00523598771542,-0.3125,0.352777779102,1,0,0,0,0,0,0
1509044736730931848,139322,1509044736730693207,,-0.0122173046693,0.00523598771542,-0.25,0.352777779102,1,0,0,0,0,0,0
1509044736750937669,139323,1509044736750726408,,-0.0122173046693,0.00523598771542,-0.3125,0.355555564165,1,0,0,0,0,0,0
1509044736770937703,139324,1509044736770729273,,-0.0122173046693,0.00523598771542,-0.4375,0.358333319426,1,0,0,0,0,0,0
1509044736790857060,139325,1509044736790700312,,-0.0122173046693,0.00523598771542,-0.5,0.361111104488,1,0,0,0,0,0,0
1509044736810813212,139326,1509044736810699069,,-0.0122173046693,0.00523598771542,-0.4375,0.366666674614,1,0,0,0,0,0,0
1509044736830830040,139327,1509044736830705480,,-0.0122173046693,0.00523598771542,-0.25,0.369444429874,1,0,0,0,0,0,0
1509044736850905733,139328,1509044736850753433,,-0.0104719754308,0.00523598771542,-0.125,0.380555570126,1,0,0,0,0,0,0
1509044736870987114,139329,1509044736870789386,,-0.0104719754308,0.00523598771542,-0.125,0.391666680574,1,0,0,0,0,0,0
1509044736890881097,139330,1509044736890794719,,-0.00872664619237,0.00523598771542,-0.1875,0.405555546284,1,0,0,0,0,0,0
1509044736910933446,139331,1509044736910761928,,-0.00872664619237,0.00523598771542,-0.125,0.425000011921,1,0,0,0,0,0,0
1509044736930972559,139332,1509044736930804488,,-0.00872664619237,0.00523598771542,0.0,0.449999988079,1,0,0,0,0,0,0
1509044736950910043,139333,1509044736950798564,,-0.00872664619237,0.0872664600611,-0.0625,0.483333319426,1,0,0,0,0,0,0
1509044736970911611,139334,1509044736970805234,,-0.00872664619237,0.261799395084,0.0,0.519444465637,1,0,0,0,0,0,0
1509044736991466046,139335,1509044736991303147,,-0.0069813169539,0.436332315207,0.0,0.563888907433,1,0,0,0,0,0,0
1509044737011480701,139336,1509044737011329262,,-0.00523598771542,0.507890820503,-0.25,0.605555534363,1,0,0,0,0,0,0
1509044737031053854,139337,1509044737030952922,,0.00174532923847,0.507890820503,-0.8125,0.649999976158,1,0,0,0,0,0,0
1509044737051407426,139338,1509044737051311800,,0.0174532923847,-0.0872664600611,-1.5,0.697222232819,1,0,0,0,0,0,0
1509044737071460779,139339,1509044737071313800,,0.0418879017234,-0.261799395084,-1.625,0.74722224474,1,0,0,0,0,0,0
1509044737091527659,139340,1509044737091398740,,0.0750491544604,-0.312413930893,-1.3125,0.805555582047,1,0,0,0,0,0,0
1509044737111629299,139341,1509044737111322622,,0.115191727877,-0.312413930893,-0.5,0.87222224474,1,0,0,0,0,0,0
1509044737131466386,139342,1509044737131327117,,0.153588980436,-0.312413930893,0.8125,0.938888907433,1,0,0,0,0,0,0
1509044737151589492,139343,1509044737151409451,,0.183259576559,0.0750491544604,1.9375,1.00555551052,1,0,0,0,0,0,0
1509044737171497916,139344,1509044737171415769,,0.200712859631,-0.0994837656617,2.4375,1.07222223282,1,0,0,0,0,0,0
1509044737194316191,139345,1509044737193809670,,0.195476874709,-0.274016678333,2.25,1.13333332539,1,0,0,0,0,0,0
1509044737211530746,139346,1509044737211426187,,0.165806278586,-0.36477380991,1.625,1.19722223282,1,0,0,0,0,0,0
1509044737232906254,139347,1509044737231364349,,0.129154369235,-0.36477380991,0.9375,1.26666665077,1,0,0,0,0,0,0
1509044737251597048,139348,1509044737251435808,,0.0680678412318,0.00349065847695,0.5,1.33333337307,1,0,0,0,0,0,0
1509044737271587326,139349,1509044737271468296,,0.00523598771542,-0.171042263508,-0.375,1.39999997616,1,0,0,0,0,0,0
1509044737291886752,139350,1509044737291765963,,-0.0488692186773,-0.343829870224,-1.4375,1.47500002384,1,0,0,0,0,0,0
1509044737311562649,139351,1509044737311440974,,-0.0942477807403,-0.343829870224,-2.125,1.54722225666,1,0,0,0,0,0,0
1509044737331544514,139352,1509044737331434255,,-0.125663712621,-0.343829870224,-1.5625,1.61944448948,1,0,0,0,0,0,0
1509044737351562874,139353,1509044737351435210,,-0.150098308921,-0.237364783883,-0.8125,1.69444441795,1,0,0,0,0,0,0
1509044737371619689,139354,1509044737371487107,,-0.153588980436,-0.406661719084,-0.1875,1.76666665077,1,0,0,0,0,0,0
1509044737392532380,139355,1509044737392363087,,-0.157079637051,-0.406661719084,0.6875,1.84444439411,1,0,0,0,0,0,0
1509044737411907336,139356,1509044737411779950,,-0.158824965358,-0.406661719084,0.8125,1.92777776718,1,0,0,0,0,0,0
1509044737431943920,139357,1509044737431809759,,-0.165806278586,-0.406661719084,1.25,2.01111102104,1,0,0,0,0,0,0
1509044737451708718,139358,1509044737451592820,,-0.186750233173,-0.30194196105,0.9375,2.09166669846,1,0,0,0,0,0,0
1509044737472010707,139359,1509044737471841957,,-0.20769418776,-0.127409040928,0.625,2.16666674614,1,0,0,0,0,0,0
1509044737491917580,139360,1509044737491793948,,-0.233874112368,0.0471238903701,0.0625,2.24444437027,1,0,0,0,0,0,0
1509044737511978916,139361,1509044737511796641,,-0.254818081856,0.221656814218,-0.8125,2.31666660309,1,0,0,0,0,0,0
1509044737532032115,139362,1509044737531891612,,-0.26354470849,0.396189749241,-1.6875,2.38611102104,1,0,0,0,0,0,0
1509044737552131249,139363,1509044737551882398,,-0.260054051876,-0.160570293665,-2.375,2.46388888359,1,0,0,0,0,0,0
1509044737571968374,139364,1509044737571884972,,-0.240855440497,0.0139626339078,-2.1875,2.53888893127,1,0,0,0,0,0,0
1509044737591993760,139365,1509044737591886517,,-0.191986218095,0.188495561481,-2.4375,2.61388897896,1,0,0,0,0,0,0
1509044737611946076,139366,1509044737611807042,,-0.139626339078,0.363028496504,-1.0,2.68888878822,1,0,0,0,0,0,0
1509044737631985253,139367,1509044737631892499,,-0.0733038261533,0.537561416626,0.6875,2.76111102104,1,0,0,0,0,0,0
1509044737652712597,139368,1509044737652400056,,-0.0139626339078,0.0593411959708,1.4375,2.83611106873,1,0,0,0,0,0,0
1509044737672519771,139369,1509044737672394164,,0.0506145469844,0.233874112368,1.5,2.91111111641,1,0,0,0,0,0,0
1509044737692519299,139370,1509044737692399173,,0.102974422276,0.40840703249,0.5,2.98611116409,1,0,0,0,0,0,0
1509044737712531865,139371,1509044737712404452,,0.143116995692,0.582939982414,1.0625,3.06388878822,1,0,0,0,0,0,0
1509044737732601168,139372,1509044737732408508,,0.165806278586,0.720820963383,0.6875,3.13611102104,1,0,0,0,0,0,0
1509044737753127601,139373,1509044737752501441,,0.178023576736,0.275762021542,0.3125,3.21111106873,1,0,0,0,0,0,0
1509044737772575007,139374,1509044737772431316,,0.202458187938,0.450294941664,-1.3125,3.28888893127,1,0,0,0,0,0,0
1509044737792495992,139375,1509044737792410646,,0.226892799139,0.624827861786,-1.9375,3.36388897896,1,0,0,0,0,0,0
1509044737812590903,139376,1509044737812494192,,0.249582082033,0.740019619465,-1.125,3.44444441795,1,0,0,0,0,0,0
1509044737832554752,139377,1509044737832417694,,0.275762021542,0.740019619465,-0.6875,3.52777767181,1,0,0,0,0,0,0
1509044737853049399,139378,1509044737852427044,,0.312413930893,0.188495561481,-0.5,3.60555553436,1,0,0,0,0,0,0
1509044737872618244,139379,1509044737872518070,,0.363028496504,0.0139626339078,-0.5,3.67777776718,1,0,0,0,0,0,0
1509044737892705741,139380,1509044737892425452,,0.404916375875,-0.160570293665,0.0625,3.73888897896,1,0,0,0,0,0,0
1509044737912634036,139381,1509044737912514277,,0.441568315029,-0.335103213787,1.0625,3.79166674614,1,0,0,0,0,0,0
1509044737932543045,139382,1509044737932431420,,0.460766911507,-0.390953749418,2.0,3.84166669846,1,0,0,0,0,0,0
1509044737952705896,139383,1509044737952456575,,0.469493567944,-0.27750736475,1.875,3.87777781487,1,0,0,0,0,0,0
1509044737973039685,139384,1509044737972881051,,0.450294941664,-0.102974422276,2.3125,3.8972222805,1,0,0,0,0,0,0
1509044737993088675,139385,1509044737992880370,,0.40840703249,0.0715584978461,2.25,3.90555548668,1,0,0,0,0,0,0
1509044738012993304,139386,1509044738012858772,,0.34557518363,0.246091425419,1.4375,3.91111111641,1,0,0,0,0,0,0
1509044738033063124,139387,1509044738032866160,,0.275762021542,0.420624345541,-0.1875,3.919444561,1,0,0,0,0,0,0
1509044738053069369,139388,1509044738052873907,,0.211184844375,0.134390354156,-2.1875,3.93333339691,1,0,0,0,0,0,0
1509044738073030909,139389,1509044738072869004,,0.155334308743,-0.0401425734162,-3.125,3.96111106873,1,0,0,0,0,0,0
1509044738093017113,139390,1509044738092871084,,0.11344639957,-0.214675500989,-3.4375,3.97499990463,1,0,0,0,0,0,0
1509044738113004861,139391,1509044738112877585,,0.0942477807403,-0.389208436012,-2.0,4.01111125946,1,0,0,0,0,0,0
1509044738133259577,139392,1509044738132879448,,0.0959931090474,-0.563741326332,-1.0625,4.02222204208,1,0,0,0,0,0,0
1509044738153059229,139393,1509044738152884046,,0.111701071262,-0.692895710468,0.9375,4.02222204208,1,0,0,0,0,0,0
1509044738173060137,139394,1509044738172881021,,0.111701071262,-0.713839650154,2.5625,4.02222204208,1,0,0,0,0,0,0
1509044738193027684,139395,1509044738192887894,,0.102974422276,-0.713839650154,3.0625,4.02500009537,1,0,0,0,0,0,0
1509044738213030264,139396,1509044738212889092,,0.0733038261533,-0.713839650154,3.125,4.03888893127,1,0,0,0,0,0,0
1509044738233105112,139397,1509044738232970565,,0.0191986225545,-0.713839650154,2.375,4.04166650772,1,0,0,0,0,0,0
1509044738253114580,139398,1509044738252896499,,-0.0593411959708,0.0977384373546,1.375,4.04722213745,1,0,0,0,0,0,0
1509044738273147553,139399,1509044738272928984,,-0.155334308743,0.162315621972,0.0625,4.04722213745,1,0,0,0,0,0,0
1509044738293152333,139400,1509044738292977950,,-0.251327425241,0.162315621972,-1.5625,4.04722213745,1,0,0,0,0,0,0
1509044738313993859,139401,1509044738313231561,,-0.333357900381,0.162315621972,-2.75,4.03888893127,1,0,0,0,0,0,0
1509044738333638616,139402,1509044738333510042,,-0.401425719261,0.162315621972,-3.0625,4.03333330154,1,0,0,0,0,0,0
1509044738353654515,139403,1509044738353509051,,-0.439822971821,-0.312413930893,-3.1875,4.02777767181,1,0,0,0,0,0,0
1509044738373838848,139404,1509044738373593284,,-0.448549628258,-0.137881010771,-2.8125,4.01944446564,1,0,0,0,0,0,0
1509044738393630614,139405,1509044738393495533,,-0.418879032135,0.0366519130766,-2.5,4.01388883591,1,0,0,0,0,0,0
1509044738413639426,139406,1509044738413494326,,-0.371755123138,0.0575958639383,-1.25,4.00833320618,1,0,0,0,0,0,0
1509044738433658380,139407,1509044738433525364,,-0.308923274279,0.0575958639383,0.1875,4.0,1,0,0,0,0,0,0
1509044738454174079,139408,1509044738453500782,,-0.242600768805,-0.390953749418,1.25,3.98611116409,1,0,0,0,0,0,0
1509044738473653168,139409,1509044738473532303,,-0.179768919945,-0.56548666954,2.0,3.97499990463,1,0,0,0,0,0,0
1509044738493631016,139410,1509044738493508071,,-0.130899697542,-0.740019619465,2.0,3.96666669846,1,0,0,0,0,0,0
1509044738513997720,139411,1509044738513513561,,-0.102974422276,-0.914552509785,2.1875,3.96111106873,1,0,0,0,0,0,0
1509044738533614593,139412,1509044738533513021,,-0.0994837656617,-1.05243349075,1.9375,3.955555439,1,0,0,0,0,0,0
1509044738553773432,139413,1509044738553523239,,-0.125663712621,-0.93026047945,2.0625,3.95000004768,1,0,0,0,0,0,0
1509044738573694151,139414,1509044738573520773,,-0.169296935201,-0.75572758913,2.125,3.93611121178,1,0,0,0,0,0,0
1509044738593616607,139415,1509044738593522207,,-0.233874112368,-0.581194639206,2.0625,3.92777776718,1,0,0,0,0,0,0
1509044738613641119,139416,1509044738613523423,,-0.308923274279,-0.406661719084,0.875,3.92222213745,1,0,0,0,0,0,0
1509044738633676102,139417,1509044738633524508,,-0.389208436012,-0.23212878406,-1.0,3.92222213745,1,0,0,0,0,0,0
1509044738653652626,139418,1509044738653529589,,-0.453785598278,-0.310668617487,-2.75,3.93055558205,1,0,0,0,0,0,0
1509044738674067431,139419,1509044738673952013,,-0.509636163712,-0.193731546402,-3.125,3.93333339691,1,0,0,0,0,0,0
1509044738694068304,139420,1509044738693957682,,-0.541052043438,-0.193731546402,-3.0,3.92499995232,1,0,0,0,0,0,0
1509044738714188218,139421,1509044738713985907,,-0.539306759834,-0.193731546402,-2.5,3.92222213745,1,0,0,0,0,0,0
1509044738734115089,139422,1509044738733985764,,-0.509636163712,-0.193731546402,-2.0625,3.919444561,1,0,0,0,0,0,0
1509044738754102646,139423,1509044738753960812,,-0.462512254715,-0.315904587507,-1.0,3.91111111641,1,0,0,0,0,0,0
1509044738774141050,139424,1509044738773965094,,-0.399680405855,-0.490437507629,0.5,3.90000009537,1,0,0,0,0,0,0
1509044738794139306,139425,1509044738793965563,,-0.343829870224,-0.664970457554,2.0,3.88888883591,1,0,0,0,0,0,0
1509044738814140058,139426,1509044738813969201,,-0.298451304436,-0.839503347874,2.9375,3.88055562973,1,0,0,0,0,0,0
1509044738834173071,139427,1509044738833993793,,-0.267035365105,-1.0140362978,2.75,3.86944437027,1,0,0,0,0,0,0
1509044738854083980,139428,1509044738853974100,,-0.27750736475,-0.392699092627,3.0,3.85555553436,1,0,0,0,0,0,0
1509044738874091402,139429,1509044738873979444,,-0.300196617842,-0.460766911507,2.875,3.84722232819,1,0,0,0,0,0,0
1509044738894122242,139430,1509044738893983074,,-0.363028496504,-0.460766911507,2.125,3.84166669846,1,0,0,0,0,0,0
1509044738914603011,139431,1509044738913997884,,-0.436332315207,-0.460766911507,1.125,3.83611106873,1,0,0,0,0,0,0
1509044738934740596,139432,1509044738934593869,,-0.513126790524,-0.460766911507,-0.875,3.830555439,1,0,0,0,0,0,0
1509044738954713559,139433,1509044738954570534,,-0.579449295998,-0.558505356312,-2.75,3.81944441795,1,0,0,0,0,0,0
1509044738974795672,139434,1509044738974603556,,-0.633554518223,-0.558505356312,-3.4375,3.81111121178,1,0,0,0,0,0,0
1509044738994723861,139435,1509044738994600571,,-0.666715800762,-0.558505356312,-3.125,3.80277776718,1,0,0,0,0,0,0
1509044739014725623,139436,1509044739014580767,,-0.673697113991,-0.558505356312,-2.0,3.78888893127,1,0,0,0,0,0,0
1509044739034770546,139437,1509044739034608445,,-0.651007831097,-0.558505356312,-1.3125,3.77500009537,1,0,0,0,0,0,0
1509044739054705537,139438,1509044739054584814,,-0.614355921745,-0.661479771137,-0.1875,3.76111102104,1,0,0,0,0,0,0
1509044739074693800,139439,1509044739074585362,,-0.575958669186,-0.661479771137,1.25,3.7583334446,1,0,0,0,0,0,0
1509044739094798048,139440,1509044739094594942,,-0.539306759834,-0.661479771137,2.125,3.75277781487,1,0,0,0,0,0,0
1509044739114721444,139441,1509044739114595691,,-0.514872133732,-0.661479771137,2.4375,3.75,1,0,0,0,0,0,0
1509044739134696836,139442,1509044739134591672,,-0.506145477295,-0.661479771137,2.25,3.74444437027,1,0,0,0,0,0,0
1509044739154742623,139443,1509044739154597889,,-0.514872133732,-0.638790488243,1.5,3.7416665554,1,0,0,0,0,0,0
1509044739174812030,139444,1509044739174601913,,-0.541052043438,-0.813323438168,0.875,3.7416665554,1,0,0,0,0,0,0
1509044739194736656,139445,1509044739194604284,,-0.572467982769,-0.987856328487,-0.125,3.7416665554,1,0,0,0,0,0,0
1509044739214708117,139446,1509044739214602661,,-0.602138578892,-1.16238927841,-1.125,3.73333334923,1,0,0,0,0,0,0
1509044739234793681,139447,1509044739234630814,,-0.626573204994,-1.33692216873,-0.6875,3.73055553436,1,0,0,0,0,0,0
1509044739254766318,139448,1509044739254632822,,-0.656243801117,-0.7731808424,0.3125,3.72222232819,1,0,0,0,0,0,0
1509044739274817642,139449,1509044739274645184,,-0.684169054031,-0.947713792324,1.6875,3.71388888359,1,0,0,0,0,0,0
1509044739294843008,139450,1509044739294634132,,-0.713839650154,-1.12224674225,2.1875,3.705555439,1,0,0,0,0,0,0
1509044739315665072,139451,1509044739315050804,,-0.747000932693,-1.29677963257,1.4375,3.69444441795,1,0,0,0,0,0,0
1509044739335191048,139452,1509044739335068214,,-0.783652842045,-1.47131252289,0.875,3.68611121178,1,0,0,0,0,0,0
1509044739355164729,139453,1509044739355044651,,-0.829031407833,-0.937241792679,0.625,3.67777776718,1,0,0,0,0,0,0
1509044739375246696,139454,1509044739375051198,,-0.883136630058,-0.945968449116,0.5,3.66388893127,1,0,0,0,0,0,0
1509044739395189994,139455,1509044739395052750,,-0.938987135887,-0.945968449116,0.6875,3.6472222805,1,0,0,0,0,0,0
1509044739415234651,139456,1509044739415133934,,-0.991347014904,-0.945968449116,-0.0625,3.63055562973,1,0,0,0,0,0,0
1509044739435420011,139457,1509044739435151115,,-1.02974426746,-0.945968449116,-1.25,3.6166665554,1,0,0,0,0,0,0
1509044739455259032,139458,1509044739455079750,,-1.05417883396,-1.17286121845,-2.1875,3.6027777195,1,0,0,0,0,0,0
1509044739475301628,139459,1509044739475086743,,-1.06814146042,-1.34739422798,-2.0625,3.58611106873,1,0,0,0,0,0,0
1509044739495302520,139460,1509044739495070009,,-1.06639611721,-1.5219271183,-1.1875,3.57222223282,1,0,0,0,0,0,0
1509044739515333656,139461,1509044739515077318,,-1.05417883396,-1.69646000862,0.1875,3.56388878822,1,0,0,0,0,0,0
1509044739535194845,139462,1509044739535066454,,-1.04894292355,-1.87099289894,2.3125,3.55555558205,1,0,0,0,0,0,0
1509044739555246162,139463,1509044739555092255,,-1.04894292355,-1.17984259129,3.125,3.55277776718,1,0,0,0,0,0,0
1509044739575605549,139464,1509044739575088568,,-1.05592417717,-1.35437548161,3.375,3.54722213745,1,0,0,0,0,0,0
1509044739595786324,139465,1509044739595655720,,-1.09083080292,-1.52890837193,3.125,3.544444561,1,0,0,0,0,0,0
1509044739615834140,139466,1509044739615678096,,-1.1344640255,-1.70344138145,2.25,3.53611111641,1,0,0,0,0,0,0
1509044739635981019,139467,1509044739635725470,,-1.19729590416,-1.87797427177,1.1875,3.53055548668,1,0,0,0,0,0,0
1509044739655862656,139468,1509044739655752290,,-1.26885437965,-1.77325451374,0.4375,3.5222222805,1,0,0,0,0,0,0
1509044739675876041,139469,1509044739675690483,,-1.34390354156,-1.59872162342,-0.375,3.5222222805,1,0,0,0,0,0,0
1509044739695859956,139470,1509044739695682884,,-1.41546201706,-1.42418861389,-0.625,3.51944446564,1,0,0,0,0,0,0
1509044739715951780,139471,1509044739715684957,,-1.47654855251,-1.24965572357,-1.1875,3.5083334446,1,0,0,0,0,0,0
1509044739735857650,139472,1509044739735673348,,-1.52018177509,-1.19729590416,-1.875,3.50277781487,1,0,0,0,0,0,0
1509044739755867504,139473,1509044739755755550,,-1.54461634159,-1.6667894125,-2.25,3.50555562973,1,0,0,0,0,0,0
1509044739775857064,139474,1509044739775682734,,-1.54985237122,-1.84132230282,-2.125,3.50277781487,1,0,0,0,0,0,0
1509044739795959214,139475,1509044739795708856,,-1.53065371513,-2.01585531235,-1.75,3.49444437027,1,0,0,0,0,0,0
1509044739815892773,139476,1509044739815765247,,-1.50272846222,-2.19038820267,-0.3125,3.49444437027,1,0,0,0,0,0,0
1509044739835899891,139477,1509044739835770511,,-1.47654855251,-2.29336261749,1.75,3.4916665554,1,0,0,0,0,0,0
1509044739855868709,139478,1509044739855772071,,-1.45734989643,-2.3911011219,3.125,3.48888897896,1,0,0,0,0,0,0
1509044739875869771,139479,1509044739875771918,,-1.43989658356,-2.3911011219,3.5625,3.48333334923,1,0,0,0,0,0,0
1509044739895865254,139480,1509044739895776209,,-1.44338726997,-2.3911011219,3.5,3.46666669846,1,0,0,0,0,0,0
1509044739917274968,139481,1509044739915778617,,-1.47131252289,-2.3911011219,3.5,3.45000004768,1,0,0,0,0,0,0
1509044739935996428,139482,1509044739935805800,,-1.5219271183,-2.3911011219,3.125,3.44166660309,1,0,0,0,0,0,0
1509044739955884517,139483,1509044739955785916,,-1.58824956417,-1.6929693222,2.625,3.43888878822,1,0,0,0,0,0,0
1509044739975948013,139484,1509044739975785409,,-1.67377078533,-1.86750233173,2.0,3.42777776718,1,0,0,0,0,0,0
1509044739995890390,139485,1509044739995787254,,-1.77150917053,-2.04203534126,1.125,3.41111111641,1,0,0,0,0,0,0
1509044740016286409,139486,1509044740016151988,,-1.87273824215,-2.21656823158,-0.1875,3.3972222805,1,0,0,0,0,0,0
1509044740036302800,139487,1509044740036183436,,-1.96524071693,-2.3911011219,-2.125,3.38888883591,1,0,0,0,0,0,0
1509044740056291537,139488,1509044740056160244,,-2.03679919243,-2.48709416389,-3.1875,3.37777781487,1,0,0,0,0,0,0
1509044740076267155,139489,1509044740076136993,,-2.09963107109,-2.48709416389,-2.6875,3.3666665554,1,0,0,0,0,0,0
1509044740096318126,139490,1509044740096165080,,-2.14151906967,-2.48709416389,-1.5625,3.35833334923,1,0,0,0,0,0,0
1509044740116248287,139491,1509044740116142408,,-2.16246294975,-2.48709416389,-0.0625,3.3527777195,1,0,0,0,0,0,0
1509044740136240464,139492,1509044740136145805,,-2.174680233,-2.48709416389,1.25,3.34444451332,1,0,0,0,0,0,0
1509044740156327634,139493,1509044740156175145,,-2.18340682983,-2.32826924324,1.75,3.330555439,1,0,0,0,0,0,0
1509044740176363635,139494,1509044740176155193,,-2.19562411308,-2.45393300056,2.0,3.31944441795,1,0,0,0,0,0,0
1509044740196335447,139495,1509044740196179964,,-2.21656823158,-2.45393300056,1.8125,3.31388878822,1,0,0,0,0,0,0
1509044740216859663,139496,1509044740216736189,,-2.2462387085,-2.45393300056,0.8125,3.30833339691,1,0,0,0,0,0,0
1509044740236951702,139497,1509044740236772886,,-2.27940011024,-2.45393300056,0.5,3.29722213745,1,0,0,0,0,0,0
1509044740256915060,139498,1509044740256767936,,-2.31954264641,-2.4155356884,-0.1875,3.28611111641,1,0,0,0,0,0,0
