%time,field.header.seq,field.header.stamp,field.header.frame_id,field.pose.position.x,field.pose.position.y,field.pose.position.z,field.pose.orientation.x,field.pose.orientation.y,field.pose.orientation.z,field.pose.orientation.w
1509044729652338240,26459,1509044729638654000,/map,-3.03498530388,15.289100647,1.28354203701,-0.0388004910822,0.0561107302737,0.0434505798008,0.996723710441
1509044729755440323,26460,1509044729743472000,/map,-3.02230882645,15.2902746201,1.27892696857,-0.0390619346676,0.0555320857294,0.0437021139941,0.996734908562
1509044729862051250,26461,1509044729848319000,/map,-3.02884292603,15.2842388153,1.27642643452,-0.0391718960694,0.0555495803785,0.0434201693654,0.996741940309
1509044729970548129,26462,1509044729953159000,/map,-3.03225040436,15.2918796539,1.2840873003,-0.038706166218,0.0556661090764,0.0434406099388,0.996752742863
1509044730070394266,26463,1509044730057999000,/map,-3.02661347389,15.3010892868,1.28338062763,-0.0385237780373,0.0560625544159,0.0436547302572,0.996728234297
1509044730173811984,26464,1509044730162840000,/map,-3.02550673485,15.2895069122,1.29353356361,-0.0384625385021,0.055856786098,0.0433200797948,0.996756752305
1509044730276221258,26465,1509044730267688000,/map,-3.03223419189,15.2970142365,1.28109908104,-0.0390984071731,0.0559975091168,0.0433820359361,0.996721421706
1509044730382167538,26466,1509044730372557000,/map,-3.04567694664,15.2868270874,1.28572714329,-0.0388462427067,0.0559626575417,0.04344739002,0.996730392177
1509044730489117353,26467,1509044730477382000,/map,-3.02198433876,15.2973461151,1.27452993393,-0.0389700939385,0.0556087315159,0.043536250124,0.996741488894
1509044730591191303,26468,1509044730582203000,/map,-3.04268741608,15.2779579163,1.28029215336,-0.039179000015,0.0560341085725,0.0432649986557,0.996721287284
1509044730698514925,26469,1509044730687074000,/map,-3.03403425217,15.2986240387,1.28645920753,-0.0385953034601,0.0558520192282,0.0433810078298,0.996749237601
1509044730802659496,26470,1509044730791909000,/map,-3.03245210648,15.2956752777,1.27772915363,-0.0392236123709,0.0558494916591,0.0432508343906,0.996730509134
1509044730905181728,26471,1509044730896759000,/map,-3.01555776596,15.2971906662,1.28494369984,-0.038830886575,0.0558169415626,0.0434481218162,0.996739129358
1509044731009819039,26472,1509044731001571000,/map,-3.03004026413,15.2845172882,1.27629566193,-0.0388537150409,0.0558344055881,0.0436507915499,0.996728406527
1509044731115626692,26473,1509044731106412000,/map,-3.02541732788,15.2933626175,1.27948474884,-0.0391610093556,0.0559632377671,0.0434550206061,0.996717709559
1509044731219381823,26474,1509044731211265000,/map,-3.03333687782,15.2959213257,1.28376579285,-0.0388319012355,0.055961884469,0.043088504287,0.996746573474
1509044731327735261,26475,1509044731316114000,/map,-3.0362443924,15.293639183,1.27534532547,-0.0394985996019,0.0554616068846,0.0431139775733,0.996747237633
1509044731428600325,26476,1509044731420946000,/map,-3.02564287186,15.2872934341,1.28340351582,-0.0391238413932,0.055627498649,0.043254019411,0.996746706156
1509044731534109339,26477,1509044731525794000,/map,-3.03119850159,15.2971954346,1.28603851795,-0.0392413134983,0.0556344980749,0.0435971361796,0.996726748741
1509044731643504857,26478,1509044731630670000,/map,-3.02545404434,15.3009414673,1.2898004055,-0.0385985509289,0.0557798834612,0.0428231830607,0.996777272744
1509044731745826273,26479,1509044731735482000,/map,-3.00143575668,15.293094635,1.28448474407,-0.0389283762311,0.0554955054909,0.0434756442355,0.996752074867
1509044731852115146,26480,1509044731840331000,/map,-2.97637295723,15.3036956787,1.28897619247,-0.0384924567978,0.0552274996061,0.0433362146835,0.996789961102
1509044731955410090,26481,1509044731945162000,/map,-2.96095943451,15.3120603561,1.27526378632,-0.0385338204294,0.0537843304964,0.0436758152774,0.996852453293
1509044732061020083,26482,1509044732049995000,/map,-2.92215251923,15.3304843903,1.2839474678,-0.0378407261685,0.0522630927672,0.0438548311732,0.996952056199
1509044732167023257,26483,1509044732154865000,/map,-2.84969353676,15.3424835205,1.29731047153,-0.0369440431161,0.0497552703025,0.0437061580164,0.997120515538
1509044732269329216,26484,1509044732259675000,/map,-2.72659468651,15.3768634796,1.30865287781,-0.0366067589008,0.0487507079909,0.0436139401104,0.997186611373
1509044732372532266,26485,1509044732364531000,/map,-2.58946990967,15.4236860275,1.32297050953,-0.03613984109,0.0484115938859,0.0433721715771,0.997230707608
1509044732479752302,26486,1509044732469391000,/map,-2.39746570587,15.4665412903,1.34531009197,-0.0359219226932,0.0487566936096,0.04185025349,0.997286797557
1509044732584279385,26487,1509044732574218000,/map,-2.17881011963,15.5171480179,1.34670746326,-0.0372758564058,0.0493429730467,0.040113561296,0.997279641695
1509044732687143731,26488,1509044732679044000,/map,-1.95269930363,15.5590677261,1.36142981052,-0.037043575683,0.04975744636,0.0384339761268,0.997333845566
1509044732793706918,26489,1509044732783886000,/map,-1.6712192297,15.5700798035,1.36665809155,-0.036831271925,0.0503427934313,0.0357794776115,0.997411093552
1509044732898494570,26490,1509044732888782000,/map,-1.36858105659,15.6575880051,1.38181436062,-0.0368941485944,0.0519138876608,0.0340126435593,0.997390049151
1509044733006267841,26491,1509044732993586000,/map,-1.02561998367,15.7379398346,1.42348182201,-0.0367919931216,0.0563765449966,0.031674408709,0.997228542637
1509044733106892182,26492,1509044733098423000,/map,-0.681136608124,15.8091592789,1.44087445736,-0.03610762432,0.0584805291221,0.030269154303,0.997176035351
1509044733211528910,26493,1509044733203259000,/map,-0.348825603724,15.8664598465,1.4673435688,-0.0340727067925,0.0597422311384,0.0296190829398,0.99719237181
1509044733317238631,26494,1509044733308112000,/map,-0.0352420546114,15.9146080017,1.49564445019,-0.0331061439025,0.0594636280901,0.0286538726102,0.997269780829
1509044733426839321,26495,1509044733413188000,/map,0.276327580214,15.9913825989,1.50558829308,-0.0331804339115,0.0581955746809,0.0276336473148,0.997370901635
1509044733530975779,26496,1509044733517795000,/map,0.63373196125,16.0474834442,1.54154372215,-0.0331037790276,0.0575802809539,0.0258732672478,0.997456377543
1509044733633107155,26497,1509044733622620000,/map,0.928213059902,16.0979423523,1.55064988136,-0.033601281104,0.05718911646,0.0252624512597,0.997477903225
1509044733738477371,26498,1509044733727464000,/map,1.25607478619,16.139881134,1.55514502525,-0.0356777160575,0.0565527453468,0.0250158491354,0.997448291824
1509044733840472790,26499,1509044733832314000,/map,1.59165894985,16.1942081451,1.59121227264,-0.036262347094,0.0576340173541,0.0243267296894,0.997382360206
1509044733948453200,26500,1509044733937179000,/map,1.94065093994,16.2879066467,1.619784832,-0.0353674965919,0.0585855398271,0.0239910814914,0.997367185502
1509044734055556713,26501,1509044734042003000,/map,2.30598783493,16.3285675049,1.63611412048,-0.0339683114675,0.0578014293022,0.0231460240381,0.997481533743
1509044734156188514,26502,1509044734146832000,/map,2.62924861908,16.397069931,1.67160725594,-0.0329728612377,0.0579329364519,0.022793011288,0.997515435436
1509044734262600918,26503,1509044734251678000,/map,2.91726398468,16.4527168274,1.69253873825,-0.0333472412381,0.0576346682494,0.0226363052599,0.997523836408
1509044734366506231,26504,1509044734356518000,/map,3.25713276863,16.5058383942,1.71250319481,-0.033945536639,0.0577927739632,0.0216847753059,0.997515647165
1509044734469951989,26505,1509044734461362000,/map,3.57130217552,16.5637454987,1.73120355606,-0.0337723736558,0.0572261425319,0.0211405830943,0.997565873081
1509044734575761471,26506,1509044734566206000,/map,3.86723566055,16.6285152435,1.7592779398,-0.0337864277543,0.0576735321584,0.0206896440524,0.99754908632
1509044734682284555,26507,1509044734671041000,/map,4.15152788162,16.6953392029,1.78538143635,-0.0344924823419,0.0587318846044,0.0195487463374,0.997486180811
1509044734789100880,26508,1509044734775987000,/map,4.43164205551,16.7488079071,1.79413568974,-0.0345641996011,0.059215656943,0.0192511209949,0.997460884656
1509044734892546353,26509,1509044734880742000,/map,4.67015075684,16.7675571442,1.81255924702,-0.0337532607113,0.0598870397134,0.0193140109938,0.997447356428
1509044734998841059,26510,1509044734985601000,/map,4.91483783722,16.8134975433,1.8153796196,-0.0334230211662,0.0600401410668,0.0193034262328,0.997449477845
1509044735100468693,26511,1509044735090429000,/map,5.17367124557,16.8673915863,1.83318507671,-0.0336768543695,0.0596752456082,0.0185609542569,0.997476929818
1509044735209515556,26512,1509044735195270000,/map,5.42883253098,16.8806591034,1.85020399094,-0.0346442210308,0.0592873022857,0.0184504813847,0.997468983715
1509044735316278250,26513,1509044735300122000,/map,5.61918306351,16.9246902466,1.85740661621,-0.0353952023474,0.0595941054288,0.0183805747731,0.997425624656
1509044735415087064,26514,1509044735404971000,/map,5.81030893326,16.9520320892,1.87398910522,-0.0350013206985,0.060101839096,0.0179572284586,0.99741677068
1509044735522780482,26515,1509044735510161000,/map,5.94580507278,16.9827270508,1.87943279743,-0.0353608637617,0.0598815519319,0.0184006264878,0.997409257024
1509044735623462431,26516,1509044735614649000,/map,6.0624332428,17.0138683319,1.89605307579,-0.0358557944586,0.0593493992064,0.0185689804424,0.997420274399
1509044735728262652,26517,1509044735719487000,/map,6.17440795898,17.0404930115,1.89997386932,-0.0366568284095,0.0590187033835,0.0181727900557,0.997418076477
1509044735834475840,26518,1509044735824319000,/map,6.27176904678,17.0467853546,1.89576542377,-0.0371944020297,0.0586066781678,0.0179618567918,0.997426290726
1509044735943366926,26519,1509044735929163000,/map,6.32964420319,17.0706977844,1.90669178963,-0.0372605880074,0.0588102877779,0.0180171912742,0.997410837845
1509044736043353401,26520,1509044736034019000,/map,6.39877462387,17.0716362,1.90681946278,-0.037228427604,0.0583443157943,0.0178562199023,0.997442299285
1509044736148155027,26521,1509044736138837000,/map,6.46002197266,17.0822944641,1.90673470497,-0.0370027647329,0.0570866638401,0.0178635464868,0.997523334023
1509044736254319802,26522,1509044736244093000,/map,6.50956487656,17.0958251953,1.92450296879,-0.036141000609,0.0565361528974,0.0176505047587,0.997590071709
1509044736357232556,26523,1509044736348546000,/map,6.53866481781,17.0890731812,1.92379975319,-0.0362323835459,0.0563486119003,0.0174935215461,0.99760013283
1509044736462438305,26524,1509044736453375000,/map,6.57028579712,17.0920257568,1.92886412144,-0.0360089992929,0.0559505681638,0.0177392069251,0.997626285956
1509044736569564089,26525,1509044736558243000,/map,6.61399888992,17.1017074585,1.93094491959,-0.0358377254904,0.0563918121748,0.0176597462277,0.997609018762
1509044736672974273,26526,1509044736663069000,/map,6.65950870514,17.0997695923,1.93819332123,-0.0356220435401,0.0563167925082,0.0172004464499,0.997629005962
1509044736778258230,26527,1509044736767897000,/map,6.67941570282,17.1078681946,1.93867957592,-0.0356788960758,0.0565298838139,0.0173862415329,0.997611701624
1509044736882891632,26528,1509044736872730000,/map,6.69704580307,17.1073760986,1.94124150276,-0.035139813293,0.0556727660393,0.0177520143024,0.997672592904
1509044736987966015,26529,1509044736977577000,/map,6.73799467087,17.1264801025,1.9395815134,-0.0346844749532,0.0544668974688,0.0173563804196,0.997762045949
1509044737092382500,26530,1509044737082414000,/map,6.79645490646,17.1442909241,1.93719577789,-0.0341405653221,0.0516203262497,0.0174097239737,0.997931192632
1509044737202862538,26531,1509044737187257000,/map,6.92375802994,17.1538105011,1.94880104065,-0.0338252972629,0.0490215655923,0.0178267983781,0.998065599363
1509044737304447406,26532,1509044737292097000,/map,7.09354305267,17.2023830414,1.96070420742,-0.0328904466053,0.0485021611402,0.0183143063501,0.998113392892
1509044737406725370,26533,1509044737396947000,/map,7.29651689529,17.242307663,1.97263872623,-0.0323911003936,0.0493757808461,0.0179576884373,0.99809336753
1509044737513635061,26534,1509044737501789000,/map,7.54948616028,17.2826137543,1.98096036911,-0.031918089645,0.0489148010126,0.0164777801502,0.998156831644
1509044737615468654,26535,1509044737606648000,/map,7.81339120865,17.3159351349,2.01165604591,-0.0320440273393,0.0479187507457,0.0160763004251,0.998207656855
1509044737720386512,26536,1509044737711523000,/map,8.09765148163,17.3486614227,2.02925610542,-0.0326090653801,0.0473905320518,0.0154195606639,0.998224936312
1509044737828647721,26537,1509044737816332000,/map,8.47574615479,17.4246082306,2.06510090828,-0.0324437258852,0.04665656224,0.0156503136426,0.998261307241
1509044737930675167,26538,1509044737921154000,/map,8.85132694244,17.4981861115,2.08363604546,-0.033085760774,0.0456638799899,0.0165679294107,0.998271328955
1509044738034884716,26539,1509044738026006000,/map,9.25642681122,17.5901699066,2.09789943695,-0.0335799509942,0.0474704914621,0.018015863679,0.998145464342
1509044738139917534,26540,1509044738130832000,/map,9.66309356689,17.6719245911,2.11856269836,-0.0358164988167,0.0512161082847,0.0207915110172,0.997828543255
1509044738246655737,26541,1509044738235698000,/map,10.103723526,17.7448654175,2.15858602524,-0.0352959700195,0.0563649968417,0.022381459302,0.99753508806
1509044738349485605,26542,1509044738340546000,/map,10.5548534393,17.8243942261,2.18732523918,-0.0359519355409,0.0580521371299,0.0227765966207,0.997405952635
1509044738459238414,26543,1509044738445423000,/map,10.9527778625,17.9089450836,2.23796749115,-0.0384574662393,0.0597414974386,0.0206889481701,0.997258213402
1509044738561122596,26544,1509044738550210000,/map,11.3738336563,17.9651603699,2.24235796928,-0.0399345115023,0.0607045212628,0.017543204479,0.997202302377
1509044738668384641,26545,1509044738655045000,/map,11.7818431854,18.0178031921,2.26675820351,-0.0385166312984,0.0614863835684,0.017045920412,0.99721879763
1509044738769511477,26546,1509044738759887000,/map,12.178021431,18.0980739594,2.30385398865,-0.0374427828824,0.0602108688508,0.0164864604621,0.997346923545
1509044738875978037,26547,1509044738864727000,/map,12.6069974899,18.1315479279,2.35011935234,-0.0349254725138,0.0581508732336,0.0134594112364,0.997605899923
1509044738983637723,26548,1509044738969646000,/map,12.9731340408,18.1865882874,2.39132213593,-0.0335931550113,0.0587281273886,0.0123384293858,0.99763233215
1509044739085110657,26549,1509044739074422000,/map,13.3528089523,18.2686729431,2.4165418148,-0.0355092713253,0.0584932452392,0.0100543117141,0.997605404319
1509044739189239362,26550,1509044739179280000,/map,13.7375392914,18.3259372711,2.42886257172,-0.0375141688988,0.0582869707844,0.00644150433522,0.997573968782
1509044739294372813,26551,1509044739284101000,/map,14.1126441956,18.3647270203,2.4462916851,-0.0375978669326,0.0565983341852,0.00387323131761,0.997681325398
1509044739401406568,26552,1509044739388949000,/map,14.4871492386,18.4106655121,2.46808743477,-0.0375954846504,0.0556849745686,0.00124269142092,0.997739554623
1509044739505225528,26553,1509044739493783000,/map,14.8937673569,18.458990097,2.49611973763,-0.0374364099135,0.0576645518986,-0.00334506894945,0.997628249991
1509044739609531869,26554,1509044739598623000,/map,15.3089971542,18.4759693146,2.51379227638,-0.0360355332177,0.0595806470749,-0.00763664091438,0.99754361737
1509044739719005463,26555,1509044739703494000,/map,15.6653671265,18.5094184875,2.53478169441,-0.0338999029318,0.0607496328189,-0.0110038451514,0.997516513189
1509044739820224125,26556,1509044739808334000,/map,16.0219955444,18.5430545807,2.54588317871,-0.0329244562981,0.0603000929933,-0.0159785462295,0.99750918042
1509044739923277627,26557,1509044739913167000,/map,16.3876895905,18.5666732788,2.59125089645,-0.0330655967932,0.0589829538125,-0.0232001635741,0.997441441829
1509044740029905031,26558,1509044740018008000,/map,16.7250862122,18.5488262177,2.61614441872,-0.0314096878652,0.0582738127268,-0.0300849041587,0.997352742414
1509044740132462797,26559,1509044740122861000,/map,17.0769100189,18.5168361664,2.65562558174,-0.0297215684386,0.0581347042723,-0.0359049762221,0.997220044529
1509044740239302948,26560,1509044740227682000,/map,17.3440990448,18.5132274628,2.66598129272,-0.0295161157195,0.0567944631212,-0.043670146356,0.996993533675
1509044740346264298,26561,1509044740332521000,/map,17.708896637,18.5225944519,2.69754004478,-0.0289657454919,0.0556764082937,-0.0532614812694,0.996606410656
1509044740448312189,26562,1509044740437429000,/map,18.0692214966,18.5350761414,2.70824408531,-0.0277747454156,0.0552548352319,-0.0627442583449,0.996111753141
1509044740554029961,26563,1509044740542219000,/map,18.3917961121,18.5354881287,2.71659827232,-0.0247796628108,0.0552758671399,-0.070976763257,0.99563690465
1509044740658871178,26564,1509044740647053000,/map,18.7256565094,18.4972877502,2.74511766434,-0.0223361389664,0.0550287912904,-0.0793813937886,0.995073627098
1509044740765707361,26565,1509044740751900000,/map,19.0166816711,18.4708652496,2.76759338379,-0.0217937249192,0.0560876099582,-0.0899398028721,0.994127781235
1509044740868789807,26566,1509044740856737000,/map,19.3884773254,18.4292526245,2.80606031418,-0.0212284447054,0.0588241028965,-0.101083752904,0.992910445585
1509044740972840923,26567,1509044740961598000,/map,19.7388458252,18.3805294037,2.83256816864,-0.0178069422906,0.0597205485655,-0.109896794708,0.991987431069
1509044741077918123,26568,1509044741066423000,/map,20.0408592224,18.3195419312,2.86130452156,-0.0137227821844,0.0600992862012,-0.118124716936,0.9910834033
1509044741182441777,26569,1509044741171276000,/map,20.319568634,18.2544212341,2.88819646835,-0.0113643388185,0.0598612283848,-0.127042230873,0.990024119259
1509044741285954595,26570,1509044741276134000,/map,20.6139183044,18.190279007,2.91622233391,-0.0116987937787,0.0597426230584,-0.13762609925,0.988611659864
1509044741392625889,26571,1509044741380950000,/map,20.9155044556,18.087310791,2.93694639206,-0.012529090416,0.060071788351,-0.147939077935,0.987090893159
1509044741496223197,26572,1509044741485781000,/map,21.2250766754,18.0062580109,2.96341323853,-0.0116535534901,0.059976879302,-0.15738177866,0.985645952858
1509044741606559727,26573,1509044741590627000,/map,21.5007896423,17.917591095,2.99780297279,-0.00541106386006,0.0570140325507,-0.16504196718,0.984622399476
1509044741706918228,26574,1509044741695487000,/map,21.7455005646,17.8295230865,3.02162909508,-0.0028595902147,0.0562399603893,-0.173079607693,0.983296668865
1509044741810295188,26575,1509044741800318000,/map,21.9915161133,17.7500629425,3.02021360397,-0.0017896404582,0.0562445025969,-0.181467906341,0.981785491889
1509044741917428627,26576,1509044741905196000,/map,22.2718811035,17.6868228912,3.03141927719,-0.00344737621985,0.0563369071307,-0.189810622498,0.980197019012
1509044742019347641,26577,1509044742010004000,/map,22.5321292877,17.5861129761,3.05613970757,-0.00480964099592,0.0564891762805,-0.198130591819,0.978534674348
1509044742124814721,26578,1509044742114841000,/map,22.7845058441,17.4747238159,3.07669448853,-0.00351296368451,0.0571882795154,-0.205678880908,0.976940815874
1509044742267730945,26579,1509044742219721000,/map,23.0382728577,17.3517360687,3.08864450455,-0.00173878270604,0.0566843525765,-0.213595075823,0.975274835311
1509044742336664995,26580,1509044742324535000,/map,23.2822036743,17.2298965454,3.10468125343,0.00020972442391,0.0566425926728,-0.221740274029,0.97345920489
1509044742438960970,26581,1509044742429375000,/map,23.5440292358,17.1094284058,3.12949967384,0.000816887263609,0.0574603601211,-0.230709169226,0.971324311929
1509044742543484320,26582,1509044742534214000,/map,23.7961177826,17.0016002655,3.14564466476,0.00276570720221,0.0590769804634,-0.239202409748,0.969166893994
1509044742650865076,26583,1509044742639060000,/map,24.0560798645,16.8878765106,3.17839598656,0.00506197722535,0.0604726609343,-0.248099037422,0.966832095711
1509044742754985620,26584,1509044742743884000,/map,24.2993965149,16.7361660004,3.20708203316,0.00532285305499,0.0618179187564,-0.259644259356,0.96370901767
1509044742860001691,26585,1509044742848737000,/map,24.5710372925,16.5934391022,3.2393989563,0.00602282979513,0.0619399994797,-0.274463477147,0.959581659734
1509044742963664555,26586,1509044742953587000,/map,24.8155517578,16.4590301514,3.25767111778,0.00690824192444,0.0626980370866,-0.291836028633,0.954386171699
1509044743067445117,26587,1509044743058427000,/map,25.0583744049,16.3110637665,3.26236200333,0.00845012267127,0.0638293944703,-0.311093093389,0.948195913867
1509044743174096943,26588,1509044743163298000,/map,25.2991733551,16.1027545929,3.28480315208,0.0118158096496,0.0644516995237,-0.331602984123,0.941140704672
1509044743283056392,26589,1509044743268105000,/map,25.5230121613,15.8924045563,3.30662941933,0.0157590029538,0.0634863760449,-0.352343330236,0.933581979004
1509044743386095812,26590,1509044743372953000,/map,25.793926239,15.6150016785,3.32743406296,0.0199959378216,0.0632576472087,-0.373870494491,0.925105121535
1509044743489809397,26591,1509044743477810000,/map,26.0276451111,15.3462228775,3.36211276054,0.0234565766767,0.0648135921584,-0.395753848521,0.915766279497
1509044743594215595,26592,1509044743582629000,/map,26.1854248047,15.108086586,3.3808567524,0.0259162271516,0.065169803984,-0.415193916619,0.907025499874
1509044743716352359,26593,1509044743687493000,/map,26.3395137787,14.8899240494,3.39303827286,0.0286828234112,0.064443529264,-0.433585359547,0.898347406722
1509044743806877961,26594,1509044743792316000,/map,26.4838657379,14.6592473984,3.4039607048,0.0323674178353,0.0631715010129,-0.451686022188,0.889348890528
1509044743911116547,26595,1509044743897193000,/map,26.6282730103,14.4031591415,3.45191574097,0.03827634837,0.0614150113486,-0.469650978326,0.879881285228
1509044744013250392,26596,1509044744001993000,/map,26.7558994293,14.1875858307,3.43209004402,0.0399135876903,0.0609586199156,-0.485026105274,0.8714589086
1509044744119155048,26597,1509044744106861000,/map,26.8549251556,13.9256954193,3.42345905304,0.0418870021536,0.0597510144068,-0.50019740622,0.862831298771
1509044744220808943,26598,1509044744211714000,/map,26.9642181396,13.6789045334,3.4298479557,0.0429042798005,0.0584743218029,-0.514881572594,0.854187884875
1509044744328329937,26599,1509044744316519000,/map,27.053445816,13.388428688,3.45355200768,0.045427268816,0.0578463242081,-0.529325381748,0.845224707555
1509044744431182841,26600,1509044744421365000,/map,27.168050766,13.1056909561,3.44947147369,0.0469289983478,0.0562994634353,-0.544106041965,0.835808982141
1509044744548435224,26601,1509044744526211000,/map,27.2214603424,12.8567228317,3.45502209663,0.0488918617231,0.0573559381533,-0.557361820409,0.826841994196
1509044744640164111,26602,1509044744631070000,/map,27.2957363129,12.6022758484,3.44471168518,0.0501446235345,0.0586408703004,-0.571383296499,0.817048281035
1509044744745236814,26603,1509044744735883000,/map,27.3607807159,12.3253364563,3.44017124176,0.0535373005187,0.057670998495,-0.585137531724,0.807107107114
1509044744854867815,26604,1509044744840731000,/map,27.428981781,12.0503196716,3.44278621674,0.0565756690885,0.0559874394548,-0.599181842198,0.796646546638
1509044744956293471,26605,1509044744945584000,/map,27.4689598083,11.7708005905,3.4550807476,0.0603658496395,0.0539390339844,-0.612716160062,0.786145948288
1509044745111694696,26606,1509044745050593000,/map,27.533323288,11.4981079102,3.47324728966,0.0625150395992,0.0546146748855,-0.626759306346,0.774778600001
1509044745171051418,26607,1509044745155287000,/map,27.6120948792,11.1914491653,3.50514936447,0.0658924821072,0.0542225160571,-0.640022268597,0.763603035126
1509044745272961868,26608,1509044745260096000,/map,27.7055950165,10.8385705948,3.49837088585,0.0658646498802,0.0547574972995,-0.653617354483,0.751962644221
1509044745377896730,26609,1509044745364940000,/map,27.7489356995,10.4706640244,3.51686215401,0.0675519276132,0.0539940179543,-0.667344735078,0.73971101632
1509044745481299530,26610,1509044745469779000,/map,27.8095283508,10.1549348831,3.50529074669,0.0683003535666,0.054853038709,-0.680314677901,0.727666231784
1509044745587812361,26611,1509044745574651000,/map,27.8343734741,9.86129283905,3.53343987465,0.0718662249051,0.0532036119429,-0.691256988737,0.717055365308
1509044745690916486,26612,1509044745679492000,/map,27.8111152649,9.5641450882,3.5397362709,0.0752549028133,0.0512973085292,-0.701832922418,0.706495459823
1509044745795342825,26613,1509044745784312000,/map,27.792804718,9.24064540863,3.53938794136,0.0772470569003,0.0506401947227,-0.713391398115,0.694651837955
1509044745900617410,26614,1509044745889148000,/map,27.7793884277,8.96191978455,3.50995492935,0.0777550298542,0.050641110058,-0.723802845841,0.683739039149
1509044746003705271,26615,1509044745994000000,/map,27.7311553955,8.68622112274,3.51656007767,0.0794937141202,0.0499916632787,-0.734290611793,0.672308619944
1509044746108078494,26616,1509044746098845000,/map,27.6669712067,8.38497066498,3.52044081688,0.0812226254136,0.0493294359356,-0.744792282424,0.660495229289
1509044746218831060,26617,1509044746203682000,/map,27.6107673645,8.07765483856,3.50928092003,0.0814111500602,0.0497984363085,-0.755431454848,0.648240431794
1509044746320386999,26618,1509044746308536000,/map,27.5406169891,7.74897527695,3.4967315197,0.0821172690446,0.049689967292,-0.766298004621,0.635275553905
1509044746433598966,26619,1509044746413370000,/map,27.4677753448,7.48613357544,3.50514173508,0.0847220254652,0.0495106969668,-0.776344459543,0.622623601724
1509044746527833394,26620,1509044746518213000,/map,27.3789253235,7.20771741867,3.49259638786,0.0866606826033,0.0476691316188,-0.786493081789,0.609627929379
1509044746637313186,26621,1509044746623047000,/map,27.2304878235,6.92571926117,3.50643587112,0.0900285528815,0.044083665766,-0.797016026854,0.595581180878
1509044746783393234,26622,1509044746727916000,/map,27.0536251068,6.64022636414,3.47706079483,0.0921206747606,0.0432863100587,-0.808902129015,0.579065991332
1509044746850218904,26623,1509044746832738000,/map,26.9516124725,6.39779090881,3.48497724533,0.0954619745404,0.0419544250656,-0.818958642142,0.564299193775
1509044746948428050,26624,1509044746937585000,/map,26.8286209106,6.160384655,3.45200228691,0.0969572787464,0.0420591530785,-0.827827274037,0.550937671702
1509044747056380431,26625,1509044747042940000,/map,26.6956157684,5.92554759979,3.43825292587,0.099244199875,0.0429568650772,-0.837549579716,0.535552049806
1509044747157567392,26626,1509044747147281000,/map,26.5770397186,5.67987012863,3.43611836433,0.101427647813,0.0435715152161,-0.846941267319,0.52010041822
1509044747263651446,26627,1509044747252099000,/map,26.4466819763,5.41900396347,3.44073581696,0.101611554922,0.044113421572,-0.856026030366,0.504924284699
1509044747393036052,26628,1509044747356967000,/map,26.3394393921,5.13131475449,3.43334698677,-0.102305998045,-0.0430994324852,0.863957253971,-0.491175920618
1509044747474573724,26629,1509044747461784000,/map,26.2168960571,4.84050989151,3.43475389481,-0.103720829424,-0.0431048476732,0.869982528709,-0.48011911167
1509044747579480862,26630,1509044747566625000,/map,26.0937137604,4.59066057205,3.43119287491,-0.10501642894,-0.042841096951,0.874147175613,-0.472231834413
1509044747681111981,26631,1509044747671465000,/map,25.9469089508,4.356798172,3.4248623848,-0.104935289753,-0.0429831646306,0.87795235606,-0.465124384451
1509044747787171445,26632,1509044747776320000,/map,25.7887172699,4.13643360138,3.40429067612,-0.105128838741,-0.0414186227446,0.881068203626,-0.459294290749
1509044747891395107,26633,1509044747881164000,/map,25.6460704803,3.91914319992,3.40155124664,-0.105188171093,-0.0395175225595,0.88319226039,-0.455351781879
1509044747999130695,26634,1509044747986000000,/map,25.4880256653,3.6723780632,3.40412425995,-0.105790540043,-0.038666441151,0.884784728668,-0.452182763804
1509044748101692638,26635,1509044748090835000,/map,25.3552894592,3.43955588341,3.40346169472,-0.104016149449,-0.0400400316556,0.886174144731,-0.449747508864
1509044748249927742,26636,1509044748195699000,/map,25.2261447906,3.21254611015,3.38809466362,-0.103873495932,-0.0415159015149,0.887947731656,-0.44613400746
1509044748312161230,26637,1509044748300532000,/map,25.0772037506,2.9959936142,3.36842274666,-0.103481170345,-0.0427012613435,0.890275245463,-0.441450152316
1509044748415413957,26638,1509044748405361000,/map,24.9161262512,2.75739908218,3.34762430191,-0.10382597381,-0.0438631805395,0.893306861208,-0.435085095441
1509044748522246656,26639,1509044748510242000,/map,24.7712116241,2.54686331749,3.34430670738,-0.103891325442,-0.0441694770401,0.896461409076,-0.428500398871
1509044748625506982,26640,1509044748615045000,/map,24.6211624146,2.33422160149,3.34108138084,-0.102612139881,-0.0449084777035,0.900364790591,-0.42047261652
1509044748730073828,26641,1509044748719899000,/map,24.4673862457,2.14921545982,3.35640931129,-0.102053497847,-0.0454904983564,0.904572017887,-0.41141847624
1509044748837451945,26642,1509044748824731000,/map,24.2475547791,1.96833384037,3.31380486488,-0.102377469986,-0.0471019407404,0.909421488293,-0.400315897072
1509044748944328623,26643,1509044748929582000,/map,24.094827652,1.81336688995,3.32117843628,-0.10468631099,-0.0453585599009,0.914401836278,-0.388397552961
1509044749075982330,26644,1509044749034460000,/map,23.9198265076,1.67003703117,3.30905175209,-0.107340090677,-0.0426529247872,0.920407455119,-0.373508968436
1509044749156058822,26645,1509044749139254000,/map,23.6823825836,1.54393076897,3.28707623482,-0.109392786996,-0.0399909919732,0.927614903347,-0.354914820489
1509044749254998679,26646,1509044749244108000,/map,23.4370536804,1.43543446064,3.25398349762,-0.111784508615,-0.039361393202,0.933848776646,-0.337463133861
1509044749399031954,26647,1509044749348980000,/map,23.3328762054,1.35730040073,3.24605679512,-0.113022951673,-0.0377557052767,0.940014467127,-0.319645304528
1509044749466870091,26648,1509044749453821000,/map,23.2159137726,1.22633910179,3.23880910873,-0.113779299379,-0.0362431761675,0.946317730289,-0.300372196708
1509044749570925332,26649,1509044749558646000,/map,23.0743370056,1.14468383789,3.22949242592,-0.114779932875,-0.0339051291394,0.951927834905,-0.281974123566
1509044749676358840,26650,1509044749663480000,/map,22.9114360809,1.06354296207,3.22080850601,-0.115679393477,-0.032850795899,0.95643997552,-0.266010669638
1509044749779883505,26651,1509044749768349000,/map,22.7537708282,1.00227594376,3.20008587837,-0.115645455909,-0.032426589457,0.960291947418,-0.251821406057
1509044749883096280,26652,1509044749873164000,/map,22.5748462677,0.944320619106,3.20822286606,-0.116036082116,-0.0312400932302,0.963787882529,-0.23806008005
1509044750009994057,26653,1509044749978127000,/map,22.4264144897,0.84828042984,3.22481799126,-0.116508232025,-0.0300231120204,0.966696679468,-0.22588044298
1509044750095218987,26654,1509044750082860000,/map,22.2404384613,0.786686301231,3.20805335045,-0.117583815501,-0.0292788745671,0.969244952778,-0.214198541895
1509044750255481305,26655,1509044750187706000,/map,22.1122112274,0.743103027344,3.20888233185,-0.118682271197,-0.0275438550412,0.970847094173,-0.206426195741
1509044750304948171,26656,1509044750292517000,/map,21.983253479,0.690966010094,3.18043804169,-0.118269454566,-0.0259434088213,0.972320475634,-0.199830348843
1509044750409645859,26657,1509044750397361000,/map,21.8821220398,0.646806955338,3.17791056633,-0.118345882544,-0.0251889860125,0.973303914682,-0.195036552299
1509044750515671724,26658,1509044750502204000,/map,21.7395744324,0.589087665081,3.17118668556,-0.117282168325,-0.0257126016112,0.974310307495,-0.190533933516
1509044750620288898,26659,1509044750607048000,/map,21.6702537537,0.525053560734,3.17023086548,-0.116962930134,-0.0276985666493,0.974629812164,-0.188809935175
1509044750724278661,26660,1509044750711890000,/map,21.5769672394,0.47455522418,3.1735394001,-0.11697533458,-0.0285142376068,0.974829041036,-0.187648741284
1509044750828358108,26661,1509044750816745000,/map,21.4723758698,0.4399279356,3.17638158798,-0.116854717079,-0.0276453646754,0.9751115776,-0.186381651829
1509044750932378514,26662,1509044750921612000,/map,21.3908405304,0.397036701441,3.16429638863,-0.117060847158,-0.0272142403231,0.975309276342,-0.185278057707
1509044751036294763,26663,1509044751026415000,/map,21.3033256531,0.34651646018,3.15310692787,-0.117542260109,-0.0275500987566,0.975341125552,-0.184755237959
1509044751141179518,26664,1509044751131264000,/map,21.2373962402,0.322403788567,3.14308738708,-0.116708249746,-0.0287827948436,0.97555851934,-0.183946488159
1509044751249219982,26665,1509044751236109000,/map,21.2053451538,0.297281861305,3.15160155296,-0.116365608473,-0.0285490428629,0.975504029246,-0.184488173715
1509044751350621130,26666,1509044751340939000,/map,21.1645412445,0.27494519949,3.14059329033,-0.116324113557,-0.0280889485524,0.975643307419,-0.183847350436
1509044751457473745,26667,1509044751445799000,/map,21.149559021,0.257936537266,3.14061236382,-0.116477000533,-0.0282145174865,0.975579876254,-0.184067798373
1509044751561322840,26668,1509044751550624000,/map,21.1318264008,0.252534121275,3.12929153442,-0.116488459385,-0.0285513995723,0.975601259181,-0.183895186171
1509044751665724535,26669,1509044751655466000,/map,21.1209354401,0.249293416739,3.13605213165,-0.116472362748,-0.0282155955442,0.975716014286,-0.183347561612
1509044751770507183,26670,1509044751760308000,/map,21.1382751465,0.253275543451,3.142557621,-0.115936382324,-0.0280733433128,0.975742287223,-0.183569146572
1509044751874864907,26671,1509044751865154000,/map,21.1247005463,0.253415882587,3.14903855324,-0.115203043539,-0.0274023362133,0.975859945932,-0.183506775502
1509044751983375224,26672,1509044751970107000,/map,21.1409645081,0.254896342754,3.14876937866,-0.115145043318,-0.0278252462643,0.975854217625,-0.183510001399
1509044752084829283,26673,1509044752074860000,/map,21.1369075775,0.251160532236,3.15250635147,-0.114992521089,-0.027725843401,0.97584374376,-0.183676306219
1509044752190192559,26674,1509044752179685000,/map,21.1354637146,0.249902665615,3.14425897598,-0.114177335432,-0.0275286851492,0.97589857757,-0.183923010697
1509044752297350442,26675,1509044752284523000,/map,21.084104538,0.244152724743,3.13824939728,-0.11295764707,-0.0270593694369,0.976174183739,-0.183282087222
1509044752412528426,26676,1509044752389380000,/map,21.04164505,0.221774190664,3.13790893555,-0.110829165782,-0.0262403631331,0.976623880358,-0.182302319428
1509044752506409126,26677,1509044752494204000,/map,20.9749889374,0.168600171804,3.14274430275,-0.107030517591,-0.0252412803117,0.977150321141,-0.181891714945
1509044752610277053,26678,1509044752599047000,/map,20.8898639679,0.133734792471,3.13874197006,-0.106700836241,-0.0246797942491,0.977213978342,-0.181820460438
1509044752720547511,26679,1509044752703946000,/map,20.7681903839,0.0714953988791,3.13288235664,-0.106314345684,-0.0240968523683,0.977390445887,-0.181175378838
1509044752822108342,26680,1509044752808731000,/map,20.5990982056,-0.00419940007851,3.12354779243,-0.105831019829,-0.0224018614058,0.977595889301,-0.180566411794
1509044752926405607,26681,1509044752913602000,/map,20.3835678101,-0.0952193960547,3.1153318882,-0.106236772663,-0.0213731816813,0.977645290932,-0.180184961521
1509044753031194359,26682,1509044753018416000,/map,20.1267242432,-0.242605775595,3.09634542465,-0.105501771851,-0.0212587707536,0.977639446934,-0.180661430861
1509044753152450554,26683,1509044753123471000,/map,19.8557376862,-0.409032285213,3.08467912674,-0.105618137274,-0.0206840911448,0.977282255629,-0.18258250268
1509044753238911094,26684,1509044753228110000,/map,19.5717697144,-0.60114300251,3.05628490448,-0.107122403712,-0.019634342284,0.976537413321,-0.18577934118
1509044753347394897,26685,1509044753333092000,/map,19.1972122192,-0.794276595116,3.04258942604,-0.108096047253,-0.0181084557623,0.97576571485,-0.189390068699
1509044753452553559,26686,1509044753437820000,/map,18.8768920898,-1.04041719437,3.03583335876,-0.109327961753,-0.020819807585,0.974869365946,-0.192986143885
1509044753556398042,26687,1509044753542637000,/map,18.470954895,-1.3095382452,3.00578069687,-0.112422385217,-0.0275691735802,0.973582609175,-0.196819844228
1509044753658367635,26688,1509044753647477000,/map,18.060092926,-1.58524811268,2.98439025879,-0.115949731102,-0.0310092852947,0.972318312319,-0.200477389279
1509044753763610999,26689,1509044753752325000,/map,17.6784210205,-1.827242136,2.95154237747,-0.11815547064,-0.0306489607749,0.971392251331,-0.203708173658
1509044753867439599,26690,1509044753857152000,/map,17.2960357666,-2.03837871552,2.9142999649,-0.11855072418,-0.0275583629542,0.971150156266,-0.205069833016
1509044753973388588,26691,1509044753962007000,/map,16.8950901031,-2.2657418251,2.90928030014,-0.118546166412,-0.0247020284703,0.971477121168,-0.203884328151
1509044754078367031,26692,1509044754066856000,/map,16.5043773651,-2.46241903305,2.8850569725,-0.117882149455,-0.0258334024104,0.972429421223,-0.199543115391
1509044754183501417,26693,1509044754171712000,/map,16.1148529053,-2.66580510139,2.85669589043,-0.116338506669,-0.0266761809306,0.973570928017,-0.194713588014
1509044754292431693,26694,1509044754276533000,/map,15.7501163483,-2.88061141968,2.8321647644,-0.115120648627,-0.0266977497221,0.974599787262,-0.190235961606
1509044754393657901,26695,1509044754381368000,/map,15.3871850967,-3.05659079552,2.79343318939,-0.114607267822,-0.0257099865951,0.975819251827,-0.184339248441
1509044754498493148,26696,1509044754486207000,/map,15.0492715836,-3.18707251549,2.76716351509,-0.115955912506,-0.0217770884068,0.976769368818,-0.178889868117
1509044754606219908,26697,1509044754591073000,/map,14.6881160736,-3.36328577995,2.78095602989,-0.116843369518,-0.0194808497822,0.977853676778,-0.172540749688
1509044754706952529,26698,1509044754695892000,/map,14.351984024,-3.52332234383,2.76172494888,-0.117668145138,-0.0207080195571,0.979170827824,-0.164164172356
1509044754812422490,26699,1509044754800729000,/map,13.9762783051,-3.67142295837,2.71699309349,-0.117608726227,-0.0203456296976,0.980517930919,-0.156009070291
1509044754922615020,26700,1509044754905654000,/map,13.6248073578,-3.77798295021,2.68216848373,-0.117545826381,-0.0208792098422,0.981763178128,-0.147946271901
1509044755022137777,26701,1509044755010412000,/map,13.2847385406,-3.90490722656,2.68404507637,-0.118150729105,-0.0187112233841,0.983137319856,-0.13831596306
1509044755128015412,26702,1509044755115276000,/map,12.8914194107,-4.02445316315,2.68422913551,-0.119085967401,-0.0165318000122,0.984478420348,-0.127857232198
1509044755231949857,26703,1509044755220100000,/map,12.5627412796,-4.14507341385,2.6508333683,-0.120469167599,-0.0153621616977,0.985413359631,-0.119212811003
1509044755335093804,26704,1509044755324951000,/map,12.2286348343,-4.24204444885,2.64598655701,-0.12091516814,-0.0141959959209,0.986544883687,-0.10912006362
1509044755474189771,26705,1509044755429853000,/map,11.8542137146,-4.29901027679,2.66963839531,-0.119858230349,-0.0121116609804,0.987978298179,-0.0968823751464
1509044755545756846,26706,1509044755534640000,/map,11.4943218231,-4.35658884048,2.64498281479,-0.118808289434,-0.0123923632293,0.989248526856,-0.0843704439271
1509044755650525138,26707,1509044755639465000,/map,11.1471090317,-4.39671611786,2.61956310272,-0.118644515844,-0.0128340397325,0.990212005793,-0.0723805904098
1509044755759913951,26708,1509044755744322000,/map,10.8792066574,-4.48172664642,2.60153126717,-0.120568977119,-0.0140268530348,0.990633113912,-0.0625492028018
1509044755910202926,26709,1509044755849183000,/map,10.5562000275,-4.53539466858,2.56197452545,-0.121868999893,-0.0149914194494,0.99109328042,-0.051549138837
1509044755964745307,26710,1509044755954016000,/map,10.2449579239,-4.59794092178,2.56365466118,-0.12309308466,-0.0140995722882,0.991451913899,-0.0408949507355
1509044756070597261,26711,1509044756058837000,/map,9.9823102951,-4.66530418396,2.5563685894,-0.123701673998,-0.0127013148141,0.991699151877,-0.0327011409281
1509044756179179935,26712,1509044756163681000,/map,9.70325183868,-4.67596530914,2.51977157593,-0.122726772642,-0.0119152136328,0.992088329733,-0.0235990035494
1509044756278023088,26713,1509044756268551000,/map,9.40989971161,-4.70733118057,2.5067486763,-0.123627082538,-0.0099601953912,0.992171997307,-0.0145556426031
1509044756415617205,26714,1509044756373432000,/map,9.18198204041,-4.73093891144,2.51080751419,-0.124748803844,-0.00823279313147,0.992129814745,-0.00695613039078
1509044756489003250,26715,1509044756478200000,/map,9.0213508606,-4.73686027527,2.51092529297,-0.125360429378,-0.00619503079772,0.99209191817,-0.000101200261224
1509044756594617667,26716,1509044756583051000,/map,8.86578559875,-4.69983243942,2.49651455879,-0.125904379371,-0.00522046272777,0.99199793809,0.00780543709928
1509044756699602217,26717,1509044756687890000,/map,8.74426364899,-4.70224046707,2.47883629799,-0.125576451459,-0.00415719483825,0.991985005081,0.0133799201762
1509044756805212400,26718,1509044756792737000,/map,8.63146877289,-4.68368434906,2.46818256378,-0.125474488179,-0.00311200128032,0.991913030972,0.0188416361488
1509044756909158649,26719,1509044756897573000,/map,8.55152130127,-4.68171882629,2.45377397537,-0.12464837798,-0.00276770383401,0.991917718172,0.023544894537
1509044757011620470,26720,1509044757002412000,/map,8.47354698181,-4.66810131073,2.44708538055,-0.124883222204,-0.00271195048528,0.991779732079,0.0277450747529
1509044757123862136,26721,1509044757107260000,/map,8.41843414307,-4.66218185425,2.43112230301,-0.125072884258,-0.0035256538484,0.991659658407,0.0309106013727
1509044757222752692,26722,1509044757212137000,/map,8.36588096619,-4.65412330627,2.44012951851,-0.125135181076,-0.00246570939591,0.991599631165,0.0326385999685
1509044757331180322,26723,1509044757316964000,/map,8.37248134613,-4.65866947174,2.44042730331,-0.124472056506,-0.00284922907372,0.991647038277,0.0336859098032
1509044757432249337,26724,1509044757421798000,/map,8.35014057159,-4.64629268646,2.44153308868,-0.124035138243,-0.00248658459677,0.991683248483,0.0342554529426
1509044757536004780,26725,1509044757526625000,/map,8.33154010773,-4.65515327454,2.44930768013,-0.123808404421,-0.00225107046769,0.991715635949,0.0341541958122
1509044757640703842,26726,1509044757631480000,/map,8.33073997498,-4.65718173981,2.44446873665,-0.123162597041,-0.00321970045775,0.991791894002,0.0341971813361
1509044757745636863,26727,1509044757736308000,/map,8.35668849945,-4.65199899673,2.44224524498,-0.122092826359,-0.00331013373757,0.991924855845,0.0341681887695
1509044757855487656,26728,1509044757841209000,/map,8.33835697174,-4.66200447083,2.435110569,-0.121812232156,-0.00327547109188,0.991959837328,0.0341574664663
1509044757957500592,26729,1509044757945994000,/map,8.36114311218,-4.66119623184,2.44141864777,-0.122083053169,-0.00304528982839,0.991929983644,0.0340787600429
1509044758060318711,26730,1509044758050843000,/map,8.36179161072,-4.66062688828,2.44899201393,-0.121986797086,-0.00267116039916,0.991943210275,0.0340698375088
1509044758165470368,26731,1509044758155676000,/map,8.35676860809,-4.67576503754,2.45420885086,-0.122088814274,-0.00238757809368,0.991935962194,0.0339362314815
1509044758271022779,26732,1509044758260517000,/map,8.35989665985,-4.65689897537,2.44830036163,-0.122237598407,-0.00273105028486,0.991914915198,0.0339898794831
1509044758377586510,26733,1509044758365437000,/map,8.37023639679,-4.66681432724,2.45317816734,-0.121880464795,-0.00258193199007,0.991962069877,0.0339077845671
1509044758479322889,26734,1509044758470230000,/map,8.37379360199,-4.66214990616,2.44657921791,-0.121849222834,-0.00267238126504,0.991962027333,0.0340141382842
1509044758588202983,26735,1509044758575095000,/map,8.3638048172,-4.65001153946,2.44929480553,-0.121879015258,-0.00272374694929,0.991948482666,0.0342971511879
1509044758690060755,26736,1509044758679886000,/map,8.36099338531,-4.65024518967,2.45598101616,-0.122209726634,-0.00221063259488,0.991903923247,0.0344456509053
1509044758811739902,26737,1509044758784759000,/map,8.36478996277,-4.66145324707,2.43471479416,-0.121732520384,-0.00309712113239,0.991975358528,0.0340071962093
1509044758898884605,26738,1509044758889609000,/map,8.36217212677,-4.65356779099,2.43728590012,-0.121685867815,-0.00300205410305,0.991980597537,0.0340298597696
1509044759003950768,26739,1509044758994425000,/map,8.35601425171,-4.65476512909,2.44249343872,-0.121637748723,-0.00281594062586,0.991982811394,0.0341530447106
1509044759126767019,26740,1509044759099272000,/map,8.35167884827,-4.64983081818,2.43633103371,-0.121362599779,-0.00363858220637,0.992020631498,0.0339550699737
1509044759213521829,26741,1509044759204102000,/map,8.34209823608,-4.64277267456,2.4438996315,-0.121815376258,-0.00283639919554,0.99195432553,0.0343450871281
1509044759321436118,26742,1509044759308946000,/map,8.37449550629,-4.65499067307,2.44916677475,-0.121952236709,-0.00265169086588,0.991954342981,0.0338703696245
1509044759425517969,26743,1509044759413798000,/map,8.37520122528,-4.65605401993,2.43954944611,-0.121772249884,-0.00299189245387,0.991974456179,0.0339005313526
1509044759529670655,26744,1509044759518622000,/map,8.34788799286,-4.66264772415,2.45172858238,-0.122095885146,-0.00272583146375,0.991923227343,0.0342560320216
1509044759634945447,26745,1509044759623479000,/map,8.35771274567,-4.6569943428,2.43325996399,-0.121343105294,-0.00336369153713,0.99201597479,0.0341883333584
1509044759738659543,26746,1509044759728336000,/map,8.3540430069,-4.65075397491,2.44535326958,-0.121953676418,-0.00294806603375,0.991937159361,0.0343406696837
1509044759845443584,26747,1509044759833154000,/map,8.35872459412,-4.6537861824,2.44598579407,-0.122160547915,-0.00251915140302,0.991921593115,0.0340882314185
1509044759947283487,26748,1509044759937993000,/map,8.36589241028,-4.65216875076,2.44034671783,-0.121609678552,-0.00303254911823,0.991985027375,0.0341700920814
1509044760053211613,26749,1509044760042842000,/map,8.36981964111,-4.66291856766,2.4415242672,-0.121834083764,-0.00301192306539,0.991969842019,0.0338114903108
1509044760157129917,26750,1509044760147702000,/map,8.36364555359,-4.65700531006,2.44238638878,-0.121835738355,-0.00299381748646,0.991970687334,0.0337823235907
1509044760261572482,26751,1509044760252519000,/map,8.36252784729,-4.65929937363,2.44938874245,-0.121912032668,-0.00262349818466,0.991948484723,0.0341873836812
1509044760367293147,26752,1509044760357373000,/map,8.35849380493,-4.65537786484,2.43655014038,-0.1216253374,-0.00331043646942,0.991984765505,0.0340960894998
1509044760473644699,26753,1509044760462207000,/map,8.36413860321,-4.64339923859,2.43663024902,-0.121566263421,-0.00308026884569,0.99197535961,0.034598287081
1509044760577542096,26754,1509044760567093000,/map,8.37028980255,-4.65292596817,2.44011759758,-0.121810270727,-0.00309392155885,0.991962890261,0.0340926669656
1509044760680927700,26755,1509044760671889000,/map,8.3623456955,-4.6665263176,2.44740247726,-0.121911456006,-0.00263718969969,0.991961110338,0.0338200783856
1509044760789974497,26756,1509044760776786000,/map,8.36384105682,-4.65416574478,2.44019126892,-0.12170601815,-0.00294661072015,0.991981074965,0.0339486309359
1509044760892695302,26757,1509044760881601000,/map,8.38392829895,-4.65721178055,2.44601345062,-0.122014386423,-0.00261239617655,0.991940505619,0.0340543419256
1509044760998201035,26758,1509044760986426000,/map,8.37000656128,-4.65381717682,2.44862818718,-0.12230325319,-0.00223730953419,0.991898524885,0.0342669671256
1509044761101725519,26759,1509044761091257000,/map,8.36365795135,-4.66110467911,2.4455845356,-0.12173856692,-0.00266545431324,0.991974910729,0.0340351753571
1509044761205645587,26760,1509044761196098000,/map,8.34669780731,-4.67681074142,2.45004796982,-0.121998702126,-0.00248122741503,0.991944401377,0.0340068341269
1509044761334386825,26761,1509044761300962000,/map,8.36084461212,-4.65130376816,2.44916629791,-0.121830644258,-0.00273099851322,0.991957909435,0.0341956382717
1509044761415071123,26762,1509044761405782000,/map,8.37020301819,-4.66104984283,2.44870352745,-0.121607741303,-0.00270029127583,0.991995730545,0.0338930119942
